%  GPST                  latitude(deg) longitude(deg)  height(m)   Q  ns   sdn(m)   sde(m)   sdu(m)  sdne(m)  sdeu(m)  sdun(m) age(s)  ratio
2023/06/27 12:53:15.000   31.025801820  121.438182201    14.1761   2  23   1.5102   1.5293   4.1995  -0.7492   1.7110  -1.4782   2.00    0.0
2023/06/27 12:53:16.000   31.025794476  121.438186666    14.4755   2  25   1.0999   1.1399   3.2412  -0.4599   1.3113  -1.0978   2.00    0.0
2023/06/27 12:53:17.000   31.025794276  121.438186587    14.5745   2  18   0.9739   0.9830   2.9923  -0.3904   1.1612  -1.0341   2.00    1.0
2023/06/27 12:53:18.000   31.025796069  121.438181448    13.7643   2  23   0.8463   0.8395   2.5896  -0.3328   0.9937  -0.9267   1.00    1.1
2023/06/27 12:53:19.000   31.025798202  121.438180619    13.6597   2  24   0.7561   0.7521   2.3426  -0.2815   0.9015  -0.8353   1.00    1.2
2023/06/27 12:53:20.000   31.025794480  121.438184108    16.5399   2  23   0.6852   0.6941   2.1113  -0.2486   0.8317  -0.7439   1.00    0.0
2023/06/27 12:53:21.000   31.025795824  121.438181581    15.5630   2  24   0.6340   0.6326   1.9416  -0.2288   0.7503  -0.6996   1.00    1.1
2023/06/27 12:53:22.000   31.025796826  121.438181362    15.3482   2  24   0.5933   0.5925   1.8239  -0.2079   0.7056  -0.6543   1.00    0.0
2023/06/27 12:53:23.000   31.025798786  121.438180663    14.5042   2  24   0.5572   0.5584   1.7008  -0.1878   0.6617  -0.6052   1.00    0.0
2023/06/27 12:53:24.000   31.025799812  121.438180216    14.0799   2  22   0.5292   0.5302   1.6128  -0.1730   0.6285  -0.5721   1.00    1.3
2023/06/27 12:53:25.000   31.025800500  121.438180540    13.9112   2  24   0.5039   0.4992   1.5134  -0.1585   0.5829  -0.5385   2.00    1.1
2023/06/27 12:53:27.000   31.025801518  121.438180640    13.7773   2  18   0.4907   0.4828   1.4864  -0.1521   0.5672  -0.5304   2.00    1.1
2023/06/27 12:53:29.000   31.025801792  121.438180268    13.7886   2  27   0.4682   0.4581   1.4029  -0.1426   0.5303  -0.5047   3.00    1.0
2023/06/27 12:53:30.000   31.025803281  121.438180485    13.4195   2  25   0.4501   0.4381   1.3399  -0.1336   0.5033  -0.4844   2.00    1.0
2023/06/27 12:53:31.000   31.025803709  121.438180703    13.4427   2  26   0.4334   0.4206   1.2829  -0.1257   0.4798  -0.4649   2.00    1.0
2023/06/27 12:53:32.000   31.025803985  121.438181044    13.5315   2  25   0.4188   0.4050   1.2341  -0.1189   0.4593  -0.4488   2.00    1.1
2023/06/27 12:53:33.000   31.025804173  121.438181445    13.6796   2  26   0.4053   0.3911   1.1892  -0.1129   0.4411  -0.4332   1.00    1.1
2023/06/27 12:53:34.000   31.025804598  121.438181542    13.7108   2  26   0.3930   0.3784   1.1487  -0.1076   0.4247  -0.4191   1.00    1.1
2023/06/27 12:53:35.000   31.025804897  121.438181585    13.7611   2  26   0.3817   0.3670   1.1120  -0.1029   0.4100  -0.4063   2.00    1.0
2023/06/27 12:53:36.000   31.025805073  121.438181807    13.8236   2  26   0.3713   0.3565   1.0784  -0.0986   0.3966  -0.3945   2.00    1.1
2023/06/27 12:53:37.000   31.025805173  121.438181959    13.8811   2  26   0.3617   0.3468   1.0475  -0.0947   0.3844  -0.3836   2.00    1.1
2023/06/27 12:53:38.000   31.025805221  121.438182123    13.9896   2  25   0.3530   0.3379   1.0196  -0.0912   0.3732  -0.3742   1.00    1.1
2023/06/27 12:53:39.000   31.025804865  121.438182437    14.1100   2  25   0.3448   0.3297   0.9938  -0.0879   0.3628  -0.3654   2.00    1.1
2023/06/27 12:53:40.000   31.025804928  121.438182771    14.1188   2  17   0.3408   0.3257   0.9890  -0.0872   0.3606  -0.3642   1.00    1.0
2023/06/27 12:53:41.000   31.025804592  121.438183255    14.2162   2  25   0.3328   0.3187   0.9632  -0.0852   0.3519  -0.3547   1.00    1.2
2023/06/27 12:53:42.000   31.025804430  121.438183467    14.1650   2  25   0.3257   0.3132   0.9437  -0.0832   0.3463  -0.3468   1.00    1.2
2023/06/27 12:53:43.000   31.025803974  121.438183691    14.1503   2  25   0.3188   0.3079   0.9250  -0.0816   0.3407  -0.3393   2.00    1.1
2023/06/27 12:53:44.000   31.025803559  121.438183837    14.1357   2  25   0.3124   0.3028   0.9072  -0.0800   0.3352  -0.3323   1.00    1.2
2023/06/27 12:53:45.000   31.025803191  121.438184194    14.1451   2  26   0.3062   0.2972   0.8892  -0.0775   0.3286  -0.3251   2.00    1.1
2023/06/27 12:53:46.000   31.025802841  121.438184335    14.1014   2  25   0.3003   0.2915   0.8715  -0.0772   0.3216  -0.3193   2.00    1.0
2023/06/27 12:53:47.000   31.025802328  121.438184632    14.1271   2  25   0.2948   0.2864   0.8551  -0.0765   0.3154  -0.3137   2.00    1.1
2023/06/27 12:53:48.000   31.025802401  121.438184739    14.1242   2  24   0.2904   0.2814   0.8408  -0.0775   0.3086  -0.3104   1.00    1.0
2023/06/27 12:53:49.000   31.025801583  121.438184885    14.4397   2  21   0.2873   0.2783   0.8320  -0.0789   0.3061  -0.3077   1.00    1.0
2023/06/27 12:53:50.000   31.025800396  121.438185494    14.8329   2  21   0.2840   0.2741   0.8180  -0.0788   0.3014  -0.3020   1.00    1.0
2023/06/27 12:53:51.000   31.025798207  121.438186882    15.6151   2  19   0.2812   0.2696   0.8041  -0.0778   0.2956  -0.2977   1.00    1.1
2023/06/27 12:53:53.000   31.025797369  121.438186934    15.7625   2  23   0.2768   0.2653   0.7906  -0.0763   0.2888  -0.2922   1.00    1.1
2023/06/27 12:53:54.000   31.025797167  121.438186985    15.9812   2  22   0.2731   0.2612   0.7773  -0.0759   0.2823  -0.2876   2.00    1.0
2023/06/27 12:53:55.000   31.025796982  121.438186888    16.1083   2  23   0.2697   0.2576   0.7659  -0.0757   0.2770  -0.2834   1.00    1.1
2023/06/27 12:53:56.000   31.025799430  121.438188008    16.2086   2  25   0.2653   0.2533   0.7540  -0.0740   0.2710  -0.2783   2.00    1.0
2023/06/27 12:53:57.000   31.025799996  121.438187054    16.3198   2  26   0.2617   0.2493   0.7439  -0.0720   0.2663  -0.2752   2.00    1.0
2023/06/27 12:53:58.000   31.025794547  121.438182364    16.4335   2  24   0.2588   0.2458   0.7346  -0.0699   0.2616  -0.2729   2.00    1.1
2023/06/27 12:53:59.000   31.025785623  121.438178906    16.4526   2  19   0.2565   0.2435   0.7346  -0.0698   0.2607  -0.2723   1.00    1.2
2023/06/27 12:54:00.000   31.025774516  121.438179128    16.4824   2  26   0.2532   0.2392   0.7188  -0.0681   0.2535  -0.2683   1.00    1.0
2023/06/27 12:54:01.000   31.025765770  121.438179817    16.5069   2  25   0.2503   0.2361   0.7103  -0.0667   0.2499  -0.2657   1.00    1.1
2023/06/27 12:54:02.000   31.025760153  121.438181641    16.5396   2  24   0.2475   0.2327   0.7006  -0.0651   0.2452  -0.2627   1.00    1.3
2023/06/27 12:54:04.000   31.025761593  121.438180460    16.5717   2  27   0.2447   0.2286   0.6892  -0.0632   0.2386  -0.2595   1.00    1.2
2023/06/27 12:54:05.000   31.025761489  121.438180347    16.5335   2  26   0.2421   0.2251   0.6785  -0.0614   0.2328  -0.2568   2.00    1.1
2023/06/27 12:54:06.000   31.025761658  121.438180116    16.4859   2  27   0.2391   0.2214   0.6674  -0.0580   0.2263  -0.2530   2.00    1.3
2023/06/27 12:54:07.000   31.025761714  121.438178529    16.4540   2  28   0.2364   0.2177   0.6564  -0.0557   0.2200  -0.2496   2.00    1.2
2023/06/27 12:54:08.000   31.025760673  121.438179059    16.4719   2  28   0.2334   0.2140   0.6450  -0.0520   0.2132  -0.2454   2.00    1.4
2023/06/27 12:54:09.000   31.025760232  121.438178028    16.5292   2  29   0.2300   0.2105   0.6342  -0.0498   0.2073  -0.2410   1.00    1.1
2023/06/27 12:54:11.000   31.025756195  121.438180782    16.5504   2  30   0.2271   0.2070   0.6233  -0.0473   0.2009  -0.2370   1.00    1.1
2023/06/27 12:54:12.000   31.025745014  121.438182126    16.5865   2  30   0.2240   0.2036   0.6130  -0.0455   0.1952  -0.2330   1.00    1.3
2023/06/27 12:54:13.000   31.025731313  121.438177210    16.6484   2  29   0.2213   0.2008   0.6044  -0.0441   0.1911  -0.2295   1.00    1.6
2023/06/27 12:54:14.000   31.025724545  121.438164857    16.6224   2  27   0.2190   0.1984   0.5978  -0.0434   0.1875  -0.2270   1.00    2.1
2023/06/27 12:54:15.000   31.025718723  121.438149957    16.6070   2  28   0.2164   0.1956   0.5903  -0.0415   0.1827  -0.2243   2.00    1.2
2023/06/27 12:54:16.000   31.025712906  121.438134164    16.5910   2  29   0.2139   0.1929   0.5828  -0.0399   0.1787  -0.2217   2.00    1.2
2023/06/27 12:54:17.000   31.025707657  121.438120379    16.6127   2  29   0.2116   0.1903   0.5757  -0.0383   0.1748  -0.2192   2.00    1.4
2023/06/27 12:54:18.000   31.025703702  121.438106372    16.5909   2  30   0.2089   0.1875   0.5676  -0.0346   0.1697  -0.2155   2.00    1.2
2023/06/27 12:54:20.000   31.025694949  121.438078425    16.6195   2  29   0.2066   0.1850   0.5605  -0.0322   0.1659  -0.2125   1.00    1.1
2023/06/27 12:54:21.000   31.025690094  121.438064828    16.5585   2  29   0.2042   0.1824   0.5531  -0.0292   0.1612  -0.2095   1.00    1.1
2023/06/27 12:54:22.000   31.025685806  121.438050455    16.5008   2  28   0.2020   0.1802   0.5468  -0.0266   0.1574  -0.2070   2.00    1.3
2023/06/27 12:54:23.000   31.025682408  121.438036807    16.4252   2  28   0.2001   0.1782   0.5412  -0.0249   0.1543  -0.2048   1.00    1.5
2023/06/27 12:54:24.000   31.025677614  121.438023167    16.4050   2  28   0.1978   0.1760   0.5346  -0.0209   0.1498  -0.2020   1.00    1.2
2023/06/27 12:54:27.000   31.025663823  121.437982301    16.4738   2  29   0.1958   0.1742   0.5289  -0.0199   0.1468  -0.1997   2.00    1.1
2023/06/27 12:54:28.000   31.025658492  121.437967551    16.4285   2  29   0.1939   0.1722   0.5230  -0.0173   0.1441  -0.1972   2.00    1.1
2023/06/27 12:54:29.000   31.025653277  121.437951710    16.4552   2  30   0.1920   0.1702   0.5173  -0.0150   0.1419  -0.1944   1.00    1.1
2023/06/27 12:54:31.000   31.025644260  121.437921876    16.2957   2  30   0.1898   0.1680   0.5105  -0.0054   0.1379  -0.1909   2.00    1.0
2023/06/27 12:54:32.000   31.025638677  121.437908477    16.3498   2  31   0.1879   0.1661   0.5046   0.0086   0.1346  -0.1883   1.00    1.0
2023/06/27 12:54:33.000   31.025633737  121.437894352    16.3473   2  31   0.1859   0.1641   0.4985   0.0143   0.1311  -0.1855   1.00    1.1
2023/06/27 12:54:34.000   31.025630300  121.437881272    16.3761   2  29   0.1842   0.1623   0.4935   0.0169   0.1279  -0.1835   1.00    1.3
2023/06/27 12:54:35.000   31.025626535  121.437868922    16.3401   2  29   0.1824   0.1606   0.4882   0.0194   0.1249  -0.1810   1.00    1.3
2023/06/27 12:54:36.000   31.025622038  121.437855388    16.3769   2  29   0.1808   0.1590   0.4838   0.0206   0.1220  -0.1793   1.00    1.2
2023/06/27 12:54:37.000   31.025620307  121.437841857    16.3747   2  29   0.1790   0.1574   0.4786   0.0229   0.1189  -0.1768   2.00    1.1
2023/06/27 12:54:38.000   31.025614740  121.437828231    16.3535   2  30   0.1772   0.1556   0.4731   0.0253   0.1156  -0.1742   2.00    1.1
2023/06/27 12:54:39.000   31.025611201  121.437814217    16.3872   2  30   0.1757   0.1540   0.4681   0.0265   0.1130  -0.1720   2.00    1.1
2023/06/27 12:54:40.000   31.025606297  121.437799932    16.3196   2  28   0.1742   0.1526   0.4638   0.0282   0.1101  -0.1700   2.00    1.7
2023/06/27 12:54:41.000   31.025603638  121.437787100    16.3550   2  31   0.1726   0.1510   0.4589   0.0301   0.1072  -0.1675   2.00    1.1
2023/06/27 12:54:43.000   31.025597698  121.437770754    16.2993   2  31   0.1709   0.1495   0.4537   0.0310   0.1044  -0.1652   2.00    1.1
2023/06/27 12:54:44.000   31.025594527  121.437761883    16.3195   2  32   0.1694   0.1480   0.4489   0.0320   0.1016  -0.1632   2.00    1.2
2023/06/27 12:54:45.000   31.025590211  121.437749998    16.2942   2  30   0.1679   0.1467   0.4445   0.0332   0.0991  -0.1611   2.00    1.7
2023/06/27 12:54:46.000   31.025584097  121.437736982    16.2805   2  31   0.1665   0.1454   0.4402   0.0342   0.0966  -0.1590   2.00    1.2
2023/06/27 12:54:47.000   31.025580965  121.437723601    16.2907   2  30   0.1652   0.1441   0.4357   0.0346   0.0945  -0.1570   2.00    1.1
2023/06/27 12:54:48.000   31.025575893  121.437711352    16.2640   2  28   0.1639   0.1429   0.4317   0.0351   0.0918  -0.1551   1.00    1.4
2023/06/27 12:54:49.000   31.025570814  121.437698807    16.2476   2  29   0.1627   0.1417   0.4279   0.0356   0.0893  -0.1534   1.00    1.0
2023/06/27 12:54:50.000   31.025567746  121.437685067    16.2230   2  28   0.1616   0.1407   0.4242   0.0355   0.0864  -0.1518   1.00    1.1
2023/06/27 12:54:51.000   31.025566828  121.437673135    16.2339   2  21   0.1611   0.1404   0.4250   0.0365   0.0824  -0.1522   1.00    1.2
2023/06/27 12:54:52.000   31.025563275  121.437662437    16.2385   2  28   0.1595   0.1389   0.4187   0.0363   0.0818  -0.1491   1.00    1.2
2023/06/27 12:54:53.000   31.025559082  121.437650392    16.2637   2  29   0.1583   0.1379   0.4151   0.0373   0.0800  -0.1473   2.00    1.1
2023/06/27 12:54:54.000   31.025554810  121.437636131    15.9653   1  16   0.0225   0.0215   0.0673   0.0115  -0.0186  -0.0219   2.00    3.4
2023/06/27 12:54:55.000   31.025549639  121.437622951    16.2195   2  29   0.1568   0.1366   0.4102   0.0378   0.0767  -0.1452   2.00    1.1
2023/06/27 12:54:56.000   31.025545238  121.437608962    16.2107   2  29   0.1556   0.1356   0.4068   0.0381   0.0742  -0.1436   1.00    1.1
2023/06/27 12:54:57.000   31.025541585  121.437595439    16.2401   2  30   0.1543   0.1346   0.4034   0.0383   0.0716  -0.1422   1.00    1.1
2023/06/27 12:54:58.000   31.025538824  121.437583534    16.1340   2  29   0.1531   0.1337   0.4002   0.0387   0.0693  -0.1408   2.00    1.3
2023/06/27 12:54:59.000   31.025535066  121.437570554    16.2259   2  30   0.1519   0.1328   0.3970   0.0390   0.0669  -0.1395   2.00    1.1
2023/06/27 12:55:00.000   31.025532973  121.437558450    16.1854   2  30   0.1508   0.1319   0.3938   0.0392   0.0646  -0.1381   2.00    1.3
2023/06/27 12:55:01.000   31.025528327  121.437545272    16.1533   2  29   0.1498   0.1310   0.3907   0.0392   0.0627  -0.1366   2.00    1.0
2023/06/27 12:55:02.000   31.025523675  121.437531922    16.1989   2  28   0.1488   0.1302   0.3878   0.0394   0.0605  -0.1353   2.00    2.0
2023/06/27 12:55:03.000   31.025518606  121.437517510    16.1973   2  28   0.1478   0.1294   0.3849   0.0395   0.0583  -0.1340   2.00    2.1
2023/06/27 12:55:04.000   31.025514479  121.437502973    16.2243   2  29   0.1468   0.1286   0.3820   0.0397   0.0562  -0.1327   2.00    1.2
2023/06/27 12:55:05.000   31.025509449  121.437488439    16.2190   2  29   0.1458   0.1278   0.3792   0.0398   0.0540  -0.1314   2.00    1.3
2023/06/27 12:55:06.000   31.025504296  121.437474189    16.2256   2  31   0.1447   0.1270   0.3762   0.0399   0.0521  -0.1303   2.00    1.1
2023/06/27 12:55:08.000   31.025494436  121.437445528    16.2734   2  28   0.1438   0.1263   0.3734   0.0399   0.0500  -0.1290   2.00    2.8
2023/06/27 12:55:09.000   31.025489618  121.437431769    15.9597   1  16   0.0224   0.0214   0.0672   0.0114  -0.0185  -0.0218   1.00   17.6
2023/06/27 12:55:10.000   31.025484311  121.437418989    16.2566   2  29   0.1424   0.1253   0.3695   0.0401   0.0470  -0.1273   1.00    1.0
2023/06/27 12:55:11.000   31.025479713  121.437405019    16.2263   2  29   0.1414   0.1245   0.3668   0.0402   0.0449  -0.1262   2.00    1.1
2023/06/27 12:55:12.000   31.025475549  121.437390860    16.2332   2  29   0.1404   0.1238   0.3641   0.0403   0.0428  -0.1251   1.00    1.2
2023/06/27 12:55:14.000   31.025466768  121.437362304    15.9629   1  28   0.0147   0.0125   0.0412   0.0055  -0.0117  -0.0114   1.00    3.1
2023/06/27 12:55:15.000   31.025462195  121.437348134    16.0243   1  28   0.0147   0.0125   0.0412   0.0055  -0.0117  -0.0114   1.00    3.1
2023/06/27 12:55:16.000   31.025457469  121.437335109    16.3367   2  28   0.1379   0.1219   0.3562   0.0401   0.0357  -0.1216   1.00    1.2
2023/06/27 12:55:17.000   31.025452517  121.437322341    16.3687   2  28   0.1371   0.1212   0.3535   0.0401   0.0338  -0.1206   1.00    1.4
2023/06/27 12:55:18.000   31.025446670  121.437309872    16.3957   2  29   0.1362   0.1207   0.3514   0.0402   0.0333  -0.1196   1.00    1.1
2023/06/27 12:55:19.000   31.025442427  121.437296077    16.3708   2  27   0.1355   0.1201   0.3494   0.0401   0.0323  -0.1192   2.00    1.2
2023/06/27 12:55:20.000   31.025438423  121.437281961    16.3529   2  28   0.1346   0.1196   0.3471   0.0401   0.0308  -0.1183   2.00    1.1
2023/06/27 12:55:21.000   31.025433742  121.437266836    16.3337   2  27   0.1339   0.1191   0.3451   0.0399   0.0300  -0.1177   2.00    1.1
2023/06/27 12:55:22.000   31.025428038  121.437252714    16.4075   2  28   0.1331   0.1185   0.3428   0.0397   0.0280  -0.1172   2.00    1.1
2023/06/27 12:55:23.000   31.025423521  121.437238449    16.4250   2  26   0.1324   0.1180   0.3407   0.0395   0.0259  -0.1167   2.00    1.1
2023/06/27 12:55:24.000   31.025419723  121.437223159    16.4711   2  28   0.1317   0.1174   0.3389   0.0394   0.0256  -0.1160   2.00    1.1
2023/06/27 12:55:25.000   31.025413274  121.437209676    17.3757   2  29   0.1309   0.1167   0.3361   0.0393   0.0238  -0.1150   2.00    1.0
2023/06/27 12:55:26.000   31.025411974  121.437195076    16.3856   2  26   0.1302   0.1163   0.3345   0.0393   0.0236  -0.1144   2.00    1.0
2023/06/27 12:55:27.000   31.025407548  121.437181973    16.4272   2  28   0.1296   0.1158   0.3330   0.0394   0.0246  -0.1135   2.00    1.0
2023/06/27 12:55:28.000   31.025400823  121.437170078    17.2216   2  30   0.1288   0.1151   0.3302   0.0392   0.0209  -0.1127   2.00    1.0
2023/06/27 12:55:29.000   31.025398449  121.437158331    16.9892   2  29   0.1281   0.1148   0.3281   0.0389   0.0212  -0.1120   2.00    1.0
2023/06/27 12:55:30.000   31.025395330  121.437145724    16.4212   2  27   0.1275   0.1142   0.3264   0.0386   0.0199  -0.1116   1.00    1.0
2023/06/27 12:55:32.000   31.025385175  121.437121146    16.4487   2  27   0.1267   0.1138   0.3244   0.0387   0.0151  -0.1107   1.00    1.0
2023/06/27 12:55:33.000   31.025381178  121.437108454    16.4392   2  29   0.1261   0.1131   0.3224   0.0387   0.0112  -0.1102   1.00    1.0
2023/06/27 12:55:34.000   31.025375676  121.437095526    16.5035   2  15   0.1272   0.1139   0.3279   0.0401  -0.0160  -0.1133   1.00    1.2
2023/06/27 12:55:35.000   31.025370572  121.437083731    16.4596   2  28   0.1251   0.1124   0.3192   0.0381   0.0071  -0.1091   1.00    1.0
2023/06/27 12:55:36.000   31.025366497  121.437070665    16.4654   2  27   0.1245   0.1121   0.3177   0.0378  -0.0034  -0.1085   1.00    1.0
2023/06/27 12:55:37.000   31.025362858  121.437056865    16.4425   2  28   0.1237   0.1116   0.3155   0.0378  -0.0098  -0.1075   1.00    1.1
2023/06/27 12:55:38.000   31.025359790  121.437042463    16.4361   2  26   0.1232   0.1111   0.3139   0.0376  -0.0112  -0.1072   1.00    1.1
2023/06/27 12:55:39.000   31.025356954  121.437028449    16.5118   2  27   0.1225   0.1106   0.3121   0.0376  -0.0137  -0.1065   1.00    1.2
2023/06/27 12:55:40.000   31.025352842  121.437014698    16.5738   2  27   0.1219   0.1101   0.3104   0.0376  -0.0141  -0.1059   2.00    1.1
2023/06/27 12:55:42.000   31.025343767  121.436987922    16.5821   2  27   0.1213   0.1098   0.3097   0.0374  -0.0195  -0.1051   2.00    1.2
2023/06/27 12:55:43.000   31.025339705  121.436974925    16.4675   2  29   0.1206   0.1092   0.3080   0.0376  -0.0220  -0.1045   2.00    1.1
2023/06/27 12:55:44.000   31.025335343  121.436961743    16.4182   2  28   0.1201   0.1088   0.3064   0.0372  -0.0217  -0.1043   2.00    1.0
2023/06/27 12:55:45.000   31.025331483  121.436948773    16.4040   2  28   0.1196   0.1083   0.3052   0.0373  -0.0228  -0.1041   2.00    1.1
2023/06/27 12:55:46.000   31.025328644  121.436934718    16.3888   2  28   0.1190   0.1079   0.3037   0.0370  -0.0233  -0.1037   2.00    1.1
2023/06/27 12:55:47.000   31.025324734  121.436922045    16.3925   2  27   0.1185   0.1074   0.3024   0.0369  -0.0235  -0.1034   2.00    1.2
2023/06/27 12:55:48.000   31.025317104  121.436910173    16.4857   2  27   0.1183   0.1071   0.3024   0.0374  -0.0265  -0.1043   2.00    1.1
2023/06/27 12:55:49.000   31.025315220  121.436897620    16.5075   2  26   0.1179   0.1067   0.3012   0.0373  -0.0270  -0.1042   2.00    1.2
2023/06/27 12:55:50.000   31.025312368  121.436880837    15.7491   2  28   0.1174   0.1063   0.3003   0.0374  -0.0294  -0.1040   1.00    1.0
2023/06/27 12:55:51.000   31.025306720  121.436870851    16.5468   2  28   0.1168   0.1059   0.2994   0.0371  -0.0295  -0.1037   1.00    1.1
2023/06/27 12:55:52.000   31.025301954  121.436856754    16.5457   2  26   0.1162   0.1054   0.2974   0.0366  -0.0292  -0.1028   1.00    1.0
2023/06/27 12:55:53.000   31.025297263  121.436842455    16.5512   2  27   0.1158   0.1052   0.2961   0.0364  -0.0285  -0.1021   1.00    1.1
2023/06/27 12:55:54.000   31.025284555  121.436832393    16.5753   2  26   0.1157   0.1048   0.2955   0.0365  -0.0297  -0.1025   1.00    1.1
2023/06/27 12:55:55.000   31.025277086  121.436822411    16.5382   2  27   0.1150   0.1044   0.2942   0.0365  -0.0291  -0.1018   1.00    1.0
2023/06/27 12:55:56.000   31.025275783  121.436809273    16.5214   2  27   0.1144   0.1041   0.2927   0.0358  -0.0290  -0.1013   1.00    1.1
2023/06/27 12:55:58.000   31.025274354  121.436779821    16.5580   2  21   0.1145   0.1040   0.2949   0.0361  -0.0317  -0.1024   1.00    1.3
2023/06/27 12:55:59.000   31.025271315  121.436766227    16.5890   2  25   0.1138   0.1033   0.2914   0.0361  -0.0312  -0.1014   1.00    1.2
2023/06/27 12:56:01.000   31.025264101  121.436742748    16.6654   2  27   0.1133   0.1030   0.2902   0.0358  -0.0316  -0.1010   2.00    1.1
2023/06/27 12:56:02.000   31.025258227  121.436731486    16.6627   2  26   0.1129   0.1025   0.2890   0.0358  -0.0322  -0.1007   2.00    1.0
2023/06/27 12:56:03.000   31.025254996  121.436717355    16.6032   2  29   0.1123   0.1023   0.2884   0.0356  -0.0328  -0.1002   2.00    1.1
2023/06/27 12:56:04.000   31.025250401  121.436704009    16.7112   2  27   0.1118   0.1018   0.2868   0.0357  -0.0339  -0.0997   2.00    1.2
2023/06/27 12:56:06.000   31.025239196  121.436676298    16.8106   2  28   0.1115   0.1016   0.2866   0.0360  -0.0333  -0.0994   2.00    1.0
2023/06/27 12:56:07.000   31.025234541  121.436662394    16.7897   2  30   0.1108   0.1011   0.2846   0.0357  -0.0324  -0.0986   3.00    1.0
2023/06/27 12:56:08.000   31.025232954  121.436647375    16.6348   2  28   0.1104   0.1008   0.2832   0.0356  -0.0308  -0.0979   2.00    1.1
2023/06/27 12:56:09.000   31.025229986  121.436631210    16.8339   2  15   0.1123   0.1018   0.2899   0.0366  -0.0356  -0.1012   2.00    1.0
2023/06/27 12:56:10.000   31.025226369  121.436615941    16.8534   2  27   0.1098   0.1004   0.2812   0.0351  -0.0320  -0.0975   2.00    1.1
2023/06/27 12:56:11.000   31.025223241  121.436600807    16.8649   2  29   0.1093   0.0999   0.2800   0.0352  -0.0316  -0.0969   1.00    1.0
2023/06/27 12:56:13.000   31.025215498  121.436572997    16.8989   2  26   0.1094   0.0997   0.2810   0.0359  -0.0347  -0.0981   1.00    1.2
2023/06/27 12:56:14.000   31.025211439  121.436559885    16.7303   2  28   0.1088   0.0991   0.2790   0.0356  -0.0340  -0.0974   1.00    1.1
2023/06/27 12:56:15.000   31.025205956  121.436546318    17.0580   2  27   0.1084   0.0988   0.2773   0.0353  -0.0363  -0.0965   1.00    1.0
2023/06/27 12:56:17.000   31.025196107  121.436518418    17.0156   2  24   0.1084   0.0989   0.2779   0.0353  -0.0347  -0.0965   1.00    1.0
2023/06/27 12:56:18.000   31.025191969  121.436504365    17.0763   2  19   0.1083   0.0991   0.2809   0.0356  -0.0387  -0.0973   1.00    1.2
2023/06/27 12:56:19.000   31.025187613  121.436490000    17.1454   2  26   0.1079   0.0983   0.2754   0.0353  -0.0365  -0.0958   1.00    1.1
2023/06/27 12:56:20.000   31.025183297  121.436475214    17.2649   2  28   0.1071   0.0977   0.2729   0.0352  -0.0361  -0.0951   2.00    1.1
2023/06/27 12:56:21.000   31.025179562  121.436461553    17.2621   2  23   0.1068   0.0978   0.2736   0.0350  -0.0361  -0.0951   2.00    1.0
2023/06/27 12:56:22.000   31.025174625  121.436448947    17.4279   2  26   0.1066   0.0980   0.2751   0.0354  -0.0339  -0.0952   2.00    1.1
2023/06/27 12:56:25.000   31.025160850  121.436405186    18.6295   2  30   0.1057   0.0971   0.2706   0.0350  -0.0337  -0.0931   2.00    1.0
2023/06/27 12:56:26.000   31.025158275  121.436391011    18.8016   2  30   0.1054   0.0966   0.2688   0.0346  -0.0355  -0.0926   2.00    1.0
2023/06/27 12:56:27.000   31.025155077  121.436379364    18.2612   2  26   0.1052   0.0965   0.2678   0.0339  -0.0383  -0.0922   2.00    1.0
2023/06/27 12:56:28.000   31.025151595  121.436366295    18.2429   2  27   0.1048   0.0960   0.2666   0.0337  -0.0382  -0.0924   2.00    1.0
2023/06/27 12:56:29.000   31.025146163  121.436353032    18.2967   2  29   0.1043   0.0955   0.2651   0.0338  -0.0384  -0.0919   2.00    1.0
2023/06/27 12:56:30.000   31.025141890  121.436338927    18.3682   2  29   0.1038   0.0952   0.2638   0.0337  -0.0389  -0.0916   2.00    1.0
2023/06/27 12:56:33.000   31.025140961  121.436297511    18.3414   2  29   0.1034   0.0947   0.2625   0.0337  -0.0390  -0.0911   1.00    1.0
2023/06/27 12:56:34.000   31.025139009  121.436283757    18.3192   2  30   0.1029   0.0943   0.2612   0.0338  -0.0399  -0.0906   1.00    1.0
2023/06/27 12:56:35.000   31.025136016  121.436270266    18.3397   2  30   0.1025   0.0939   0.2597   0.0338  -0.0398  -0.0902   1.00    1.0
2023/06/27 12:56:36.000   31.025134110  121.436257433    18.3232   2  30   0.1021   0.0935   0.2584   0.0338  -0.0400  -0.0899   2.00    1.0
2023/06/27 12:56:38.000   31.025125723  121.436232323    18.3317   2  30   0.1017   0.0931   0.2571   0.0337  -0.0402  -0.0895   1.00    1.0
2023/06/27 12:56:39.000   31.025122234  121.436220175    18.3407   2  32   0.1013   0.0928   0.2558   0.0337  -0.0404  -0.0891   2.00    1.1
2023/06/27 12:56:40.000   31.025117865  121.436207874    18.3560   2  32   0.1008   0.0924   0.2543   0.0336  -0.0405  -0.0885   1.00    1.1
2023/06/27 12:56:41.000   31.025114205  121.436195351    18.3556   2  32   0.1004   0.0920   0.2530   0.0336  -0.0406  -0.0881   1.00    1.1
2023/06/27 12:56:42.000   31.025110358  121.436183006    18.3699   2  32   0.1000   0.0917   0.2517   0.0336  -0.0408  -0.0877   2.00    1.1
2023/06/27 12:56:43.000   31.025106529  121.436171295    18.4024   2  32   0.0996   0.0913   0.2505   0.0335  -0.0409  -0.0873   2.00    1.2
2023/06/27 12:56:44.000   31.025102325  121.436161168    18.3977   2  32   0.0993   0.0910   0.2493   0.0335  -0.0411  -0.0869   2.00    1.2
2023/06/27 12:56:45.000   31.025098171  121.436154538    18.4012   2  31   0.0989   0.0907   0.2485   0.0335  -0.0409  -0.0863   2.00    1.1
2023/06/27 12:56:46.000   31.025093007  121.436152302    18.3639   2  30   0.0986   0.0904   0.2474   0.0335  -0.0408  -0.0859   2.00    1.4
2023/06/27 12:56:47.000   31.025079305  121.436148354    18.3221   2  31   0.0982   0.0901   0.2463   0.0335  -0.0408  -0.0855   2.00    1.0
2023/06/27 12:56:48.000   31.025068055  121.436137333    18.3558   2  30   0.0979   0.0898   0.2453   0.0335  -0.0408  -0.0850   2.00    1.1
2023/06/27 12:56:49.000   31.025062009  121.436123456    18.3895   2  32   0.0975   0.0894   0.2441   0.0334  -0.0409  -0.0847   2.00    1.0
2023/06/27 12:56:50.000   31.025058078  121.436107619    18.3999   2  32   0.0971   0.0891   0.2428   0.0333  -0.0411  -0.0843   2.00    1.1
2023/06/27 12:56:51.000   31.025054572  121.436091997    18.3678   2  32   0.0968   0.0888   0.2416   0.0332  -0.0412  -0.0840   2.00    1.0
2023/06/27 12:56:52.000   31.025049884  121.436077733    18.3419   2  32   0.0964   0.0884   0.2404   0.0331  -0.0413  -0.0836   1.00    1.1
2023/06/27 12:56:53.000   31.025044795  121.436062877    18.2578   2  31   0.0961   0.0881   0.2394   0.0331  -0.0415  -0.0833   1.00    1.4
2023/06/27 12:56:54.000   31.025039645  121.436048123    18.0021   1  17   0.0222   0.0182   0.0590   0.0101   0.0060  -0.0197   2.00    4.6
2023/06/27 12:56:55.000   31.025036291  121.436032967    18.1689   2  31   0.0955   0.0877   0.2378   0.0331  -0.0420  -0.0828   1.00    1.1
2023/06/27 12:56:56.000   31.025031662  121.436018174    18.2322   2  29   0.0952   0.0876   0.2373   0.0330  -0.0425  -0.0825   1.00    1.0
2023/06/27 12:56:57.000   31.025026943  121.436002551    18.0562   2  30   0.0949   0.0874   0.2364   0.0328  -0.0419  -0.0823   1.00    1.0
2023/06/27 12:56:58.000   31.025021667  121.435987880    17.8590   2  29   0.0946   0.0872   0.2355   0.0328  -0.0419  -0.0821   2.00    1.1
2023/06/27 12:56:59.000   31.025017053  121.435972010    17.7920   2  31   0.0944   0.0869   0.2341   0.0326  -0.0420  -0.0817   1.00    1.0
2023/06/27 12:57:00.000   31.025013019  121.435955521    17.8249   2  30   0.0941   0.0867   0.2334   0.0324  -0.0421  -0.0816   1.00    1.0
2023/06/27 12:57:01.000   31.025012069  121.435937678    17.6238   2  28   0.0939   0.0865   0.2330   0.0322  -0.0423  -0.0815   1.00    1.0
2023/06/27 12:57:02.000   31.025011529  121.435921064    17.1153   2  27   0.0938   0.0863   0.2318   0.0319  -0.0419  -0.0811   2.00    1.0
2023/06/27 12:57:03.000   31.025008741  121.435903360    17.4465   2  29   0.0934   0.0860   0.2309   0.0319  -0.0426  -0.0805   2.00    1.0
2023/06/27 12:57:04.000   31.025006492  121.435888371    17.4343   2  27   0.0931   0.0857   0.2301   0.0319  -0.0420  -0.0807   2.00    1.1
2023/06/27 12:57:05.000   31.025004185  121.435873237    17.3967   2  29   0.0931   0.0856   0.2292   0.0317  -0.0413  -0.0806   2.00    1.1
2023/06/27 12:57:06.000   31.025001142  121.435858315    17.4334   2  20   0.0939   0.0860   0.2337   0.0321  -0.0423  -0.0833   2.00    1.1
2023/06/27 12:57:07.000   31.024997817  121.435844273    17.4061   2  25   0.0926   0.0855   0.2279   0.0313  -0.0415  -0.0799   2.00    1.1
2023/06/27 12:57:08.000   31.024991354  121.435829890    17.2565   2  27   0.0929   0.0851   0.2282   0.0318  -0.0427  -0.0814   2.00    1.1
2023/06/27 12:57:09.000   31.024982510  121.435816898    17.2788   2  28   0.0924   0.0849   0.2279   0.0322  -0.0448  -0.0813   2.00    1.1
2023/06/27 12:57:13.000   31.024960539  121.435770298    17.5731   2  22   0.0921   0.0851   0.2304   0.0324  -0.0473  -0.0813   1.00    1.3
2023/06/27 12:57:14.000   31.024957255  121.435761878    17.3967   2  29   0.0914   0.0844   0.2257   0.0321  -0.0444  -0.0800   1.00    1.1
2023/06/27 12:57:15.000   31.024951786  121.435750915    17.3384   2  29   0.0909   0.0840   0.2241   0.0320  -0.0444  -0.0790   1.00    1.2
2023/06/27 12:57:16.000   31.024948290  121.435738009    17.3175   2  29   0.0905   0.0837   0.2230   0.0318  -0.0441  -0.0787   1.00    1.1
2023/06/27 12:57:17.000   31.024946488  121.435724864    17.2853   2  32   0.0901   0.0834   0.2219   0.0318  -0.0443  -0.0782   1.00    1.0
2023/06/27 12:57:18.000   31.024943310  121.435710927    17.2607   2  30   0.0898   0.0831   0.2208   0.0318  -0.0443  -0.0778   2.00    1.2
2023/06/27 12:57:19.000   31.024941214  121.435696243    17.2264   2  30   0.0895   0.0828   0.2197   0.0317  -0.0441  -0.0775   1.00    1.0
2023/06/27 12:57:20.000   31.024940892  121.435681039    17.2367   2  32   0.0891   0.0825   0.2186   0.0317  -0.0440  -0.0771   1.00    1.0
2023/06/27 12:57:21.000   31.024940835  121.435665142    17.1716   2  32   0.0888   0.0823   0.2175   0.0316  -0.0439  -0.0768   2.00    1.0
2023/06/27 12:57:22.000   31.024942980  121.435650118    17.1586   2  31   0.0885   0.0821   0.2167   0.0316  -0.0438  -0.0765   2.00    1.0
2023/06/27 12:57:23.000   31.024946670  121.435635299    17.1348   2  32   0.0882   0.0818   0.2160   0.0315  -0.0442  -0.0762   2.00    1.0
2023/06/27 12:57:24.000   31.024952355  121.435621562    17.0852   2  32   0.0879   0.0815   0.2147   0.0315  -0.0438  -0.0758   2.00    1.0
2023/06/27 12:57:25.000   31.024959703  121.435608513    17.0472   2  32   0.0876   0.0813   0.2137   0.0314  -0.0436  -0.0755   2.00    1.0
2023/06/27 12:57:26.000   31.024968298  121.435596536    17.0097   2  31   0.0874   0.0811   0.2131   0.0312  -0.0429  -0.0755   3.00    1.2
2023/06/27 12:57:27.000   31.024978619  121.435588187    17.0368   2  32   0.0871   0.0809   0.2121   0.0312  -0.0428  -0.0751   2.00    1.1
2023/06/27 12:57:28.000   31.024990352  121.435579780    17.0389   2  31   0.0868   0.0806   0.2112   0.0311  -0.0428  -0.0748   2.00    1.1
2023/06/27 12:57:29.000   31.025001411  121.435571367    17.0477   2  32   0.0865   0.0804   0.2102   0.0311  -0.0429  -0.0745   2.00    1.1
2023/06/27 12:57:30.000   31.025010182  121.435567563    17.0580   2  32   0.0862   0.0801   0.2092   0.0311  -0.0430  -0.0742   2.00    1.0
2023/06/27 12:57:31.000   31.025019231  121.435565595    17.0728   2  29   0.0862   0.0800   0.2088   0.0313  -0.0433  -0.0746   2.00    1.2
2023/06/27 12:57:32.000   31.025028769  121.435561341    17.0145   2  30   0.0861   0.0798   0.2083   0.0314  -0.0429  -0.0741   3.00    1.1
2023/06/27 12:57:33.000   31.025038819  121.435555660    16.9627   2  30   0.0860   0.0800   0.2085   0.0321  -0.0414  -0.0732   1.00    1.1
2023/06/27 12:57:35.000   31.025063040  121.435545255    16.9447   2  30   0.0858   0.0798   0.2083   0.0325  -0.0418  -0.0731   1.00    1.0
2023/06/27 12:57:36.000   31.025074624  121.435541883    16.9508   2  30   0.0859   0.0796   0.2073   0.0329  -0.0430  -0.0736   1.00    1.1
2023/06/27 12:57:37.000   31.025086173  121.435537801    16.9642   2  31   0.0855   0.0795   0.2068   0.0327  -0.0420  -0.0729   2.00    1.0
2023/06/27 12:57:38.000   31.025097821  121.435533859    16.9160   2  28   0.0853   0.0792   0.2061   0.0326  -0.0427  -0.0733   1.00    1.1
2023/06/27 12:57:40.000   31.025120832  121.435524468    16.8541   2  29   0.0854   0.0793   0.2068   0.0330  -0.0416  -0.0738   2.00    1.0
2023/06/27 12:57:41.000   31.025132439  121.435518742    16.8470   2  30   0.0850   0.0791   0.2064   0.0326  -0.0413  -0.0736   1.00    1.1
2023/06/27 12:57:42.000   31.025143294  121.435512743    17.0195   2  28   0.0847   0.0789   0.2058   0.0326  -0.0431  -0.0736   1.00    1.0
2023/06/27 12:57:43.000   31.025154363  121.435506695    17.1359   2  27   0.0846   0.0789   0.2062   0.0328  -0.0430  -0.0727   2.00    1.0
2023/06/27 12:57:44.000   31.025166226  121.435500132    16.9754   2  29   0.0842   0.0791   0.2062   0.0323  -0.0460  -0.0728   2.00    1.0
2023/06/27 12:57:45.000   31.025178029  121.435495129    16.9569   2  31   0.0840   0.0785   0.2052   0.0322  -0.0451  -0.0724   2.00    1.0
2023/06/27 12:57:47.000   31.025198245  121.435489170    16.9773   2  27   0.0842   0.0788   0.2091   0.0331  -0.0449  -0.0734   3.00    1.1
2023/06/27 12:57:48.000   31.025209436  121.435485022    16.9100   2  25   0.0840   0.0785   0.2075   0.0332  -0.0447  -0.0735   2.00    1.1
2023/06/27 12:57:49.000   31.025220150  121.435480556    16.8719   2  29   0.0837   0.0780   0.2052   0.0330  -0.0444  -0.0732   2.00    1.1
2023/06/27 12:57:50.000   31.025231013  121.435475208    16.8839   2  29   0.0839   0.0781   0.2041   0.0337  -0.0451  -0.0737   2.00    1.1
2023/06/27 12:57:53.000   31.025264372  121.435464599    16.9400   2  22   0.0843   0.0788   0.2076   0.0343  -0.0423  -0.0737   2.00    1.3
2023/06/27 12:57:54.000   31.025275638  121.435461058    16.9856   2  30   0.0838   0.0777   0.2033   0.0336  -0.0445  -0.0738   1.00    1.0
2023/06/27 12:57:56.000   31.025298914  121.435454112    16.9503   2  29   0.0834   0.0775   0.2033   0.0331  -0.0440  -0.0737   1.00    1.0
2023/06/27 12:57:57.000   31.025310662  121.435449596    16.9294   2  27   0.0832   0.0775   0.2039   0.0334  -0.0451  -0.0738   1.00    1.0
2023/06/27 12:57:58.000   31.025322429  121.435444326    16.8967   2  29   0.0829   0.0771   0.2029   0.0330  -0.0455  -0.0738   1.00    1.1
2023/06/27 12:57:59.000   31.025333641  121.435438525    16.9108   2  27   0.0826   0.0769   0.2022   0.0327  -0.0428  -0.0728   1.00    1.1
2023/06/27 12:58:00.000   31.025345080  121.435435452    17.2211   2  26   0.0823   0.0767   0.2019   0.0326  -0.0416  -0.0722   1.00    1.0
2023/06/27 12:58:01.000   31.025356006  121.435430684    16.9709   2  28   0.0822   0.0767   0.2020   0.0325  -0.0403  -0.0721   1.00    1.0
2023/06/27 12:58:02.000   31.025367776  121.435428890    17.2342   2  28   0.0819   0.0762   0.2002   0.0323  -0.0414  -0.0718   1.00    1.0
2023/06/27 12:58:03.000   31.025379449  121.435424874    16.9082   2  28   0.0816   0.0759   0.1995   0.0319  -0.0415  -0.0719   1.00    1.0
2023/06/27 12:58:04.000   31.025391189  121.435420940    16.8774   2  27   0.0814   0.0757   0.1986   0.0316  -0.0417  -0.0719   2.00    1.1
2023/06/27 12:58:05.000   31.025402166  121.435415642    16.8259   2  28   0.0812   0.0755   0.1980   0.0316  -0.0416  -0.0716   2.00    1.2
2023/06/27 12:58:06.000   31.025414132  121.435413946    17.7909   2  29   0.0811   0.0753   0.1975   0.0314  -0.0416  -0.0719   2.00    1.0
2023/06/27 12:58:07.000   31.025423912  121.435407921    17.0707   2  28   0.0809   0.0752   0.1979   0.0315  -0.0401  -0.0714   2.00    1.0
2023/06/27 12:58:08.000   31.025434390  121.435404001    17.0056   2  29   0.0807   0.0752   0.1970   0.0315  -0.0399  -0.0710   2.00    1.0
2023/06/27 12:58:10.000   31.025455111  121.435394644    16.9858   2  26   0.0816   0.0751   0.1971   0.0324  -0.0407  -0.0722   2.00    1.0
2023/06/27 12:58:11.000   31.025471496  121.435399377    19.2299   2  25   0.0816   0.0748   0.1970   0.0323  -0.0412  -0.0713   2.00    1.0
2023/06/27 12:58:12.000   31.025481424  121.435393277    19.0304   2  29   0.0810   0.0745   0.1954   0.0319  -0.0425  -0.0716   2.00    1.0
2023/06/27 12:58:13.000   31.025489247  121.435382882    17.6162   2  27   0.0805   0.0745   0.1951   0.0319  -0.0407  -0.0706   2.00    1.0
2023/06/27 12:58:14.000   31.025499603  121.435376778    17.4616   2  26   0.0805   0.0744   0.1963   0.0317  -0.0398  -0.0713   2.00    1.0
2023/06/27 12:58:15.000   31.025510177  121.435372434    17.3612   2  26   0.0802   0.0743   0.1961   0.0316  -0.0397  -0.0715   1.00    1.0
2023/06/27 12:58:16.000   31.025519358  121.435369426    17.2535   2  25   0.0798   0.0743   0.1954   0.0314  -0.0387  -0.0708   1.00    1.0
2023/06/27 12:58:17.000   31.025529376  121.435361450    17.1418   2  25   0.0798   0.0743   0.1963   0.0316  -0.0377  -0.0710   1.00    1.0
2023/06/27 12:58:18.000   31.025539007  121.435355874    17.2518   2  27   0.0795   0.0740   0.1948   0.0314  -0.0384  -0.0709   1.00    1.0
2023/06/27 12:58:19.000   31.025548671  121.435352819    17.2259   2  27   0.0792   0.0738   0.1937   0.0311  -0.0379  -0.0704   1.00    1.0
2023/06/27 12:58:20.000   31.025559493  121.435348462    17.1720   2  26   0.0789   0.0735   0.1927   0.0309  -0.0384  -0.0702   1.00    1.0
2023/06/27 12:58:21.000   31.025569309  121.435342602    17.1192   2  28   0.0787   0.0733   0.1917   0.0308  -0.0388  -0.0700   1.00    1.0
2023/06/27 12:58:22.000   31.025580054  121.435337040    17.0820   2  27   0.0785   0.0733   0.1915   0.0308  -0.0379  -0.0698   1.00    1.0
2023/06/27 12:58:23.000   31.025590147  121.435332473    16.5459   2  29   0.0783   0.0729   0.1900   0.0305  -0.0394  -0.0699   1.00    1.0
2023/06/27 12:58:24.000   31.025601341  121.435327458    16.8248   2  30   0.0781   0.0731   0.1903   0.0304  -0.0375  -0.0698   1.00    1.0
2023/06/27 12:58:25.000   31.025611859  121.435320557    16.7364   2  29   0.0779   0.0728   0.1894   0.0304  -0.0382  -0.0695   1.00    1.0
2023/06/27 12:58:26.000   31.025623529  121.435316199    16.8902   2  25   0.0778   0.0729   0.1896   0.0309  -0.0369  -0.0689   2.00    1.0
2023/06/27 12:58:27.000   31.025634563  121.435310221    16.8277   2  29   0.0776   0.0727   0.1886   0.0306  -0.0378  -0.0691   2.00    1.0
2023/06/27 12:58:28.000   31.025645915  121.435305597    17.1098   2  29   0.0774   0.0722   0.1872   0.0304  -0.0391  -0.0690   2.00    1.0
2023/06/27 12:58:29.000   31.025656691  121.435301389    17.1278   2  30   0.0772   0.0719   0.1863   0.0302  -0.0393  -0.0689   2.00    1.0
2023/06/27 12:58:30.000   31.025666771  121.435296145    16.7765   2  30   0.0770   0.0717   0.1856   0.0301  -0.0397  -0.0689   2.00    1.0
2023/06/27 12:58:31.000   31.025677195  121.435289929    16.8426   2  31   0.0768   0.0714   0.1847   0.0298  -0.0398  -0.0689   2.00    1.0
2023/06/27 12:58:32.000   31.025688156  121.435287222    17.1193   2  29   0.0766   0.0713   0.1842   0.0298  -0.0395  -0.0686   2.00    1.0
2023/06/27 12:58:33.000   31.025699287  121.435282886    17.0024   2  31   0.0765   0.0711   0.1839   0.0298  -0.0395  -0.0684   2.00    1.0
2023/06/27 12:58:34.000   31.025710115  121.435278854    16.9980   2  31   0.0762   0.0709   0.1830   0.0295  -0.0400  -0.0686   2.00    1.0
2023/06/27 12:58:35.000   31.025721080  121.435275312    16.9997   2  32   0.0760   0.0707   0.1826   0.0293  -0.0401  -0.0685   2.00    1.0
2023/06/27 12:58:37.000   31.025742165  121.435266346    17.0565   2  24   0.0765   0.0709   0.1854   0.0294  -0.0403  -0.0700   1.00    1.0
2023/06/27 12:58:38.000   31.025752395  121.435260678    16.9776   2  30   0.0757   0.0706   0.1820   0.0293  -0.0393  -0.0682   1.00    1.0
2023/06/27 12:58:40.000   31.025773197  121.435250109    16.9616   2  31   0.0756   0.0705   0.1817   0.0294  -0.0390  -0.0679   2.00    1.0
2023/06/27 12:58:41.000   31.025783913  121.435245978    16.9652   2  32   0.0754   0.0702   0.1807   0.0292  -0.0396  -0.0680   1.00    1.0
2023/06/27 12:58:43.000   31.025804844  121.435235101    16.9296   2  29   0.0752   0.0701   0.1804   0.0292  -0.0393  -0.0677   1.00    1.0
2023/06/27 12:58:44.000   31.025815662  121.435231167    16.9213   2  31   0.0751   0.0699   0.1800   0.0291  -0.0392  -0.0675   1.00    1.0
2023/06/27 12:58:45.000   31.025826439  121.435227410    16.8789   2  29   0.0751   0.0698   0.1798   0.0293  -0.0398  -0.0681   1.00    1.0
2023/06/27 12:58:46.000   31.025837223  121.435222295    16.8200   2  31   0.0749   0.0696   0.1790   0.0291  -0.0398  -0.0679   2.00    1.0
2023/06/27 12:58:47.000   31.025847950  121.435218883    16.7947   2  31   0.0747   0.0696   0.1790   0.0291  -0.0390  -0.0674   2.00    1.0
2023/06/27 12:58:48.000   31.025858957  121.435215066    16.7856   2  31   0.0744   0.0695   0.1785   0.0288  -0.0389  -0.0674   2.00    1.0
2023/06/27 12:58:49.000   31.025869944  121.435210803    16.7491   2  29   0.0743   0.0695   0.1785   0.0291  -0.0379  -0.0668   1.00    1.0
2023/06/27 12:58:51.000   31.025891588  121.435204669    16.7533   2  31   0.0744   0.0694   0.1785   0.0294  -0.0382  -0.0670   1.00    1.0
2023/06/27 12:58:53.000   31.025912333  121.435192230    16.8116   2  24   0.0746   0.0695   0.1811   0.0289  -0.0377  -0.0681   1.00    1.0
2023/06/27 12:58:54.000   31.025923108  121.435187304    16.7312   2  30   0.0738   0.0689   0.1767   0.0286  -0.0391  -0.0671   1.00    1.0
2023/06/27 12:58:56.000   31.025943921  121.435178906    16.6744   2  30   0.0738   0.0689   0.1765   0.0288  -0.0392  -0.0673   2.00    1.0
2023/06/27 12:58:57.000   31.025951778  121.435169254    16.6939   2  31   0.0736   0.0687   0.1757   0.0287  -0.0396  -0.0672   2.00    1.0
2023/06/27 12:58:58.000   31.025952777  121.435154494    16.7002   2  29   0.0733   0.0685   0.1757   0.0284  -0.0395  -0.0668   2.00    1.0
2023/06/27 12:58:59.000   31.025955368  121.435141672    16.7042   2  30   0.0731   0.0685   0.1753   0.0283  -0.0389  -0.0665   2.00    1.0
2023/06/27 12:59:00.000   31.025965687  121.435141922    16.6318   2  29   0.0729   0.0684   0.1749   0.0284  -0.0386  -0.0662   1.00    1.0
2023/06/27 12:59:01.000   31.025980626  121.435146142    16.6395   2  28   0.0727   0.0682   0.1740   0.0282  -0.0387  -0.0661   1.00    1.1
2023/06/27 12:59:02.000   31.025996122  121.435147730    16.6373   2  30   0.0725   0.0680   0.1735   0.0281  -0.0387  -0.0659   1.00    1.0
2023/06/27 12:59:04.000   31.026016198  121.435122872    16.5983   2  31   0.0723   0.0679   0.1729   0.0279  -0.0388  -0.0661   1.00    1.0
2023/06/27 12:59:05.000   31.026024760  121.435109848    16.5649   2  30   0.0721   0.0676   0.1721   0.0277  -0.0392  -0.0660   1.00    1.1
2023/06/27 12:59:06.000   31.026037583  121.435110078    16.5689   2  31   0.0719   0.0676   0.1718   0.0277  -0.0387  -0.0658   2.00    1.0
2023/06/27 12:59:07.000   31.026050612  121.435116961    16.6172   2  30   0.0717   0.0674   0.1711   0.0276  -0.0393  -0.0659   2.00    1.0
2023/06/27 12:59:08.000   31.026065507  121.435120938    16.5807   2  30   0.0716   0.0672   0.1707   0.0276  -0.0390  -0.0655   2.00    1.0
2023/06/27 12:59:09.000   31.026079805  121.435114795    16.5659   2  30   0.0714   0.0670   0.1700   0.0274  -0.0392  -0.0656   1.00    1.1
2023/06/27 12:59:10.000   31.026089285  121.435100423    16.5719   2  30   0.0712   0.0669   0.1695   0.0272  -0.0393  -0.0655   1.00    1.1
2023/06/27 12:59:11.000   31.026096117  121.435084471    16.5766   2  29   0.0710   0.0668   0.1692   0.0271  -0.0396  -0.0654   1.00    1.0
2023/06/27 12:59:12.000   31.026105612  121.435070973    16.5507   2  28   0.0709   0.0670   0.1699   0.0273  -0.0394  -0.0649   1.00    1.0
2023/06/27 12:59:13.000   31.026118733  121.435064233    16.5113   2  29   0.0708   0.0669   0.1695   0.0273  -0.0393  -0.0648   1.00    1.0
2023/06/27 12:59:14.000   31.026131278  121.435066167    16.5203   2  27   0.0706   0.0668   0.1692   0.0273  -0.0382  -0.0644   1.00    1.0
2023/06/27 12:59:15.000   31.026140113  121.435074563    16.5546   2  28   0.0704   0.0666   0.1684   0.0271  -0.0388  -0.0643   1.00    1.1
2023/06/27 12:59:16.000   31.026152423  121.435081552    16.5482   2  28   0.0704   0.0666   0.1686   0.0274  -0.0372  -0.0637   1.00    1.0
2023/06/27 12:59:17.000   31.026164652  121.435080231    16.5052   2  27   0.0702   0.0664   0.1678   0.0273  -0.0374  -0.0637   2.00    1.1
2023/06/27 12:59:18.000   31.026175209  121.435074762    16.5013   2  28   0.0700   0.0662   0.1672   0.0272  -0.0374  -0.0636   2.00    1.1
2023/06/27 12:59:19.000   31.026184952  121.435070084    16.5166   2  29   0.0698   0.0661   0.1667   0.0271  -0.0373  -0.0636   2.00    1.0
2023/06/27 12:59:20.000   31.026193960  121.435065672    16.4755   2  29   0.0696   0.0659   0.1657   0.0269  -0.0379  -0.0636   1.00    1.1
2023/06/27 12:59:22.000   31.026214485  121.435056658    16.5323   2  28   0.0698   0.0658   0.1656   0.0272  -0.0387  -0.0643   1.00    1.1
2023/06/27 12:59:23.000   31.026224499  121.435052479    16.5438   2  28   0.0697   0.0659   0.1653   0.0274  -0.0388  -0.0643   1.00    1.0
2023/06/27 12:59:24.000   31.026234964  121.435047924    16.5554   2  28   0.0697   0.0660   0.1669   0.0271  -0.0369  -0.0649   2.00    1.0
2023/06/27 12:59:25.000   31.026245766  121.435044484    16.5825   2  29   0.0693   0.0660   0.1665   0.0270  -0.0354  -0.0637   1.00    1.0
2023/06/27 12:59:26.000   31.026256202  121.435038475    16.6330   2  17   0.0707   0.0669   0.1698   0.0278  -0.0346  -0.0649   2.00    1.6
2023/06/27 12:59:28.000   31.026278046  121.435028368    16.4535   2  28   0.0690   0.0658   0.1655   0.0270  -0.0352  -0.0631   2.00    1.0
2023/06/27 12:59:29.000   31.026288693  121.435025438    16.4435   2  27   0.0688   0.0655   0.1648   0.0266  -0.0354  -0.0633   2.00    1.1
2023/06/27 12:59:30.000   31.026299807  121.435020847    16.4189   2  28   0.0686   0.0656   0.1647   0.0265  -0.0346  -0.0631   2.00    1.0
2023/06/27 12:59:31.000   31.026310024  121.435018255    16.3883   2  28   0.0684   0.0653   0.1634   0.0265  -0.0356  -0.0628   1.00    1.0
2023/06/27 12:59:32.000   31.026320998  121.435013487    16.3707   2  28   0.0682   0.0650   0.1624   0.0264  -0.0364  -0.0627   1.00    1.0
2023/06/27 12:59:33.000   31.026328373  121.435010932    16.4028   2  26   0.0681   0.0651   0.1628   0.0266  -0.0352  -0.0621   1.00    1.1
2023/06/27 12:59:34.000   31.026340023  121.435002395    16.3653   2  27   0.0679   0.0651   0.1626   0.0267  -0.0345  -0.0617   1.00    1.1
2023/06/27 12:59:35.000   31.026350119  121.434997026    16.3902   2  28   0.0677   0.0648   0.1615   0.0265  -0.0353  -0.0619   1.00    1.0
2023/06/27 12:59:36.000   31.026361192  121.434993181    16.3737   2  28   0.0676   0.0647   0.1611   0.0264  -0.0352  -0.0617   1.00    1.0
2023/06/27 12:59:38.000   31.026381929  121.434985072    16.3064   2  27   0.0677   0.0645   0.1604   0.0266  -0.0368  -0.0624   2.00    1.1
2023/06/27 12:59:39.000   31.026391545  121.434979892    16.3428   2  27   0.0674   0.0644   0.1600   0.0265  -0.0364  -0.0620   2.00    1.1
2023/06/27 12:59:40.000   31.026401212  121.434975651    16.3607   2  28   0.0672   0.0642   0.1593   0.0262  -0.0364  -0.0617   2.00    1.1
2023/06/27 12:59:41.000   31.026411708  121.434970639    16.3525   2  27   0.0670   0.0641   0.1590   0.0262  -0.0360  -0.0613   1.00    1.2
2023/06/27 12:59:43.000   31.026432781  121.434961054    16.3463   2  28   0.0668   0.0639   0.1580   0.0259  -0.0365  -0.0614   1.00    1.1
2023/06/27 12:59:44.000   31.026443169  121.434957833    16.3174   2  26   0.0666   0.0640   0.1587   0.0257  -0.0351  -0.0614   1.00    1.1
2023/06/27 12:59:45.000   31.026454057  121.434953261    16.3208   2  27   0.0665   0.0639   0.1583   0.0256  -0.0351  -0.0613   1.00    1.0
2023/06/27 12:59:46.000   31.026464658  121.434948161    16.2995   2  27   0.0663   0.0639   0.1580   0.0256  -0.0345  -0.0612   1.00    1.0
2023/06/27 12:59:47.000   31.026475559  121.434943207    16.2926   2  26   0.0665   0.0637   0.1581   0.0258  -0.0356  -0.0621   1.00    1.0
2023/06/27 12:59:48.000   31.026486000  121.434937478    16.3772   2  27   0.0663   0.0636   0.1575   0.0257  -0.0358  -0.0620   2.00    1.0
2023/06/27 12:59:49.000   31.026496754  121.434932949    16.2693   2  20   0.0666   0.0640   0.1599   0.0261  -0.0356  -0.0621   2.00    1.1
2023/06/27 12:59:50.000   31.026508048  121.434929277    16.2987   2  26   0.0662   0.0640   0.1585   0.0261  -0.0337  -0.0617   2.00    1.1
2023/06/27 12:59:51.000   31.026517560  121.434925969    16.2550   2  26   0.0660   0.0643   0.1596   0.0261  -0.0308  -0.0613   1.00    1.1
2023/06/27 12:59:52.000   31.026527986  121.434922308    16.2173   2  27   0.0658   0.0637   0.1572   0.0259  -0.0338  -0.0611   1.00    1.1
2023/06/27 12:59:53.000   31.026538321  121.434916802    16.2102   2  27   0.0656   0.0634   0.1560   0.0259  -0.0347  -0.0609   1.00    1.2
2023/06/27 12:59:54.000   31.026548570  121.434911433    16.2249   2  26   0.0654   0.0632   0.1559   0.0258  -0.0356  -0.0609   1.00    1.2
2023/06/27 12:59:55.000   31.026558942  121.434906166    16.2560   2  27   0.0653   0.0632   0.1555   0.0259  -0.0354  -0.0606   1.00    1.1
2023/06/27 12:59:57.000   31.026579581  121.434897525    16.2066   2  29   0.0650   0.0631   0.1550   0.0257  -0.0345  -0.0599   1.00    1.0
2023/06/27 12:59:59.000   31.026601162  121.434889414    16.2035   2  29   0.0649   0.0629   0.1540   0.0256  -0.0356  -0.0604   2.00    1.0
2023/06/27 13:00:01.000   31.026621978  121.434880416    16.2340   2  28   0.0648   0.0628   0.1537   0.0257  -0.0352  -0.0600   1.00    1.0
2023/06/27 13:00:02.000   31.026632265  121.434875694    16.2320   2  28   0.0646   0.0626   0.1529   0.0255  -0.0355  -0.0600   1.00    1.0
2023/06/27 13:00:03.000   31.026642008  121.434870851    16.2184   2  28   0.0644   0.0624   0.1522   0.0254  -0.0359  -0.0600   1.00    1.1
2023/06/27 13:00:04.000   31.026651525  121.434865315    16.2901   2  28   0.0642   0.0623   0.1515   0.0251  -0.0359  -0.0597   1.00    1.1
2023/06/27 13:00:05.000   31.026661771  121.434860275    16.2838   2  22   0.0646   0.0625   0.1549   0.0252  -0.0353  -0.0605   1.00    1.1
2023/06/27 13:00:06.000   31.026671866  121.434854687    16.2625   2  22   0.0645   0.0624   0.1545   0.0251  -0.0354  -0.0605   1.00    1.0
2023/06/27 13:00:07.000   31.026682029  121.434849956    16.2916   2  22   0.0644   0.0629   0.1560   0.0253  -0.0327  -0.0602   1.00    1.0
2023/06/27 13:00:10.000   31.026713323  121.434836857    16.2847   2  31   0.0637   0.0621   0.1504   0.0251  -0.0351  -0.0590   2.00    1.0
2023/06/27 13:00:12.000   31.026730754  121.434829942    16.2810   2  30   0.0636   0.0619   0.1499   0.0250  -0.0357  -0.0593   1.00    1.0
2023/06/27 13:00:13.000   31.026738211  121.434826525    16.2615   2  30   0.0632   0.0618   0.1495   0.0247  -0.0350  -0.0587   1.00    1.0
2023/06/27 13:00:14.000   31.026742236  121.434824702    16.1944   2  30   0.0629   0.0615   0.1486   0.0244  -0.0354  -0.0587   1.00    1.1
2023/06/27 13:00:15.000   31.026750723  121.434822034    16.1771   2  31   0.0628   0.0614   0.1481   0.0244  -0.0353  -0.0583   1.00    1.0
2023/06/27 13:00:16.000   31.026760271  121.434819631    16.1832   2  29   0.0626   0.0613   0.1476   0.0242  -0.0361  -0.0584   1.00    1.1
2023/06/27 13:00:17.000   31.026770309  121.434814094    16.1495   2  31   0.0624   0.0611   0.1470   0.0240  -0.0362  -0.0583   1.00    1.0
2023/06/27 13:00:31.000   31.026902966  121.434749815    16.3151   2  31   0.0620   0.0609   0.1461   0.0237  -0.0361  -0.0581   2.00    1.1
2023/06/27 13:00:32.000   31.026911694  121.434745831    16.3098   2  31   0.0618   0.0608   0.1456   0.0235  -0.0359  -0.0580   2.00    1.0
2023/06/27 13:00:33.000   31.026920119  121.434746089    16.3956   2  31   0.0616   0.0607   0.1449   0.0234  -0.0360  -0.0578   1.00    1.1
2023/06/27 13:00:34.000   31.026929247  121.434741124    16.3496   2  30   0.0614   0.0606   0.1445   0.0234  -0.0358  -0.0576   1.00    1.1
2023/06/27 13:00:35.000   31.026938017  121.434736258    16.3182   2  31   0.0612   0.0605   0.1441   0.0233  -0.0356  -0.0573   1.00    1.0
2023/06/27 13:00:36.000   31.026947339  121.434734934    16.2926   2  31   0.0610   0.0604   0.1436   0.0232  -0.0356  -0.0572   1.00    1.0
2023/06/27 13:00:37.000   31.026957112  121.434732487    16.3335   2  30   0.0609   0.0603   0.1431   0.0232  -0.0356  -0.0569   2.00    1.0
2023/06/27 13:00:38.000   31.026966227  121.434727686    16.3444   2  31   0.0607   0.0602   0.1426   0.0233  -0.0354  -0.0566   1.00    1.0
2023/06/27 13:00:39.000   31.026975514  121.434723719    16.3130   2  30   0.0608   0.0602   0.1428   0.0236  -0.0360  -0.0572   1.00    1.0
2023/06/27 13:00:40.000   31.026984313  121.434719969    16.2857   2  30   0.0608   0.0602   0.1423   0.0239  -0.0365  -0.0573   2.00    1.0
2023/06/27 13:00:43.000   31.027012275  121.434709835    16.3671   2  30   0.0606   0.0601   0.1418   0.0238  -0.0366  -0.0571   1.00    1.0
2023/06/27 13:00:45.000   31.027028815  121.434704655    16.3593   2  29   0.0604   0.0601   0.1418   0.0238  -0.0372  -0.0572   2.00    1.0
2023/06/27 13:00:46.000   31.027034783  121.434702087    16.2483   2  29   0.0601   0.0598   0.1411   0.0234  -0.0371  -0.0570   1.00    1.1
2023/06/27 13:00:47.000   31.027038282  121.434702509    16.3974   2  30   0.0599   0.0599   0.1411   0.0236  -0.0369  -0.0569   1.00    1.0
2023/06/27 13:00:48.000   31.027038557  121.434702044    16.3159   2  30   0.0597   0.0597   0.1404   0.0234  -0.0363  -0.0564   2.00    1.0
2023/06/27 13:00:49.000   31.027038862  121.434702039    16.3088   2  29   0.0594   0.0595   0.1394   0.0230  -0.0358  -0.0559   1.00    1.1
2023/06/27 13:00:50.000   31.027038763  121.434702101    16.2875   2  29   0.0591   0.0593   0.1388   0.0228  -0.0356  -0.0556   1.00    1.2
