%  GPST                  latitude(deg) longitude(deg)  height(m)   Q  ns   sdn(m)   sde(m)   sdu(m)  sdne(m)  sdeu(m)  sdun(m) age(s)  ratio
2023/06/27 13:02:04.000   31.027036361  121.434696392    15.9898   2  26   1.2898   1.1150   3.8072   0.7018   0.8084   0.3880   2.00    2.5
2023/06/27 13:02:05.000   31.027042194  121.434695363    16.2941   2  26   0.9749   0.8420   2.8640   0.5303   0.6563   0.2756   2.00    1.1
2023/06/27 13:02:06.000   31.027048383  121.434687495    15.4071   2  26   0.8207   0.6970   2.3591   0.4346   0.3384  -0.3286   1.00    1.9
2023/06/27 13:02:07.000   31.027056652  121.434678839    15.6485   2  20   0.7463   0.6301   2.1844   0.3920   0.3368  -0.3412   1.00    1.2
2023/06/27 13:02:08.000   31.027063971  121.434670784    16.1590   2  28   0.6470   0.5506   1.9148   0.3200   0.2561  -0.3412   1.00    1.6
2023/06/27 13:02:09.000   31.027074324  121.434667859    16.8723   2  29   0.5796   0.4900   1.7009   0.2698   0.1207  -0.3587   1.00    1.7
2023/06/27 13:02:10.000   31.027084779  121.434663351    16.8694   2  22   0.5484   0.4602   1.6015   0.2519   0.0856  -0.3749   1.00    1.3
2023/06/27 13:02:11.000   31.027094512  121.434657921    17.1891   2  28   0.5109   0.4288   1.4709   0.2344  -0.0245  -0.3573   1.00    1.5
2023/06/27 13:02:12.000   31.027105074  121.434653914    17.2558   2  27   0.4843   0.4036   1.3827   0.2216  -0.0562  -0.3508   1.00    1.6
2023/06/27 13:02:15.000   31.027136384  121.434641501    17.2780   2  28   0.4603   0.3811   1.3049   0.2119  -0.0771  -0.3387   3.00    1.1
2023/06/27 13:02:16.000   31.027146506  121.434636499    17.2220   2  28   0.4388   0.3629   1.2442   0.2020  -0.1031  -0.3305   2.00    1.2
2023/06/27 13:02:17.000   31.027156308  121.434630766    17.0410   2  29   0.4201   0.3458   1.1822   0.1928  -0.1124  -0.3229   1.00    1.1
2023/06/27 13:02:18.000   31.027166068  121.434627010    17.1258   2  28   0.4003   0.3316   1.1333   0.1813  -0.0987  -0.3051   1.00    1.0
2023/06/27 13:02:19.000   31.027175815  121.434623796    17.0531   2  28   0.3870   0.3198   1.0943   0.1733  -0.0921  -0.3038   1.00    1.0
2023/06/27 13:02:20.000   31.027189103  121.434628811    20.4732   2  28   0.3736   0.3078   1.0534   0.1663  -0.0996  -0.3010   1.00    1.0
2023/06/27 13:02:21.000   31.027197531  121.434620198    18.9117   2  27   0.3620   0.2976   1.0197   0.1604  -0.1109  -0.2972   1.00    1.0
2023/06/27 13:02:22.000   31.027207168  121.434615759    18.8457   2  30   0.3510   0.2875   0.9833   0.1554  -0.1164  -0.2908   1.00    1.0
2023/06/27 13:02:23.000   31.027217099  121.434612408    18.8080   2  28   0.3416   0.2794   0.9542   0.1522  -0.1144  -0.2827   1.00    1.0
2023/06/27 13:02:24.000   31.027227381  121.434609671    18.7536   2  28   0.3330   0.2720   0.9275   0.1491  -0.1124  -0.2752   2.00    1.1
2023/06/27 13:02:25.000   31.027238149  121.434606845    18.7255   2  28   0.3253   0.2652   0.9041   0.1457  -0.1127  -0.2718   1.00    1.0
2023/06/27 13:02:26.000   31.027248546  121.434604523    18.7129   2  29   0.3175   0.2590   0.8805   0.1432  -0.1137  -0.2657   2.00    1.0
2023/06/27 13:02:27.000   31.027258950  121.434601217    18.7523   2  19   0.3132   0.2549   0.8700   0.1400  -0.1151  -0.2659   2.00    1.0
2023/06/27 13:02:28.000   31.027269622  121.434597198    18.6531   2  28   0.3067   0.2491   0.8503   0.1373  -0.1104  -0.2617   3.00    1.1
2023/06/27 13:02:29.000   31.027280225  121.434594383    18.6249   2  23   0.3018   0.2452   0.8375   0.1350  -0.1120  -0.2598   2.00    1.2
2023/06/27 13:02:30.000   31.027291017  121.434589464    18.5225   2  26   0.2954   0.2411   0.8212   0.1335  -0.1139  -0.2551   2.00    1.1
2023/06/27 13:02:31.000   31.027307276  121.434590970    17.4030   2  27   0.2910   0.2365   0.8058   0.1324  -0.1199  -0.2543   3.00    1.0
2023/06/27 13:02:32.000   31.027318679  121.434583185    17.8976   2  27   0.2857   0.2322   0.7886   0.1308  -0.1217  -0.2499   2.00    1.0
2023/06/27 13:02:33.000   31.027334665  121.434575345    17.9220   2  20   0.2822   0.2297   0.7800   0.1297  -0.1241  -0.2492   2.00    1.0
2023/06/27 13:02:34.000   31.027351410  121.434570149    18.0176   2  26   0.2773   0.2262   0.7672   0.1284  -0.1275  -0.2462   2.00    1.1
2023/06/27 13:02:35.000   31.027365743  121.434564173    17.7971   2  26   0.2732   0.2227   0.7533   0.1274  -0.1259  -0.2416   3.00    1.0
2023/06/27 13:02:36.000   31.027376299  121.434557786    17.9709   2  28   0.2677   0.2188   0.7390   0.1245  -0.1264  -0.2364   2.00    1.0
2023/06/27 13:02:37.000   31.027386312  121.434552702    17.9799   2  28   0.2627   0.2151   0.7253   0.1217  -0.1261  -0.2315   2.00    1.1
2023/06/27 13:02:38.000   31.027395966  121.434547693    17.6433   2  29   0.2581   0.2115   0.7112   0.1193  -0.1241  -0.2265   1.00    1.1
2023/06/27 13:02:39.000   31.027404187  121.434541338    17.8335   2  29   0.2534   0.2080   0.6990   0.1165  -0.1232  -0.2217   2.00    1.2
2023/06/27 13:02:40.000   31.027412268  121.434537556    17.6810   2  30   0.2490   0.2049   0.6872   0.1141  -0.1213  -0.2168   2.00    1.0
2023/06/27 13:02:41.000   31.027421185  121.434533351    17.6076   2  23   0.2464   0.2027   0.6813   0.1125  -0.1211  -0.2157   1.00    1.1
2023/06/27 13:02:42.000   31.027430679  121.434527018    17.6239   2  30   0.2422   0.1994   0.6690   0.1102  -0.1177  -0.2105   2.00    1.0
2023/06/27 13:02:43.000   31.027438958  121.434521917    17.8074   2  30   0.2384   0.1965   0.6584   0.1081  -0.1154  -0.2063   2.00    1.1
2023/06/27 13:02:44.000   31.027444411  121.434520104    17.8507   2  31   0.2347   0.1935   0.6473   0.1061  -0.1118  -0.2021   2.00    1.1
2023/06/27 13:02:45.000   31.027449637  121.434518578    17.7810   2  30   0.2312   0.1906   0.6372   0.1040  -0.1105  -0.1986   2.00    1.1
2023/06/27 13:02:46.000   31.027456156  121.434517566    17.7195   2  30   0.2278   0.1880   0.6275   0.1022  -0.1091  -0.1953   2.00    1.2
2023/06/27 13:02:48.000   31.027475117  121.434512405    17.7308   2  31   0.2245   0.1853   0.6175   0.1003  -0.1069  -0.1919   1.00    1.2
2023/06/27 13:02:49.000   31.027484227  121.434505457    17.7449   2  31   0.2214   0.1828   0.6079   0.0986  -0.1048  -0.1887   2.00    1.4
2023/06/27 13:02:50.000   31.027493814  121.434500350    17.7643   2  31   0.2184   0.1803   0.5987   0.0969  -0.1029  -0.1856   2.00    1.5
2023/06/27 13:02:51.000   31.027503714  121.434495592    17.7688   2  31   0.2155   0.1780   0.5899   0.0953  -0.1010  -0.1827   3.00    1.6
2023/06/27 13:02:52.000   31.027513898  121.434491910    17.7576   2  31   0.2127   0.1758   0.5814   0.0938  -0.0993  -0.1799   2.00    1.8
2023/06/27 13:02:53.000   31.027524078  121.434488974    17.7651   2  31   0.2100   0.1736   0.5732   0.0923  -0.0976  -0.1772   2.00    1.9
2023/06/27 13:02:54.000   31.027533855  121.434485530    17.7463   2  31   0.2074   0.1715   0.5653   0.0909  -0.0961  -0.1747   2.00    2.0
2023/06/27 13:02:55.000   31.027543250  121.434481694    17.6808   2  31   0.2048   0.1695   0.5577   0.0896  -0.0946  -0.1722   2.00    2.2
2023/06/27 13:02:56.000   31.027552759  121.434479961    17.7035   2  31   0.2024   0.1675   0.5503   0.0883  -0.0931  -0.1699   2.00    2.3
2023/06/27 13:02:58.000   31.027571535  121.434471475    17.6369   2  31   0.2000   0.1657   0.5430   0.0870  -0.0917  -0.1676   1.00    2.5
2023/06/27 13:02:59.000   31.027579302  121.434469126    17.5629   2  31   0.1977   0.1638   0.5359   0.0858  -0.0904  -0.1654   2.00    2.7
2023/06/27 13:03:01.000   31.027593593  121.434459852    17.6096   2  31   0.1955   0.1621   0.5289   0.0846  -0.0891  -0.1632   1.00    1.2
2023/06/27 13:03:02.000   31.027602345  121.434456839    17.6571   2  31   0.1933   0.1603   0.5221   0.0835  -0.0878  -0.1612   2.00    1.5
2023/06/27 13:03:03.000   31.027611189  121.434451329    17.6621   2  31   0.1911   0.1586   0.5157   0.0823  -0.0866  -0.1592   2.00    1.1
2023/06/27 13:03:04.000   31.027619998  121.434445702    17.6723   2  31   0.1891   0.1570   0.5093   0.0813  -0.0855  -0.1574   2.00    1.2
2023/06/27 13:03:05.000   31.027629172  121.434440282    17.6389   2  31   0.1871   0.1555   0.5032   0.0802  -0.0845  -0.1556   2.00    1.3
2023/06/27 13:03:06.000   31.027639022  121.434434660    17.6350   2  31   0.1851   0.1540   0.4972   0.0793  -0.0835  -0.1538   2.00    1.4
2023/06/27 13:03:07.000   31.027648147  121.434428846    17.6599   2  31   0.1832   0.1525   0.4914   0.0783  -0.0825  -0.1521   2.00    1.5
2023/06/27 13:03:08.000   31.027657897  121.434422654    17.6530   2  31   0.1814   0.1511   0.4857   0.0774  -0.0816  -0.1505   1.00    1.6
2023/06/27 13:03:09.000   31.027666618  121.434415598    17.6298   2  31   0.1796   0.1497   0.4802   0.0765  -0.0807  -0.1489   2.00    1.7
2023/06/27 13:03:10.000   31.027674841  121.434406320    17.5615   2  31   0.1779   0.1484   0.4749   0.0757  -0.0795  -0.1473   2.00    1.8
2023/06/27 13:03:11.000   31.027683458  121.434396685    17.5216   2  31   0.1762   0.1471   0.4699   0.0749  -0.0783  -0.1457   1.00    1.1
2023/06/27 13:03:12.000   31.027692737  121.434387740    17.4395   2  29   0.1745   0.1459   0.4651   0.0742  -0.0768  -0.1440   2.00    1.7
2023/06/27 13:03:13.000   31.027701660  121.434379751    17.3853   2  30   0.1730   0.1448   0.4608   0.0736  -0.0750  -0.1420   3.00    1.1
2023/06/27 13:03:14.000   31.027708153  121.434368196    17.3892   2  31   0.1714   0.1436   0.4560   0.0729  -0.0742  -0.1406   1.00    1.0
2023/06/27 13:03:15.000   31.027715810  121.434357761    17.3420   2  29   0.1700   0.1425   0.4515   0.0723  -0.0729  -0.1391   2.00    1.1
2023/06/27 13:03:16.000   31.027719871  121.434343838    17.3137   2  29   0.1685   0.1415   0.4474   0.0717  -0.0725  -0.1376   2.00    1.2
2023/06/27 13:03:17.000   31.027724502  121.434331464    17.8089   2  30   0.1671   0.1404   0.4433   0.0710  -0.0723  -0.1362   3.00    1.1
2023/06/27 13:03:18.000   31.027724251  121.434316436    17.7078   2  30   0.1656   0.1394   0.4391   0.0704  -0.0719  -0.1350   2.00    1.2
2023/06/27 13:03:19.000   31.027723554  121.434301085    17.3701   2  31   0.1642   0.1382   0.4345   0.0696  -0.0711  -0.1338   2.00    1.1
2023/06/27 13:03:20.000   31.027723900  121.434286689    17.2990   2  29   0.1629   0.1372   0.4306   0.0687  -0.0695  -0.1330   2.00    1.3
2023/06/27 13:03:22.000   31.027726481  121.434259288    17.2178   2  29   0.1617   0.1362   0.4266   0.0679  -0.0685  -0.1322   1.00    1.2
2023/06/27 13:03:23.000   31.027725708  121.434245601    17.1697   2  30   0.1603   0.1352   0.4226   0.0671  -0.0679  -0.1314   2.00    1.2
2023/06/27 13:03:24.000   31.027723588  121.434232470    17.1035   2  29   0.1590   0.1343   0.4192   0.0664  -0.0673  -0.1305   2.00    1.2
2023/06/27 13:03:25.000   31.027720686  121.434219460    17.0787   2  23   0.1586   0.1339   0.4194   0.0663  -0.0674  -0.1318   1.00    1.1
2023/06/27 13:03:26.000   31.027718872  121.434208480    17.0289   2  30   0.1571   0.1326   0.4138   0.0653  -0.0660  -0.1298   2.00    1.1
2023/06/27 13:03:27.000   31.027718588  121.434198130    16.8821   2  28   0.1559   0.1317   0.4103   0.0649  -0.0660  -0.1289   1.00    1.6
2023/06/27 13:03:28.000   31.027716941  121.434184829    16.9686   2  29   0.1546   0.1309   0.4070   0.0644  -0.0663  -0.1278   2.00    1.1
2023/06/27 13:03:29.000   31.027713502  121.434171642    16.9442   2  28   0.1535   0.1301   0.4036   0.0637  -0.0653  -0.1270   3.00    1.2
2023/06/27 13:03:30.000   31.027708611  121.434158582    16.9683   2  26   0.1524   0.1296   0.4009   0.0631  -0.0641  -0.1259   1.00    1.2
2023/06/27 13:03:31.000   31.027704608  121.434145067    16.8915   2  27   0.1513   0.1291   0.3987   0.0626  -0.0619  -0.1250   2.00    1.3
2023/06/27 13:03:32.000   31.027701169  121.434131312    16.8407   2  25   0.1507   0.1283   0.3982   0.0623  -0.0625  -0.1263   3.00    1.2
2023/06/27 13:03:33.000   31.027697072  121.434117901    16.8474   2  26   0.1497   0.1275   0.3951   0.0617  -0.0630  -0.1259   3.00    1.2
2023/06/27 13:03:34.000   31.027696673  121.434104648    16.8020   2  25   0.1488   0.1268   0.3921   0.0611  -0.0632  -0.1253   2.00    1.1
2023/06/27 13:03:35.000   31.027698899  121.434090342    16.7904   2  28   0.1477   0.1260   0.3893   0.0605  -0.0632  -0.1247   2.00    1.1
2023/06/27 13:03:36.000   31.027694650  121.434080906    16.7214   2  25   0.1471   0.1254   0.3869   0.0600  -0.0625  -0.1244   3.00    1.3
2023/06/27 13:03:37.000   31.027693166  121.434071471    16.7546   2  28   0.1460   0.1246   0.3837   0.0599  -0.0626  -0.1235   2.00    1.2
2023/06/27 13:03:38.000   31.027690965  121.434059613    16.7993   2  26   0.1453   0.1241   0.3812   0.0594  -0.0623  -0.1233   2.00    1.1
2023/06/27 13:03:39.000   31.027687882  121.434048205    16.7621   2  25   0.1443   0.1235   0.3793   0.0594  -0.0617  -0.1226   3.00    1.8
2023/06/27 13:03:41.000   31.027680110  121.434026571    16.9733   2  29   0.1435   0.1227   0.3771   0.0592  -0.0612  -0.1222   2.00    1.0
2023/06/27 13:03:42.000   31.027675356  121.434015933    16.8143   2  29   0.1426   0.1219   0.3743   0.0588  -0.0613  -0.1217   1.00    1.0
2023/06/27 13:03:43.000   31.027669229  121.434005616    16.9075   2  29   0.1417   0.1212   0.3715   0.0584  -0.0609  -0.1209   2.00    1.1
2023/06/27 13:03:44.000   31.027659207  121.433995200    16.8594   2  28   0.1408   0.1205   0.3691   0.0580  -0.0600  -0.1200   1.00    1.0
2023/06/27 13:03:45.000   31.027649565  121.433982516    16.7509   2  26   0.1402   0.1203   0.3686   0.0574  -0.0579  -0.1201   2.00    1.1
2023/06/27 13:03:46.000   31.027641628  121.433969004    16.8100   2  26   0.1394   0.1196   0.3664   0.0571  -0.0592  -0.1195   1.00    1.1
2023/06/27 13:03:47.000   31.027636521  121.433955927    16.7431   2  28   0.1384   0.1188   0.3642   0.0566  -0.0587  -0.1187   2.00    1.1
2023/06/27 13:03:48.000   31.027631978  121.433944602    16.7282   2  28   0.1374   0.1182   0.3615   0.0562  -0.0587  -0.1175   2.00    1.1
2023/06/27 13:03:49.000   31.027629220  121.433933933    16.1988   1  15   0.0249   0.0213   0.0776   0.0109  -0.0175  -0.0294   2.00    6.0
2023/06/27 13:03:51.000   31.027620455  121.433913148    16.7199   2  27   0.1362   0.1174   0.3582   0.0555  -0.0580  -0.1165   2.00    1.0
2023/06/27 13:03:52.000   31.027616124  121.433902889    16.6962   2  29   0.1353   0.1167   0.3552   0.0551  -0.0581  -0.1155   1.00    1.0
2023/06/27 13:03:53.000   31.027611810  121.433890443    16.7229   2  27   0.1344   0.1161   0.3528   0.0546  -0.0576  -0.1147   2.00    1.2
2023/06/27 13:03:54.000   31.027607279  121.433877229    16.8045   2  29   0.1335   0.1155   0.3502   0.0541  -0.0572  -0.1139   1.00    1.1
2023/06/27 13:03:55.000   31.027602952  121.433863566    16.7265   2  28   0.1327   0.1149   0.3479   0.0537  -0.0570  -0.1132   1.00    1.1
2023/06/27 13:03:56.000   31.027598804  121.433850999    16.7202   2  21   0.1324   0.1148   0.3483   0.0539  -0.0587  -0.1139   1.00    2.3
2023/06/27 13:03:57.000   31.027593733  121.433838683    16.7283   2  29   0.1313   0.1139   0.3441   0.0531  -0.0572  -0.1121   2.00    1.2
2023/06/27 13:03:58.000   31.027591253  121.433827284    16.6993   2  29   0.1305   0.1134   0.3417   0.0528  -0.0573  -0.1112   2.00    1.1
2023/06/27 13:03:59.000   31.027586025  121.433814649    16.4875   2  28   0.1298   0.1128   0.3396   0.0523  -0.0565  -0.1109   2.00    1.0
2023/06/27 13:04:00.000   31.027581635  121.433801332    16.5537   2  26   0.1291   0.1123   0.3375   0.0519  -0.0557  -0.1103   2.00    1.4
2023/06/27 13:04:01.000   31.027578144  121.433788082    16.5263   2  29   0.1284   0.1118   0.3355   0.0515  -0.0552  -0.1097   2.00    1.1
2023/06/27 13:04:02.000   31.027573177  121.433774966    16.6279   2  30   0.1276   0.1113   0.3333   0.0512  -0.0553  -0.1090   1.00    1.1
2023/06/27 13:04:03.000   31.027567014  121.433761818    16.5896   2  29   0.1269   0.1107   0.3310   0.0508  -0.0551  -0.1082   1.00    1.1
2023/06/27 13:04:04.000   31.027562665  121.433748594    16.6215   2  30   0.1261   0.1102   0.3285   0.0503  -0.0547  -0.1075   1.00    1.2
2023/06/27 13:04:05.000   31.027559153  121.433735120    16.6444   2  28   0.1254   0.1098   0.3268   0.0501  -0.0538  -0.1067   1.00    1.1
2023/06/27 13:04:06.000   31.027556673  121.433723620    16.6984   2  27   0.1248   0.1092   0.3248   0.0498  -0.0541  -0.1063   1.00    1.2
2023/06/27 13:04:07.000   31.027550845  121.433710881    16.6062   2  28   0.1241   0.1087   0.3225   0.0494  -0.0533  -0.1057   1.00    1.1
2023/06/27 13:04:08.000   31.027548356  121.433698240    16.5930   2  29   0.1234   0.1084   0.3207   0.0492  -0.0529  -0.1050   2.00    1.0
2023/06/27 13:04:09.000   31.027546622  121.433684428    16.6351   2  28   0.1228   0.1077   0.3185   0.0489  -0.0527  -0.1045   3.00    1.1
2023/06/27 13:04:10.000   31.027543915  121.433671931    16.5731   2  31   0.1220   0.1071   0.3160   0.0486  -0.0525  -0.1037   2.00    1.1
2023/06/27 13:04:11.000   31.027538298  121.433658956    16.7071   2  29   0.1212   0.1067   0.3142   0.0484  -0.0528  -0.1030   2.00    1.1
2023/06/27 13:04:12.000   31.027533199  121.433646643    16.4075   2  27   0.1207   0.1063   0.3123   0.0479  -0.0517  -0.1028   2.00    1.2
2023/06/27 13:04:13.000   31.027528167  121.433632812    16.6480   2  28   0.1200   0.1059   0.3108   0.0478  -0.0516  -0.1021   1.00    1.1
2023/06/27 13:04:14.000   31.027523830  121.433620245    16.4578   2  30   0.1193   0.1053   0.3083   0.0476  -0.0514  -0.1013   1.00    1.0
2023/06/27 13:04:15.000   31.027518303  121.433607030    16.6006   2  29   0.1186   0.1049   0.3064   0.0474  -0.0511  -0.1005   1.00    1.1
2023/06/27 13:04:16.000   31.027513207  121.433594291    16.5922   2  29   0.1179   0.1044   0.3043   0.0471  -0.0511  -0.0999   1.00    1.1
2023/06/27 13:04:17.000   31.027508492  121.433580766    16.6019   2  28   0.1172   0.1041   0.3026   0.0469  -0.0509  -0.0992   1.00    1.1
2023/06/27 13:04:18.000   31.027506724  121.433567720    16.6607   2  28   0.1165   0.1037   0.3007   0.0466  -0.0509  -0.0986   2.00    1.1
2023/06/27 13:04:19.000   31.027503081  121.433553708    16.6514   2  27   0.1160   0.1034   0.2991   0.0462  -0.0503  -0.0982   2.00    1.1
2023/06/27 13:04:20.000   31.027498907  121.433540373    16.7009   2  29   0.1153   0.1030   0.2974   0.0461  -0.0504  -0.0975   2.00    1.1
2023/06/27 13:04:21.000   31.027495606  121.433527017    16.6657   2  27   0.1149   0.1027   0.2960   0.0456  -0.0498  -0.0974   2.00    1.0
2023/06/27 13:04:22.000   31.027491833  121.433513767    16.6790   2  20   0.1150   0.1032   0.2984   0.0458  -0.0512  -0.0991   2.00    1.6
2023/06/27 13:04:23.000   31.027488241  121.433500854    16.6593   2  28   0.1139   0.1021   0.2932   0.0452  -0.0492  -0.0968   1.00    1.1
2023/06/27 13:04:24.000   31.027484809  121.433487694    16.6730   2  28   0.1132   0.1016   0.2911   0.0449  -0.0490  -0.0963   1.00    1.1
2023/06/27 13:04:25.000   31.027481480  121.433475926    16.6732   2  25   0.1127   0.1013   0.2897   0.0444  -0.0489  -0.0961   1.00    1.2
2023/06/27 13:04:26.000   31.027478634  121.433468229    16.7265   2  28   0.1122   0.1010   0.2881   0.0440  -0.0485  -0.0957   1.00    1.1
2023/06/27 13:04:27.000   31.027475214  121.433457172    16.7049   2  28   0.1116   0.1007   0.2864   0.0437  -0.0485  -0.0952   1.00    1.1
2023/06/27 13:04:28.000   31.027472189  121.433444914    16.7012   2  25   0.1111   0.1002   0.2845   0.0436  -0.0485  -0.0945   2.00    1.2
2023/06/27 13:04:29.000   31.027468149  121.433434920    16.7226   2  26   0.1106   0.0999   0.2830   0.0432  -0.0479  -0.0943   2.00    1.1
2023/06/27 13:04:31.000   31.027459454  121.433411629    16.6343   2  28   0.1100   0.0995   0.2811   0.0430  -0.0475  -0.0937   3.00    1.1
2023/06/27 13:04:32.000   31.027454940  121.433399640    16.7043   2  28   0.1094   0.0993   0.2795   0.0431  -0.0473  -0.0928   2.00    1.1
2023/06/27 13:04:33.000   31.027451164  121.433388492    16.7167   2  28   0.1088   0.0988   0.2777   0.0430  -0.0474  -0.0922   1.00    1.1
2023/06/27 13:04:34.000   31.027446926  121.433375508    16.7362   2  28   0.1082   0.0985   0.2760   0.0428  -0.0474  -0.0917   1.00    1.1
2023/06/27 13:04:36.000   31.027437054  121.433351599    16.4286   2  29   0.1078   0.0982   0.2752   0.0430  -0.0470  -0.0914   1.00    1.0
2023/06/27 13:04:37.000   31.027433156  121.433337794    16.6836   2  26   0.1073   0.0979   0.2738   0.0428  -0.0478  -0.0913   1.00    1.1
2023/06/27 13:04:38.000   31.027428931  121.433325344    16.7045   2  21   0.1072   0.0983   0.2769   0.0431  -0.0456  -0.0912   1.00    1.1
2023/06/27 13:04:39.000   31.027424822  121.433314236    16.3640   2  27   0.1064   0.0974   0.2716   0.0428  -0.0474  -0.0906   2.00    1.2
2023/06/27 13:04:40.000   31.027420806  121.433301878    16.3948   2  29   0.1059   0.0970   0.2698   0.0425  -0.0468  -0.0899   2.00    1.0
2023/06/27 13:04:41.000   31.027416644  121.433289450    16.7033   2  28   0.1053   0.0967   0.2684   0.0423  -0.0474  -0.0895   3.00    1.0
2023/06/27 13:04:42.000   31.027413193  121.433277758    16.6864   2  29   0.1048   0.0964   0.2669   0.0422  -0.0475  -0.0893   2.00    1.0
2023/06/27 13:04:43.000   31.027408933  121.433267347    16.7039   2  28   0.1042   0.0960   0.2651   0.0418  -0.0471  -0.0885   2.00    1.0
2023/06/27 13:04:44.000   31.027405740  121.433255400    16.7479   2  27   0.1037   0.0958   0.2639   0.0417  -0.0461  -0.0877   1.00    1.2
2023/06/27 13:04:45.000   31.027402310  121.433242667    16.7580   2  27   0.1032   0.0955   0.2628   0.0413  -0.0453  -0.0876   1.00    1.1
2023/06/27 13:04:46.000   31.027398019  121.433230725    16.7794   2  26   0.1028   0.0952   0.2614   0.0412  -0.0457  -0.0875   1.00    1.2
2023/06/27 13:04:47.000   31.027394331  121.433218083    16.7087   2  29   0.1023   0.0949   0.2602   0.0410  -0.0463  -0.0871   2.00    1.1
2023/06/27 13:04:48.000   31.027389426  121.433205127    16.7394   2  20   0.1026   0.0951   0.2632   0.0415  -0.0480  -0.0892   1.00    1.8
2023/06/27 13:04:49.000   31.027384748  121.433192689    16.7001   2  27   0.1015   0.0945   0.2579   0.0405  -0.0451  -0.0864   2.00    1.1
2023/06/27 13:04:50.000   31.027379840  121.433180056    16.7618   2  26   0.1011   0.0942   0.2564   0.0401  -0.0451  -0.0863   2.00    1.2
2023/06/27 13:04:51.000   31.027375985  121.433167507    16.6653   2  29   0.1006   0.0939   0.2548   0.0400  -0.0444  -0.0856   2.00    1.1
2023/06/27 13:04:52.000   31.027371190  121.433155464    16.7569   2  26   0.1002   0.0938   0.2537   0.0396  -0.0440  -0.0854   2.00    1.1
2023/06/27 13:04:53.000   31.027367858  121.433143148    16.7175   2  28   0.0997   0.0936   0.2523   0.0392  -0.0449  -0.0846   2.00    1.1
2023/06/27 13:04:54.000   31.027364617  121.433130773    16.6832   2  24   0.0998   0.0933   0.2511   0.0386  -0.0445  -0.0851   1.00    1.0
2023/06/27 13:04:55.000   31.027360070  121.433116688    17.2099   2  25   0.0992   0.0929   0.2497   0.0386  -0.0437  -0.0845   1.00    1.0
2023/06/27 13:04:56.000   31.027354828  121.433105800    16.7175   2  24   0.0987   0.0929   0.2488   0.0381  -0.0435  -0.0841   1.00    1.1
2023/06/27 13:04:57.000   31.027351607  121.433094295    16.8029   2  26   0.0984   0.0927   0.2478   0.0381  -0.0428  -0.0836   1.00    1.0
2023/06/27 13:04:58.000   31.027348558  121.433086008    16.9691   2  27   0.0978   0.0923   0.2460   0.0379  -0.0432  -0.0831   1.00    1.1
2023/06/27 13:04:59.000   31.027345344  121.433071986    17.3996   2  26   0.0975   0.0920   0.2450   0.0377  -0.0420  -0.0831   1.00    1.0
2023/06/27 13:05:00.000   31.027341330  121.433060873    16.8401   2  26   0.0971   0.0919   0.2442   0.0373  -0.0418  -0.0829   2.00    1.1
2023/06/27 13:05:01.000   31.027339142  121.433047691    16.8409   2  25   0.0970   0.0917   0.2448   0.0378  -0.0421  -0.0837   2.00    1.1
2023/06/27 13:05:02.000   31.027334265  121.433034891    17.1596   2  26   0.0965   0.0913   0.2427   0.0378  -0.0430  -0.0828   2.00    1.0
2023/06/27 13:05:03.000   31.027329509  121.433021695    17.5062   2  28   0.0961   0.0909   0.2411   0.0376  -0.0426  -0.0825   2.00    1.0
2023/06/27 13:05:04.000   31.027324757  121.433009645    17.1761   2  21   0.0960   0.0914   0.2432   0.0378  -0.0433  -0.0822   2.00    1.1
2023/06/27 13:05:05.000   31.027321863  121.432996168    16.8827   2  25   0.0957   0.0905   0.2403   0.0372  -0.0431  -0.0824   1.00    1.0
2023/06/27 13:05:06.000   31.027317167  121.432982523    16.8713   2  26   0.0951   0.0903   0.2387   0.0370  -0.0423  -0.0813   1.00    1.0
2023/06/27 13:05:08.000   31.027309749  121.432955438    17.0943   2  25   0.0949   0.0900   0.2377   0.0370  -0.0422  -0.0815   1.00    1.0
2023/06/27 13:05:09.000   31.027307025  121.432942019    16.8915   2  25   0.0946   0.0899   0.2375   0.0367  -0.0437  -0.0816   1.00    1.0
2023/06/27 13:05:10.000   31.027303975  121.432928385    16.8692   2  25   0.0942   0.0896   0.2364   0.0367  -0.0437  -0.0814   2.00    1.0
2023/06/27 13:05:11.000   31.027299039  121.432914262    17.3984   2  27   0.0938   0.0894   0.2353   0.0367  -0.0434  -0.0805   2.00    1.0
2023/06/27 13:05:13.000   31.027293490  121.432888017    16.9442   2  26   0.0935   0.0893   0.2341   0.0361  -0.0434  -0.0806   2.00    1.0
2023/06/27 13:05:14.000   31.027289072  121.432875340    16.8590   2  25   0.0932   0.0890   0.2332   0.0361  -0.0430  -0.0805   2.00    1.1
2023/06/27 13:05:15.000   31.027284164  121.432862094    16.8742   2  25   0.0927   0.0888   0.2316   0.0356  -0.0419  -0.0794   1.00    1.0
2023/06/27 13:05:17.000   31.027274999  121.432835339    16.8858   2  22   0.0924   0.0888   0.2313   0.0348  -0.0438  -0.0786   1.00    1.1
2023/06/27 13:05:18.000   31.027269126  121.432822970    16.8217   2  26   0.0922   0.0885   0.2302   0.0345  -0.0438  -0.0782   1.00    1.0
2023/06/27 13:05:19.000   31.027265245  121.432808003    16.7938   2  26   0.0917   0.0884   0.2295   0.0345  -0.0437  -0.0781   1.00    1.1
2023/06/27 13:05:20.000   31.027261434  121.432793460    16.8030   2  25   0.0914   0.0883   0.2294   0.0346  -0.0417  -0.0778   2.00    1.0
2023/06/27 13:05:21.000   31.027255934  121.432780231    16.7904   2  23   0.0911   0.0880   0.2283   0.0346  -0.0415  -0.0777   2.00    1.3
2023/06/27 13:05:22.000   31.027251273  121.432767647    16.8320   2  25   0.0907   0.0879   0.2280   0.0345  -0.0402  -0.0775   2.00    1.0
2023/06/27 13:05:23.000   31.027247076  121.432754866    16.8698   2  25   0.0904   0.0878   0.2274   0.0344  -0.0394  -0.0774   2.00    1.0
2023/06/27 13:05:24.000   31.027243030  121.432741278    16.8067   2  24   0.0902   0.0878   0.2268   0.0344  -0.0387  -0.0771   2.00    1.0
2023/06/27 13:05:25.000   31.027240703  121.432728655    16.8221   2  26   0.0899   0.0872   0.2252   0.0343  -0.0401  -0.0770   1.00    1.0
2023/06/27 13:05:26.000   31.027235991  121.432714837    16.7803   2  25   0.0896   0.0873   0.2249   0.0342  -0.0387  -0.0768   1.00    1.1
2023/06/27 13:05:27.000   31.027231775  121.432701462    16.7294   2  26   0.0897   0.0869   0.2247   0.0343  -0.0395  -0.0780   1.00    1.0
2023/06/27 13:05:28.000   31.027226915  121.432688171    16.7169   2  26   0.0894   0.0865   0.2232   0.0341  -0.0403  -0.0780   1.00    1.0
2023/06/27 13:05:29.000   31.027223095  121.432674566    16.6946   2  26   0.0892   0.0862   0.2221   0.0340  -0.0405  -0.0779   1.00    1.1
2023/06/27 13:05:30.000   31.027219242  121.432661981    16.7051   2  27   0.0889   0.0861   0.2213   0.0339  -0.0402  -0.0777   2.00    1.1
2023/06/27 13:05:31.000   31.027214203  121.432648810    16.6478   2  27   0.0884   0.0858   0.2200   0.0335  -0.0401  -0.0772   2.00    1.1
2023/06/27 13:05:32.000   31.027209576  121.432635497    16.6469   2  26   0.0881   0.0856   0.2194   0.0334  -0.0401  -0.0769   2.00    1.0
2023/06/27 13:05:33.000   31.027205380  121.432621787    16.6109   2  26   0.0878   0.0855   0.2188   0.0331  -0.0412  -0.0767   2.00    1.0
2023/06/27 13:05:34.000   31.027201993  121.432608056    16.6333   2  25   0.0877   0.0853   0.2180   0.0329  -0.0406  -0.0763   2.00    1.1
2023/06/27 13:05:35.000   31.027195546  121.432595100    16.5947   2  26   0.0874   0.0852   0.2173   0.0327  -0.0409  -0.0761   1.00    1.1
2023/06/27 13:05:36.000   31.027190185  121.432581144    16.5570   2  26   0.0870   0.0849   0.2159   0.0325  -0.0415  -0.0758   1.00    1.1
2023/06/27 13:05:37.000   31.027185587  121.432567645    16.5062   2  24   0.0874   0.0850   0.2157   0.0322  -0.0412  -0.0759   1.00    1.0
2023/06/27 13:05:38.000   31.027180958  121.432553688    16.4481   2  25   0.0871   0.0850   0.2165   0.0328  -0.0426  -0.0766   1.00    1.1
2023/06/27 13:05:39.000   31.027175339  121.432540210    16.6649   2  25   0.0866   0.0847   0.2157   0.0331  -0.0428  -0.0763   1.00    1.1
2023/06/27 13:05:40.000   31.027172097  121.432528065    16.5763   2  24   0.0862   0.0845   0.2150   0.0325  -0.0407  -0.0760   2.00    1.1
2023/06/27 13:05:41.000   31.027167824  121.432515230    16.5414   2  26   0.0858   0.0841   0.2136   0.0322  -0.0410  -0.0758   2.00    1.1
2023/06/27 13:05:42.000   31.027163242  121.432501852    16.5472   2  27   0.0855   0.0839   0.2126   0.0320  -0.0417  -0.0756   2.00    1.1
2023/06/27 13:05:43.000   31.027160147  121.432488557    16.5750   2  25   0.0853   0.0839   0.2123   0.0321  -0.0408  -0.0746   2.00    1.1
2023/06/27 13:05:44.000   31.027155750  121.432474908    16.5304   2  28   0.0848   0.0834   0.2108   0.0319  -0.0413  -0.0746   2.00    1.0
2023/06/27 13:05:46.000   31.027147186  121.432447398    16.5220   2  27   0.0846   0.0833   0.2103   0.0318  -0.0414  -0.0747   1.00    1.1
2023/06/27 13:05:47.000   31.027142816  121.432433497    16.4463   2  20   0.0849   0.0838   0.2134   0.0321  -0.0427  -0.0761   1.00    1.4
2023/06/27 13:05:48.000   31.027139374  121.432418933    16.4477   2  25   0.0840   0.0830   0.2087   0.0317  -0.0407  -0.0742   1.00    1.0
2023/06/27 13:05:50.000   31.027130838  121.432395396    17.2369   2  20   0.0848   0.0837   0.2131   0.0313  -0.0407  -0.0770   2.00    1.1
2023/06/27 13:05:51.000   31.027126386  121.432380891    16.8303   2  27   0.0836   0.0825   0.2075   0.0314  -0.0408  -0.0745   1.00    1.1
2023/06/27 13:05:52.000   31.027121352  121.432367698    16.7417   2  26   0.0833   0.0824   0.2068   0.0312  -0.0407  -0.0744   1.00    1.0
2023/06/27 13:05:53.000   31.027116418  121.432354060    16.7480   2  26   0.0831   0.0823   0.2063   0.0310  -0.0413  -0.0742   1.00    1.0
2023/06/27 13:05:54.000   31.027112670  121.432338959    16.4364   2  26   0.0828   0.0822   0.2058   0.0310  -0.0408  -0.0740   1.00    1.0
2023/06/27 13:05:55.000   31.027106585  121.432328628    17.3747   2  26   0.0825   0.0817   0.2048   0.0312  -0.0409  -0.0737   1.00    1.0
2023/06/27 13:05:56.000   31.027105511  121.432312231    16.4954   2  27   0.0822   0.0815   0.2040   0.0310  -0.0409  -0.0739   1.00    1.0
2023/06/27 13:05:57.000   31.027101809  121.432298321    16.4630   2  27   0.0820   0.0813   0.2035   0.0309  -0.0410  -0.0737   1.00    1.0
2023/06/27 13:05:58.000   31.027098584  121.432284417    16.4546   2  26   0.0822   0.0811   0.2039   0.0313  -0.0416  -0.0749   1.00    1.1
2023/06/27 13:05:59.000   31.027094421  121.432271091    16.3330   2  26   0.0820   0.0810   0.2029   0.0312  -0.0407  -0.0746   1.00    1.0
2023/06/27 13:06:00.000   31.027088254  121.432258218    16.4303   2  25   0.0818   0.0809   0.2027   0.0309  -0.0416  -0.0749   2.00    1.1
2023/06/27 13:06:01.000   31.027083458  121.432245632    16.3546   2  29   0.0816   0.0807   0.2020   0.0310  -0.0413  -0.0745   2.00    1.0
2023/06/27 13:06:02.000   31.027079158  121.432232240    16.3498   2  29   0.0813   0.0805   0.2008   0.0310  -0.0409  -0.0742   2.00    1.0
2023/06/27 13:06:03.000   31.027074811  121.432218819    16.4299   2  28   0.0809   0.0803   0.2007   0.0309  -0.0421  -0.0742   2.00    1.1
2023/06/27 13:06:04.000   31.027069847  121.432205631    16.4026   2  27   0.0806   0.0801   0.1998   0.0305  -0.0414  -0.0738   3.00    1.1
2023/06/27 13:06:05.000   31.027065298  121.432192119    16.4112   2  28   0.0803   0.0798   0.1985   0.0303  -0.0406  -0.0734   1.00    1.0
2023/06/27 13:06:06.000   31.027061953  121.432178632    16.4146   2  27   0.0800   0.0798   0.1980   0.0300  -0.0410  -0.0732   1.00    1.1
2023/06/27 13:06:07.000   31.027058116  121.432164995    16.3919   2  27   0.0798   0.0795   0.1972   0.0301  -0.0401  -0.0729   1.00    1.0
2023/06/27 13:06:08.000   31.027054434  121.432151058    16.2602   2  17   0.0816   0.0802   0.2018   0.0310  -0.0393  -0.0760   1.00    1.0
2023/06/27 13:06:09.000   31.027048805  121.432137992    16.3682   2  27   0.0798   0.0793   0.1969   0.0303  -0.0404  -0.0738   1.00    1.0
2023/06/27 13:06:10.000   31.027044200  121.432124901    16.2958   2  25   0.0796   0.0791   0.1963   0.0302  -0.0403  -0.0737   2.00    1.0
2023/06/27 13:06:11.000   31.027038532  121.432112073    16.3633   2  26   0.0793   0.0788   0.1956   0.0300  -0.0407  -0.0738   2.00    1.1
2023/06/27 13:06:12.000   31.027033934  121.432099010    16.3337   2  25   0.0792   0.0789   0.1958   0.0301  -0.0418  -0.0738   3.00    1.0
2023/06/27 13:06:13.000   31.027027966  121.432086017    16.2839   2  24   0.0790   0.0788   0.1951   0.0302  -0.0411  -0.0736   2.00    1.0
2023/06/27 13:06:14.000   31.027023730  121.432072612    16.2964   2  27   0.0787   0.0786   0.1944   0.0301  -0.0408  -0.0735   2.00    1.0
2023/06/27 13:06:15.000   31.027019383  121.432059226    16.3115   2  27   0.0783   0.0783   0.1935   0.0299  -0.0412  -0.0730   1.00    1.0
2023/06/27 13:06:16.000   31.027016511  121.432045870    16.3326   2  22   0.0786   0.0785   0.1965   0.0302  -0.0407  -0.0740   1.00    1.1
2023/06/27 13:06:17.000   31.027014575  121.432032201    16.2993   2  25   0.0781   0.0779   0.1923   0.0299  -0.0409  -0.0732   1.00    1.1
2023/06/27 13:06:18.000   31.027010444  121.432018467    16.2661   2  28   0.0779   0.0777   0.1917   0.0297  -0.0406  -0.0732   1.00    1.1
2023/06/27 13:06:20.000   31.027001894  121.431991345    16.2323   2  26   0.0777   0.0777   0.1913   0.0297  -0.0402  -0.0730   2.00    1.0
2023/06/27 13:06:21.000   31.026995564  121.431979325    16.2873   2  25   0.0775   0.0774   0.1906   0.0297  -0.0404  -0.0729   2.00    1.0
2023/06/27 13:06:22.000   31.026991317  121.431966379    16.2621   2  25   0.0773   0.0775   0.1910   0.0297  -0.0389  -0.0727   2.00    1.0
2023/06/27 13:06:23.000   31.026989889  121.431952819    16.2622   2  25   0.0771   0.0776   0.1910   0.0296  -0.0404  -0.0728   2.00    1.0
2023/06/27 13:06:24.000   31.026987024  121.431938995    16.2474   2  25   0.0771   0.0773   0.1899   0.0293  -0.0401  -0.0726   2.00    1.1
2023/06/27 13:06:26.000   31.026980407  121.431913931    16.5417   2  21   0.0772   0.0789   0.1988   0.0282  -0.0249  -0.0733   1.00    1.0
2023/06/27 13:06:27.000   31.026973552  121.431902533    17.0101   2  26   0.0768   0.0785   0.1996   0.0302  -0.0255  -0.0708   1.00    1.0
2023/06/27 13:06:28.000   31.026970381  121.431888494    16.8902   2  25   0.0772   0.0783   0.1973   0.0303  -0.0304  -0.0733   1.00    1.0
2023/06/27 13:06:29.000   31.026965766  121.431874422    16.6300   2  25   0.0774   0.0786   0.1958   0.0299  -0.0292  -0.0725   1.00    1.0
2023/06/27 13:06:30.000   31.026961488  121.431860373    16.4556   2  19   0.0795   0.0791   0.2043   0.0294  -0.0310  -0.0785   1.00    1.0
2023/06/27 13:06:32.000   31.026953779  121.431833097    16.3892   2  22   0.0784   0.0777   0.1965   0.0296  -0.0311  -0.0744   2.00    1.0
2023/06/27 13:06:33.000   31.026950560  121.431819752    16.3485   2  25   0.0780   0.0773   0.1948   0.0293  -0.0331  -0.0745   2.00    1.0
2023/06/27 13:06:34.000   31.026946994  121.431807146    16.3730   2  24   0.0777   0.0771   0.1934   0.0294  -0.0362  -0.0744   2.00    1.1
2023/06/27 13:06:35.000   31.026942749  121.431794753    16.3358   2  24   0.0777   0.0769   0.1918   0.0284  -0.0370  -0.0743   2.00    1.1
2023/06/27 13:06:36.000   31.026938424  121.431782086    16.3139   2  24   0.0774   0.0765   0.1909   0.0287  -0.0375  -0.0741   2.00    1.1
2023/06/27 13:06:37.000   31.026934699  121.431769320    16.3965   2  24   0.0770   0.0764   0.1905   0.0288  -0.0368  -0.0743   1.00    1.0
2023/06/27 13:06:38.000   31.026930460  121.431756536    16.4361   2  24   0.0767   0.0761   0.1898   0.0289  -0.0371  -0.0742   1.00    1.0
2023/06/27 13:06:40.000   31.026924358  121.431731708    16.4619   2  26   0.0763   0.0763   0.1903   0.0288  -0.0353  -0.0739   1.00    1.1
2023/06/27 13:06:41.000   31.026918490  121.431715602    18.2428   2  22   0.0765   0.0760   0.1913   0.0292  -0.0375  -0.0750   1.00    1.0
2023/06/27 13:06:42.000   31.026915117  121.431706053    16.2625   2  25   0.0760   0.0760   0.1916   0.0293  -0.0329  -0.0730   2.00    1.0
2023/06/27 13:06:43.000   31.026909174  121.431693632    16.3528   2  23   0.0763   0.0756   0.1901   0.0289  -0.0360  -0.0744   2.00    1.0
2023/06/27 13:06:44.000   31.026902700  121.431681880    16.1800   2  26   0.0757   0.0755   0.1894   0.0290  -0.0357  -0.0738   2.00    1.0
2023/06/27 13:06:45.000   31.026896192  121.431667324    17.3636   2  27   0.0757   0.0757   0.1896   0.0286  -0.0372  -0.0741   2.00    1.0
2023/06/27 13:06:46.000   31.026889513  121.431656802    16.7284   2  20   0.0760   0.0762   0.1952   0.0293  -0.0432  -0.0749   2.00    1.0
2023/06/27 13:06:47.000   31.026881397  121.431644809    17.0971   2  27   0.0751   0.0750   0.1862   0.0288  -0.0393  -0.0731   3.00    1.0
2023/06/27 13:06:48.000   31.026872343  121.431636272    16.6691   2  27   0.0749   0.0748   0.1859   0.0291  -0.0396  -0.0727   1.00    1.0
2023/06/27 13:06:49.000   31.026862927  121.431627668    16.6691   2  26   0.0748   0.0747   0.1861   0.0294  -0.0389  -0.0720   1.00    1.0
2023/06/27 13:06:50.000   31.026853018  121.431619438    17.0293   2  27   0.0744   0.0745   0.1854   0.0292  -0.0380  -0.0718   2.00    1.0
2023/06/27 13:06:51.000   31.026843183  121.431611778    17.0570   2  29   0.0742   0.0743   0.1847   0.0292  -0.0388  -0.0721   1.00    1.0
2023/06/27 13:06:53.000   31.026820516  121.431601811    17.0104   2  27   0.0741   0.0742   0.1844   0.0294  -0.0373  -0.0711   2.00    1.0
2023/06/27 13:06:56.000   31.026784988  121.431598605    17.5936   2  28   0.0737   0.0738   0.1825   0.0289  -0.0384  -0.0715   2.00    1.0
2023/06/27 13:06:57.000   31.026772681  121.431599495    17.3940   2  28   0.0734   0.0735   0.1816   0.0287  -0.0386  -0.0715   2.00    1.0
2023/06/27 13:06:58.000   31.026760341  121.431600993    17.2858   2  29   0.0732   0.0733   0.1810   0.0287  -0.0386  -0.0714   1.00    1.0
2023/06/27 13:06:59.000   31.026746811  121.431599930    16.6151   2  30   0.0730   0.0730   0.1800   0.0285  -0.0393  -0.0715   1.00    1.0
2023/06/27 13:07:00.000   31.026736223  121.431603341    17.3454   2  22   0.0736   0.0733   0.1834   0.0286  -0.0392  -0.0732   1.00    1.0
2023/06/27 13:07:02.000   31.026712984  121.431609250    15.7228   2  30   0.0729   0.0728   0.1799   0.0288  -0.0394  -0.0718   1.00    1.0
2023/06/27 13:07:03.000   31.026704148  121.431612751    16.0223   2  30   0.0727   0.0725   0.1790   0.0287  -0.0400  -0.0719   1.00    1.0
2023/06/27 13:07:04.000   31.026694883  121.431615525    16.1806   2  30   0.0724   0.0723   0.1782   0.0284  -0.0400  -0.0716   2.00    1.0
2023/06/27 13:07:05.000   31.026684892  121.431620272    16.7226   2  30   0.0722   0.0721   0.1777   0.0284  -0.0397  -0.0713   2.00    1.0
2023/06/27 13:07:06.000   31.026674490  121.431623750    16.7334   2  30   0.0720   0.0719   0.1769   0.0282  -0.0401  -0.0713   2.00    1.0
2023/06/27 13:07:07.000   31.026663650  121.431625506    16.6741   2  22   0.0726   0.0722   0.1810   0.0284  -0.0409  -0.0732   2.00    1.1
2023/06/27 13:07:08.000   31.026653338  121.431623889    16.7339   2  31   0.0717   0.0716   0.1763   0.0281  -0.0408  -0.0713   2.00    1.0
2023/06/27 13:07:09.000   31.026643998  121.431622728    16.8489   2  30   0.0715   0.0713   0.1757   0.0281  -0.0411  -0.0712   1.00    1.0
2023/06/27 13:07:10.000   31.026634937  121.431624357    16.9128   2  30   0.0713   0.0711   0.1751   0.0280  -0.0413  -0.0712   1.00    1.1
2023/06/27 13:07:11.000   31.026627147  121.431627898    16.9223   2  31   0.0711   0.0710   0.1746   0.0280  -0.0411  -0.0710   1.00    1.0
2023/06/27 13:07:13.000   31.026607231  121.431636174    16.8905   2  30   0.0710   0.0708   0.1743   0.0280  -0.0413  -0.0709   1.00    1.2
2023/06/27 13:07:14.000   31.026595521  121.431639770    16.8475   2  30   0.0708   0.0707   0.1740   0.0280  -0.0412  -0.0708   2.00    1.0
2023/06/27 13:07:15.000   31.026583496  121.431643349    16.8638   2  30   0.0706   0.0704   0.1734   0.0279  -0.0415  -0.0708   2.00    1.1
2023/06/27 13:07:16.000   31.026571969  121.431646765    16.8386   2  30   0.0705   0.0703   0.1729   0.0279  -0.0417  -0.0707   2.00    1.1
2023/06/27 13:07:17.000   31.026560269  121.431647763    17.5362   2  31   0.0703   0.0701   0.1723   0.0279  -0.0416  -0.0707   2.00    1.1
2023/06/27 13:07:18.000   31.026548142  121.431651809    16.7745   2  30   0.0702   0.0700   0.1723   0.0280  -0.0415  -0.0703   2.00    1.0
2023/06/27 13:07:19.000   31.026535762  121.431653112    16.6959   2  30   0.0700   0.0698   0.1718   0.0279  -0.0417  -0.0703   1.00    1.0
2023/06/27 13:07:20.000   31.026525305  121.431658125    16.4833   2  29   0.0699   0.0697   0.1714   0.0279  -0.0412  -0.0701   2.00    1.1
2023/06/27 13:07:21.000   31.026523096  121.431662809    15.6222   2  27   0.0700   0.0702   0.1737   0.0279  -0.0375  -0.0703   1.00    1.0
2023/06/27 13:07:22.000   31.026522964  121.431663479    15.2484   2  25   0.0703   0.0702   0.1757   0.0282  -0.0370  -0.0713   2.00    1.0
2023/06/27 13:07:23.000   31.026522748  121.431662206    15.3756   2  22   0.0707   0.0706   0.1788   0.0282  -0.0355  -0.0720   1.00    1.0
2023/06/27 13:07:24.000   31.026522132  121.431657751    15.5849   2  26   0.0701   0.0704   0.1763   0.0288  -0.0341  -0.0698   1.00    1.1
2023/06/27 13:07:25.000   31.026522087  121.431657336    15.5958   2  27   0.0699   0.0702   0.1752   0.0291  -0.0348  -0.0690   2.00    1.0
2023/06/27 13:07:26.000   31.026521968  121.431657289    15.5984   2  27   0.0696   0.0699   0.1739   0.0288  -0.0356  -0.0690   2.00    1.0
2023/06/27 13:07:27.000   31.026521838  121.431657298    15.6700   2  27   0.0694   0.0695   0.1726   0.0286  -0.0369  -0.0691   2.00    1.0
