%  GPST                  latitude(deg) longitude(deg)  height(m)   Q  ns   sdn(m)   sde(m)   sdu(m)  sdne(m)  sdeu(m)  sdun(m) age(s)  ratio
2023/06/27 12:35:08.000   31.025803825  121.440384219    23.1773   5  11   4.0047   2.9103   5.3864  -2.0883  -1.9983   2.9854   0.00    0.0
2023/06/27 12:35:09.000   31.025787955  121.440395040    24.2901   5  21   2.9771   1.8723   4.2863  -1.0865  -1.1442   1.1229   0.00    0.0
2023/06/27 12:35:10.000   31.025795996  121.440387243    23.1261   5  26   2.4556   1.7409   3.8363  -0.9332  -1.1742   1.2502   0.00    0.0
2023/06/27 12:35:11.000   31.025800200  121.440380013    23.5466   5  28   2.2938   1.5956   4.0257  -0.1942  -1.2895  -0.8330   0.00    0.0
2023/06/27 12:35:12.000   31.025811479  121.440375961    23.4914   5  29   2.1731   1.5135   3.5779  -0.6391  -0.8544   0.8123   0.00    0.0
2023/06/27 12:35:13.000   31.025821661  121.440370470    23.7487   5  29   2.1730   1.5135   3.5778  -0.6390  -0.8541   0.8120   0.00    0.0
2023/06/27 12:35:14.000   31.025831737  121.440366692    23.1406   5  29   2.1729   1.5135   3.5777  -0.6389  -0.8539   0.8116   0.00    0.0
2023/06/27 12:35:15.000   31.025839452  121.440360554    24.3213   5  28   2.2934   1.5954   4.0252  -0.1942  -1.2883  -0.8338   0.00    0.0
2023/06/27 12:35:16.000   31.025851089  121.440358272    23.6095   5  28   2.2933   1.5953   4.0250  -0.1942  -1.2880  -0.8341   0.00    0.0
2023/06/27 12:35:17.000   31.025863160  121.440353768    23.1053   5  29   2.1727   1.5134   3.5774  -0.6386  -0.8530   0.8106   0.00    0.0
2023/06/27 12:35:18.000   31.025878639  121.440342484    23.7013   5  13   2.9779   2.3024   5.5426   0.4584  -1.8272  -1.5165   0.00    0.0
2023/06/27 12:35:19.000   31.025883245  121.440343145    23.6343   5  29   2.1725   1.5134   3.5771  -0.6384  -0.8525   0.8098   0.00    0.0
2023/06/27 12:35:20.000   31.025893932  121.440339983    23.4453   5  29   2.1724   1.5133   3.5770  -0.6383  -0.8522   0.8095   0.00    0.0
2023/06/27 12:35:21.000   31.025902207  121.440334349    23.5112   5  28   2.2928   1.5951   4.0243  -0.1941  -1.2866  -0.8352   0.00    0.0
2023/06/27 12:35:22.000   31.025914894  121.440328368    24.0175   5  28   2.2927   1.5950   4.0242  -0.1940  -1.2863  -0.8354   0.00    0.0
2023/06/27 12:35:23.000   31.025925586  121.440327028    24.5492   5  28   2.2926   1.5949   4.0240  -0.1940  -1.2860  -0.8356   0.00    0.0
2023/06/27 12:35:24.000   31.025934003  121.440320861    24.1521   5  28   2.2925   1.5949   4.0239  -0.1940  -1.2857  -0.8358   0.00    0.0
2023/06/27 12:35:25.000   31.025943907  121.440317178    23.7546   5  28   2.2924   1.5948   4.0238  -0.1940  -1.2854  -0.8360   0.00    0.0
2023/06/27 12:35:26.000   31.025954329  121.440313414    23.5740   5  28   2.2923   1.5948   4.0236  -0.1940  -1.2851  -0.8362   0.00    0.0
2023/06/27 12:35:27.000   31.025967420  121.440307362    23.8630   5  28   2.2922   1.5947   4.0235  -0.1940  -1.2848  -0.8365   0.00    0.0
2023/06/27 12:35:28.000   31.025979608  121.440302840    23.5061   5  29   2.1144   1.5437   4.0107   0.5623  -1.2340  -0.9909   0.00    0.0
2023/06/27 12:35:29.000   31.025992335  121.440299839    23.1434   5  29   2.1144   1.5437   4.0106   0.5622  -1.2337  -0.9909   0.00    0.0
2023/06/27 12:35:30.000   31.026002196  121.440294072    23.0403   5  29   2.1143   1.5436   4.0105   0.5621  -1.2335  -0.9908   0.00    0.0
2023/06/27 12:35:31.000   31.026014779  121.440288465    23.4802   5  29   1.9997   1.5601   4.3534   0.5368  -1.0571  -0.9015   0.00    0.0
2023/06/27 12:35:32.000   31.026026357  121.440282024    23.8123   5  29   1.9997   1.5601   4.3533   0.5367  -1.0568  -0.9013   0.00    0.0
2023/06/27 12:35:33.000   31.026037106  121.440279062    23.5113   5  30   1.9816   1.5599   4.2665   0.5309  -1.0470  -0.7618   0.00    0.0
2023/06/27 12:35:34.000   31.026049111  121.440274480    23.2672   5  30   1.9816   1.5598   4.2665   0.5308  -1.0467  -0.7615   0.00    0.0
2023/06/27 12:35:35.000   31.026061426  121.440269293    23.4202   5  30   1.9815   1.5598   4.2664   0.5307  -1.0464  -0.7613   0.00    0.0
2023/06/27 12:35:36.000   31.026073690  121.440264567    23.4170   5  30   1.9815   1.5597   4.2664   0.5306  -1.0461  -0.7610   0.00    0.0
2023/06/27 12:35:37.000   31.026082661  121.440260605    23.5412   5  30   1.9814   1.5597   4.2663   0.5305  -1.0458  -0.7608   0.00    0.0
2023/06/27 12:35:38.000   31.026093853  121.440256890    23.7427   5  30   1.9814   1.5597   4.2663   0.5304  -1.0455  -0.7605   0.00    0.0
2023/06/27 12:35:39.000   31.026104069  121.440250391    23.4455   5  30   1.9813   1.5596   4.2662   0.5303  -1.0451  -0.7603   0.00    0.0
2023/06/27 12:35:40.000   31.026115231  121.440241426    23.9113   5  31   1.8831   1.5319   4.1127   0.3175  -1.1931  -1.1295   0.00    0.0
2023/06/27 12:35:41.000   31.026123158  121.440231478    24.0843   5  30   1.8837   1.7428   4.5251   0.3751  -1.7297  -1.1689   0.00    0.0
2023/06/27 12:35:42.000   31.026131443  121.440222495    24.2794   5  31   1.8830   1.5318   4.1126   0.3170  -1.1927  -1.1291   0.00    0.0
2023/06/27 12:35:43.000   31.026143068  121.440217718    24.3271   5  31   1.8475   1.6070   4.4390   0.6225  -1.5487  -1.2990   0.00    0.0
2023/06/27 12:35:44.000   31.026151735  121.440211026    24.0751   5  30   1.9185   1.6298   4.6323   0.7268  -1.4272  -1.0009   0.00    0.0
2023/06/27 12:35:45.000   31.026163845  121.440208508    24.1457   5  33   1.8391   1.4585   3.8161   0.5214  -1.2544  -1.1845   0.00    0.0
2023/06/27 12:35:46.000   31.026173893  121.440201970    23.2948   5  33   1.7561   1.4706   3.8726   0.4921  -1.1960  -1.1450   0.00    0.0
2023/06/27 12:35:47.000   31.026187101  121.440199797    23.5013   5  35   1.6892   1.4129   3.8054   0.5094  -1.2488  -1.2669   0.00    0.0
2023/06/27 12:35:49.000   31.026210377  121.440182988    21.4253   5  20   2.2453   1.9315   5.2051   0.9427  -1.7856  -1.6264   0.00    0.0
2023/06/27 12:35:50.000   31.026217572  121.440181368    22.8950   5  35   1.7014   1.4022   3.8528   0.6574  -1.1245  -1.2097   0.00    0.0
2023/06/27 12:35:51.000   31.026229486  121.440176989    22.7678   5  37   1.6579   1.3579   3.7751   0.5481  -1.2352  -1.3253   0.00    0.0
2023/06/27 12:35:52.000   31.026238808  121.440172683    22.8669   5  38   1.6224   1.3559   3.7627   0.5251  -1.2262  -1.2854   0.00    0.0
2023/06/27 12:35:53.000   31.026251984  121.440168608    23.0074   5  38   1.6223   1.3559   3.7626   0.5250  -1.2261  -1.2853   0.00    0.0
2023/06/27 12:35:54.000   31.026260515  121.440159467    23.5512   5  38   1.6223   1.3559   3.7625   0.5249  -1.2259  -1.2852   0.00    0.0
2023/06/27 12:35:55.000   31.026272356  121.440155703    23.2259   5  40   1.5026   1.2815   3.2623   0.2026  -0.8865  -0.7109   0.00    0.0
2023/06/27 12:35:56.000   31.026283073  121.440148703    23.1561   5  40   1.5026   1.2815   3.2623   0.2025  -0.8865  -0.7109   0.00    0.0
2023/06/27 12:35:57.000   31.026295187  121.440145985    23.1042   5  40   1.5026   1.2815   3.2623   0.2025  -0.8864  -0.7108   0.00    0.0
2023/06/27 12:35:58.000   31.026307066  121.440141061    23.0738   5  40   1.5027   1.2815   3.2622   0.2024  -0.8863  -0.7108   0.00    0.0
2023/06/27 12:35:59.000   31.026318969  121.440137393    22.8600   5  40   1.5027   1.2815   3.2622   0.2023  -0.8863  -0.7108   0.00    0.0
2023/06/27 12:36:00.000   31.026329987  121.440135349    23.0540   5  40   1.5027   1.2814   3.2622   0.2022  -0.8862  -0.7108   0.00    0.0
2023/06/27 12:36:01.000   31.026341393  121.440131876    22.4900   5  40   1.5027   1.2814   3.2622   0.2022  -0.8861  -0.7108   0.00    0.0
2023/06/27 12:36:02.000   31.026353946  121.440127214    23.0547   5  40   1.5027   1.2814   3.2621   0.2021  -0.8861  -0.7107   0.00    0.0
2023/06/27 12:36:03.000   31.026367181  121.440123001    22.7827   5  40   1.5027   1.2814   3.2621   0.2020  -0.8860  -0.7107   0.00    0.0
2023/06/27 12:36:04.000   31.026378934  121.440121559    22.6959   5  40   1.5027   1.2814   3.2621   0.2019  -0.8860  -0.7107   0.00    0.0
2023/06/27 12:36:05.000   31.026388771  121.440119737    23.1363   5  40   1.5027   1.2814   3.2621   0.2018  -0.8859  -0.7107   0.00    0.0
2023/06/27 12:36:06.000   31.026400895  121.440119250    23.1462   5  40   1.5027   1.2813   3.2620   0.2018  -0.8858  -0.7106   0.00    0.0
2023/06/27 12:36:07.000   31.026412791  121.440117683    22.9453   5  40   1.5027   1.2813   3.2620   0.2017  -0.8858  -0.7106   0.00    0.0
2023/06/27 12:36:09.000   31.026438412  121.440110465    22.7535   5  40   1.5027   1.2813   3.2619   0.2015  -0.8856  -0.7106   0.00    0.0
2023/06/27 12:36:10.000   31.026450994  121.440107440    22.6460   5  40   1.5027   1.2813   3.2619   0.2015  -0.8856  -0.7105   0.00    0.0
2023/06/27 12:36:11.000   31.026462267  121.440105657    22.9997   5  40   1.5027   1.2813   3.2619   0.2014  -0.8855  -0.7105   0.00    0.0
2023/06/27 12:36:12.000   31.026470875  121.440100741    22.9961   5  32   1.7395   1.5478   3.8789   0.2983  -1.1179   0.1499   0.00    0.0
2023/06/27 12:36:13.000   31.026485128  121.440098107    22.5595   5  40   1.5027   1.2812   3.2618   0.2012  -0.8854  -0.7105   0.00    0.0
2023/06/27 12:36:14.000   31.026497289  121.440093821    22.5446   5  40   1.5027   1.2812   3.2618   0.2011  -0.8853  -0.7104   0.00    0.0
2023/06/27 12:36:15.000   31.026508515  121.440087741    21.6957   5  19   2.2088   1.8184   4.2999  -0.1294  -0.6379   0.8627   0.00    0.0
2023/06/27 12:36:16.000   31.026518319  121.440086385    23.0893   5  32   1.7395   1.5477   3.8790   0.2983  -1.1179   0.1489   0.00    0.0
2023/06/27 12:36:17.000   31.026529788  121.440081270    23.3695   5  39   1.6078   1.3528   3.7027   0.5373  -1.2429  -1.2273   0.00    0.0
2023/06/27 12:36:18.000   31.026544385  121.440078301    22.6671   5  40   1.5027   1.2811   3.2617   0.2008  -0.8850  -0.7104   0.00    0.0
2023/06/27 12:36:19.000   31.026556225  121.440074234    22.6273   5  40   1.5027   1.2811   3.2617   0.2008  -0.8850  -0.7103   0.00    0.0
2023/06/27 12:36:20.000   31.026569477  121.440072335    22.2327   5  40   1.5027   1.2811   3.2616   0.2007  -0.8849  -0.7103   0.00    0.0
2023/06/27 12:36:21.000   31.026579328  121.440065603    22.5092   5  40   1.5027   1.2811   3.2616   0.2006  -0.8848  -0.7103   0.00    0.0
2023/06/27 12:36:23.000   31.026596850  121.440059654    23.1840   5  38   1.6277   1.4790   3.9781   0.6637  -1.5536  -1.3696   0.00    0.0
2023/06/27 12:36:24.000   31.026610421  121.440052978    22.8595   5  40   1.5027   1.2810   3.2615   0.2004  -0.8846  -0.7102   0.00    0.0
2023/06/27 12:36:25.000   31.026623030  121.440047464    22.3791   5  38   1.5668   1.3325   3.4358  -0.3036  -0.7735  -0.6626   0.00    0.0
2023/06/27 12:36:27.000   31.026644995  121.440041108    21.6213   5  19   2.2085   1.8186   4.3005  -0.1216  -0.6351   0.8606   0.00    0.0
2023/06/27 12:36:28.000   31.026652998  121.440033328    23.6844   5  38   1.6275   1.4787   3.9779   0.6630  -1.5530  -1.3690   0.00    0.0
2023/06/27 12:36:29.000   31.026661670  121.440026829    24.8884   5  31   1.8866   1.7024   4.6375   0.7790  -1.7471  -1.3543   0.00    0.0
2023/06/27 12:36:30.000   31.026677258  121.440022350    23.2005   5  17   2.4954   2.5525   6.0214   1.2113  -2.7614  -1.8961   0.00    0.0
2023/06/27 12:36:31.000   31.026686934  121.440019417    24.3318   5  38   1.6274   1.4785   3.9777   0.6626  -1.5527  -1.3686   0.00    0.0
2023/06/27 12:36:32.000   31.026698828  121.440013190    24.1518   5  38   1.6273   1.4784   3.9776   0.6625  -1.5526  -1.3685   0.00    0.0
2023/06/27 12:36:33.000   31.026710631  121.440009823    24.0836   5  38   1.6273   1.4784   3.9776   0.6623  -1.5524  -1.3683   0.00    0.0
2023/06/27 12:36:34.000   31.026724203  121.440006363    23.1432   5  39   1.5064   1.3647   3.4034   0.2977  -1.1134  -0.7778   0.00    0.0
2023/06/27 12:36:35.000   31.026736522  121.440000786    22.9119   5  40   1.5028   1.2809   3.2612   0.1995  -0.8839  -0.7100   0.00    0.0
2023/06/27 12:36:36.000   31.026744861  121.439995656    23.5213   5  39   1.6073   1.3520   3.7013   0.5353  -1.2405  -1.2256   0.00    0.0
2023/06/27 12:36:38.000   31.026768269  121.439986267    22.7907   5  39   1.5667   1.3137   3.2657  -0.2993  -0.9119  -0.6537   0.00    0.0
2023/06/27 12:36:39.000   31.026778458  121.439979378    22.9847   5  39   1.6072   1.3519   3.7011   0.5350  -1.2402  -1.2253   0.00    0.0
2023/06/27 12:36:41.000   31.026797526  121.439973720    22.7703   5  38   1.6695   1.3815   3.7037   0.3965  -1.2564  -1.1982   0.00    0.0
2023/06/27 12:36:42.000   31.026809190  121.439963652    23.7007   5  38   1.6270   1.4778   3.9770   0.6611  -1.5514  -1.3672   0.00    0.0
2023/06/27 12:36:43.000   31.026821286  121.439961351    22.7466   5  40   1.5028   1.2807   3.2610   0.1989  -0.8834  -0.7098   0.00    0.0
2023/06/27 12:36:44.000   31.026829687  121.439955250    23.3387   5  39   1.6071   1.3517   3.7007   0.5345  -1.2395  -1.2248   0.00    0.0
2023/06/27 12:36:45.000   31.026841967  121.439945365    24.0808   5  38   1.6268   1.4777   3.9768   0.6607  -1.5510  -1.3668   0.00    0.0
2023/06/27 12:36:46.000   31.026850960  121.439940813    23.9644   5  37   1.6838   1.5138   3.9846   0.5415  -1.5772  -1.3264   0.00    0.0
2023/06/27 12:36:47.000   31.026862138  121.439933293    23.3262   5  40   1.5028   1.2807   3.2609   0.1986  -0.8831  -0.7097   0.00    0.0
2023/06/27 12:36:48.000   31.026872630  121.439924022    23.3611   5  39   1.6070   1.3515   3.7004   0.5341  -1.2390  -1.2245   0.00    0.0
2023/06/27 12:36:49.000   31.026883446  121.439921567    22.9248   5  40   1.5028   1.2806   3.2608   0.1984  -0.8830  -0.7097   0.00    0.0
2023/06/27 12:36:50.000   31.026893073  121.439910980    24.5072   5  31   1.8860   1.7015   4.6377   0.7773  -1.7456  -1.3532   0.00    0.0
2023/06/27 12:36:51.000   31.026907062  121.439913164    23.0327   5  40   1.5029   1.2806   3.2608   0.1983  -0.8828  -0.7097   0.00    0.0
2023/06/27 12:36:52.000   31.026918155  121.439908682    23.1623   5  39   1.6069   1.3514   3.7001   0.5336  -1.2385  -1.2241   0.00    0.0
2023/06/27 12:36:53.000   31.026929805  121.439904365    22.6909   5  40   1.5029   1.2806   3.2607   0.1981  -0.8827  -0.7096   0.00    0.0
2023/06/27 12:36:54.000   31.026941055  121.439901095    23.4940   5  40   1.5029   1.2806   3.2607   0.1981  -0.8826  -0.7096   0.00    0.0
2023/06/27 12:36:55.000   31.026950842  121.439894705    23.5191   5  32   1.7397   1.5474   3.8799   0.2984  -1.1180   0.1374   0.00    0.0
2023/06/27 12:36:56.000   31.026962234  121.439890683    23.4122   5  39   1.6068   1.3512   3.6998   0.5332  -1.2380  -1.2237   0.00    0.0
2023/06/27 12:36:57.000   31.026977877  121.439881289    22.0955   5  18   2.4639   1.9815   5.1761   0.9219  -1.6300  -1.5545   0.00    0.0
2023/06/27 12:36:58.000   31.026987531  121.439879875    21.9280   5  40   1.5029   1.2805   3.2605   0.1978  -0.8824  -0.7095   0.00    0.0
2023/06/27 12:36:59.000   31.026998236  121.439874582    23.6774   5  37   1.6295   1.4813   4.2282   0.6498  -1.4950  -1.4179   0.00    0.0
2023/06/27 12:37:00.000   31.027011363  121.439871601    23.2269   5  38   1.5666   1.3318   3.4347  -0.3042  -0.7685  -0.6653   0.00    0.0
2023/06/27 12:37:01.000   31.027023007  121.439865561    23.2266   5  37   1.6719   1.3898   3.9373   0.3736  -1.1642  -1.2517   0.00    0.0
2023/06/27 12:37:02.000   31.027033976  121.439862049    22.8109   5  38   1.5064   1.3792   3.5749   0.2936  -1.0073  -0.7792   0.00    0.0
2023/06/27 12:37:03.000   31.027042942  121.439855835    23.0233   5  37   1.6718   1.3897   3.9372   0.3733  -1.1639  -1.2516   0.00    0.0
2023/06/27 12:37:04.000   31.027056806  121.439848234    23.5130   5  39   1.6066   1.3508   3.6991   0.5324  -1.2370  -1.2230   0.00    0.0
2023/06/27 12:37:05.000   31.027069238  121.439845788    23.3156   5  40   1.5029   1.2804   3.2603   0.1972  -0.8819  -0.7094   0.00    0.0
2023/06/27 12:37:06.000   31.027075748  121.439839037    24.4421   5  39   1.6066   1.3508   3.6990   0.5322  -1.2367  -1.2228   0.00    0.0
2023/06/27 12:37:07.000   31.027089507  121.439838712    23.4468   5  39   1.5064   1.3640   3.4034   0.2944  -1.1121  -0.7763   0.00    0.0
2023/06/27 12:37:11.000   31.027135964  121.439816195    22.3800   5  24   1.8815   1.6361   4.1642   0.3783  -0.8890  -0.3623   0.00    0.0
2023/06/27 12:37:12.000   31.027146514  121.439814301    23.2907   5  40   1.5030   1.2803   3.2601   0.1967  -0.8814  -0.7093   0.00    0.0
2023/06/27 12:37:13.000   31.027156551  121.439808185    23.3467   5  39   1.6064   1.3505   3.6984   0.5314  -1.2358  -1.2221   0.00    0.0
2023/06/27 12:37:14.000   31.027169393  121.439806417    22.6502   5  40   1.5030   1.2803   3.2601   0.1965  -0.8813  -0.7093   0.00    0.0
2023/06/27 12:37:15.000   31.027181173  121.439803168    22.3487   5  40   1.5030   1.2802   3.2600   0.1965  -0.8812  -0.7092   0.00    0.0
2023/06/27 12:37:16.000   31.027192303  121.439797984    22.7619   5  40   1.5030   1.2802   3.2600   0.1964  -0.8811  -0.7092   0.00    0.0
2023/06/27 12:37:17.000   31.027200516  121.439789537    23.0842   5  39   1.6063   1.3503   3.6981   0.5310  -1.2353  -1.2217   0.00    0.0
2023/06/27 12:37:19.000   31.027224590  121.439779752    22.9733   5  40   1.5030   1.2802   3.2599   0.1962  -0.8809  -0.7092   0.00    0.0
2023/06/27 12:37:20.000   31.027236525  121.439777475    22.7293   5  40   1.5030   1.2802   3.2599   0.1961  -0.8809  -0.7091   0.00    0.0
2023/06/27 12:37:22.000   31.027258523  121.439768600    22.9611   5  40   1.5030   1.2801   3.2598   0.1959  -0.8807  -0.7091   0.00    0.0
2023/06/27 12:37:24.000   31.027280718  121.439760816    23.1575   5  39   1.6062   1.3500   3.6975   0.5302  -1.2344  -1.2211   0.00    0.0
2023/06/27 12:37:25.000   31.027292253  121.439757172    22.7435   5  39   1.5064   1.3636   3.4034   0.2927  -1.1114  -0.7755   0.00    0.0
2023/06/27 12:37:26.000   31.027301481  121.439748229    21.7482   5  24   1.8816   1.6361   4.1651   0.3789  -0.8894  -0.3671   0.00    0.0
2023/06/27 12:37:27.000   31.027310390  121.439743194    22.8466   5  39   1.5664   1.3126   3.2636  -0.2999  -0.9066  -0.6571   0.00    0.0
2023/06/27 12:37:28.000   31.027320577  121.439741176    23.0191   5  40   1.5030   1.2800   3.2596   0.1955  -0.8803  -0.7090   0.00    0.0
2023/06/27 12:37:30.000   31.027343937  121.439730311    22.7419   5  40   1.5030   1.2800   3.2596   0.1953  -0.8802  -0.7090   0.00    0.0
2023/06/27 12:37:31.000   31.027356414  121.439724007    23.0193   5  38   1.5678   1.4020   3.4114  -0.2377  -1.1448  -0.7069   0.00    0.0
2023/06/27 12:37:32.000   31.027364842  121.439717626    23.5892   5  38   1.6251   1.4749   3.9738   0.6542  -1.5453  -1.3607   0.00    0.0
2023/06/27 12:37:33.000   31.027375405  121.439714601    23.4016   5  39   1.6059   1.3496   3.6968   0.5293  -1.2332  -1.2202   0.00    0.0
2023/06/27 12:37:34.000   31.027387477  121.439710931    23.6120   5  39   1.6059   1.3496   3.6967   0.5292  -1.2331  -1.2202   0.00    0.0
2023/06/27 12:37:35.000   31.027402151  121.439709975    22.6636   5  40   1.5031   1.2799   3.2594   0.1950  -0.8799  -0.7089   0.00    0.0
2023/06/27 12:37:36.000   31.027413492  121.439705239    22.7701   5  40   1.5031   1.2799   3.2594   0.1949  -0.8798  -0.7089   0.00    0.0
2023/06/27 12:37:37.000   31.027426550  121.439702095    22.5376   5  40   1.5031   1.2799   3.2594   0.1948  -0.8797  -0.7089   0.00    0.0
2023/06/27 12:37:38.000   31.027437777  121.439698375    22.1838   5  40   1.5031   1.2799   3.2593   0.1947  -0.8796  -0.7089   0.00    0.0
2023/06/27 12:37:39.000   31.027447964  121.439689367    22.9918   5  39   1.5020   1.3008   3.4177   0.1778  -0.7294  -0.6957   0.00    0.0
2023/06/27 12:37:41.000   31.027467081  121.439681795    23.0429   5  41   1.4998   1.2186   3.1407  -0.0357  -0.6578  -0.6445   0.00    0.0
2023/06/27 12:37:42.000   31.027478465  121.439675114    22.9743   5  41   1.4998   1.2186   3.1406  -0.0358  -0.6577  -0.6445   0.00    0.0
2023/06/27 12:37:43.000   31.027487042  121.439665443    22.3416   5  18   2.4607   1.9798   5.1796   0.9204  -1.6216  -1.5553   0.00    0.0
2023/06/27 12:37:44.000   31.027499275  121.439662440    21.1621   5  18   2.4607   1.9797   5.1796   0.9204  -1.6214  -1.5553   0.00    0.0
2023/06/27 12:37:45.000   31.027509609  121.439660473    23.9428   5  38   1.6049   1.3601   3.9098   0.5060  -1.1340  -1.2479   0.00    0.0
2023/06/27 12:37:46.000   31.027521038  121.439658111    22.9266   5  41   1.5886   1.2077   3.4065   0.4551  -0.8129  -1.1329   0.00    0.0
2023/06/27 12:37:47.000   31.027534591  121.439655627    22.8083   5  42   1.4912   1.1737   3.0933   0.2262  -0.5043  -0.7087   0.00    0.0
2023/06/27 12:37:48.000   31.027544111  121.439645592    23.3570   5  40   1.6017   1.2784   3.5615   0.5412  -1.0470  -1.2231   0.00    0.0
2023/06/27 12:37:49.000   31.027555326  121.439644185    23.1231   5  34   1.7214   1.3712   3.6038   0.3756  -0.4719  -0.2391   0.00    0.0
2023/06/27 12:37:50.000   31.027565942  121.439639346    23.0638   5  34   1.7215   1.3712   3.6038   0.3756  -0.4719  -0.2394   0.00    0.0
2023/06/27 12:37:51.000   31.027577810  121.439637109    22.7016   5  42   1.4913   1.1736   3.0932   0.2260  -0.5040  -0.7087   0.00    0.0
2023/06/27 12:37:52.000   31.027589796  121.439630604    22.6336   5  42   1.4913   1.1736   3.0931   0.2260  -0.5039  -0.7087   0.00    0.0
2023/06/27 12:37:53.000   31.027598915  121.439628063    22.6083   5  42   1.4913   1.1736   3.0931   0.2260  -0.5038  -0.7087   0.00    0.0
2023/06/27 12:37:54.000   31.027606146  121.439625722    23.1533   5  42   1.4913   1.1736   3.0931   0.2260  -0.5037  -0.7087   0.00    0.0
2023/06/27 12:37:55.000   31.027612435  121.439622008    23.0577   5  42   1.4913   1.1736   3.0930   0.2259  -0.5036  -0.7087   0.00    0.0
2023/06/27 12:37:56.000   31.027624052  121.439612972    22.5776   5  42   1.4913   1.1736   3.0930   0.2259  -0.5035  -0.7087   0.00    0.0
2023/06/27 12:37:57.000   31.027635763  121.439609798    22.9158   5  42   1.4913   1.1736   3.0930   0.2259  -0.5034  -0.7087   0.00    0.0
2023/06/27 12:37:58.000   31.027643710  121.439605030    23.0529   5  41   1.4946   1.2273   3.1847   0.2946  -0.7252  -0.7601   0.00    0.0
2023/06/27 12:37:59.000   31.027655545  121.439601023    22.9252   5  41   1.4946   1.2273   3.1847   0.2945  -0.7252  -0.7601   0.00    0.0
2023/06/27 12:38:00.000   31.027662315  121.439596876    22.7091   5  41   1.4913   1.2330   3.1526   0.2221  -0.6958  -0.7068   0.00    0.0
2023/06/27 12:38:01.000   31.027666975  121.439593448    23.8347   5  39   1.6858   1.2843   3.5818   0.5988  -1.0220  -1.1359   0.00    0.0
2023/06/27 12:38:02.000   31.027665335  121.439595437    22.9071   5  40   1.5728   1.2419   3.1761   0.3516  -0.6532  -0.5539   0.00    0.0
2023/06/27 12:38:03.000   31.027665090  121.439593204    24.1876   5  35   1.9086   1.4082   3.6361   0.9037  -0.8347  -0.9323   0.00    0.0
2023/06/27 12:38:05.000   31.027670909  121.439591669    24.9473   5  34   1.9110   1.4817   3.7663   0.8781  -1.0718  -0.8783   0.00    0.0
