$GPGGA,064612.00,3820.9269702,N,09258.3614490,E,1,16,1.2,2775.4233,M,-58.453,M,,0004*4B
$GPGGA,064613.00,3820.9271111,N,09258.3613743,E,1,16,1.2,2774.8376,M,-58.453,M,,0004*40
$GPGGA,064614.00,3820.9270347,N,09258.3614127,E,1,17,1.1,2774.9619,M,-58.453,M,,0004*4B
$GPGGA,064615.00,3820.9266979,N,09258.3618586,E,1,17,1.1,2775.1613,M,-58.453,M,,0004*4A
$GPGGA,064616.00,3820.9263173,N,09258.3625122,E,1,17,1.1,2775.5025,M,-58.453,M,,0004*4D
$GPGGA,064617.00,3820.9257876,N,09258.3630253,E,1,17,1.1,2775.5901,M,-58.453,M,,0004*49
$GPGGA,064618.00,3820.9254401,N,09258.3634971,E,1,18,1.1,2774.8980,M,-58.453,M,,0004*4C
$GPGGA,064619.00,3820.9248384,N,09258.3647631,E,1,19,0.8,2776.5465,M,-58.453,M,,0004*45
$GPGGA,064620.00,3820.9257656,N,09258.3629594,E,5,12,0.6,2783.8067,M,-58.453,M,01,0004*4E
$GPGGA,064621.00,3820.9253598,N,09258.3634224,E,5,12,0.6,2783.8185,M,-58.453,M,01,0004*47
$GPGGA,064622.00,3820.9248937,N,09258.3640918,E,4,12,0.6,2786.2000,M,-58.453,M,01,0004*42
$GPGGA,064623.00,3820.9245214,N,09258.3645706,E,4,12,0.6,2786.1929,M,-58.453,M,01,0004*41
$GPGGA,064624.00,3820.9241424,N,09258.3649798,E,4,12,0.7,2786.2014,M,-58.453,M,01,0004*49
$GPGGA,064625.00,3820.9237917,N,09258.3653275,E,4,12,0.7,2786.2306,M,-58.453,M,01,0004*49
$GPGGA,064626.00,3820.9234501,N,09258.3657059,E,4,12,0.7,2786.2001,M,-58.454,M,01,0004*49
$GPGGA,064627.00,3820.9230467,N,09258.3660752,E,4,12,0.7,2786.1852,M,-58.454,M,01,0004*48
$GPGGA,064628.00,3820.9226664,N,09258.3665414,E,4,12,0.7,2786.2154,M,-58.454,M,01,0004*49
$GPGGA,064629.00,3820.9223369,N,09258.3669737,E,4,12,0.7,2786.1639,M,-58.454,M,01,0004*44
$GPGGA,064630.00,3820.9220448,N,09258.3673746,E,4,12,0.7,2786.1900,M,-58.454,M,01,0004*43
$GPGGA,064631.00,3820.9217019,N,09258.3675958,E,4,12,0.7,2786.2120,M,-58.454,M,01,0004*48
$GPGGA,064632.00,3820.9215528,N,09258.3678684,E,4,12,0.7,2786.2139,M,-58.454,M,01,0004*45
$GPGGA,064633.00,3820.9213867,N,09258.3681552,E,4,12,0.7,2786.2000,M,-58.454,M,01,0004*41
$GPGGA,064634.00,3820.9211748,N,09258.3684348,E,4,13,0.7,2786.2022,M,-58.454,M,01,0004*4F
$GPGGA,064635.00,3820.9209291,N,09258.3687763,E,4,13,0.7,2786.1803,M,-58.454,M,01,0004*40
$GPGGA,064636.00,3820.9206745,N,09258.3691132,E,4,13,0.7,2786.1842,M,-58.454,M,01,0004*40
$GPGGA,064637.00,3820.9203995,N,09258.3694014,E,4,13,0.7,2786.2394,M,-58.454,M,01,0004*44
$GPGGA,064638.00,3820.9201504,N,09258.3697440,E,4,13,0.7,2786.2175,M,-58.454,M,01,0004*46
$GPGGA,064639.00,3820.9199165,N,09258.3701025,E,4,13,0.7,2786.2099,M,-58.454,M,01,0004*4C
$GPGGA,064640.00,3820.9196384,N,09258.3704155,E,4,13,0.7,2786.2286,M,-58.454,M,01,0004*4F
$GPGGA,064641.00,3820.9193661,N,09258.3707949,E,4,19,0.7,2786.2163,M,-58.454,M,01,0004*41
$GPGGA,064642.00,3820.9190951,N,09258.3711284,E,4,19,0.7,2786.2216,M,-58.454,M,01,0004*41
$GPGGA,064643.00,3820.9188604,N,09258.3714804,E,4,19,0.7,2786.2368,M,-58.454,M,01,0004*49
$GPGGA,064644.00,3820.9185672,N,09258.3718329,E,4,19,0.7,2786.2324,M,-58.454,M,01,0004*42
$GPGGA,064645.00,3820.9182856,N,09258.3722661,E,4,19,0.7,2786.2214,M,-58.454,M,01,0004*4E
$GPGGA,064646.00,3820.9180104,N,09258.3727368,E,4,19,0.7,2786.2498,M,-58.454,M,01,0004*4A
$GPGGA,064647.00,3820.9176578,N,09258.3731268,E,4,19,0.7,2786.2437,M,-58.454,M,01,0004*4E
$GPGGA,064648.00,3820.9173405,N,09258.3734203,E,4,19,0.7,2786.2329,M,-58.454,M,01,0004*4F
$GPGGA,064649.00,3820.9170122,N,09258.3738203,E,4,19,0.7,2786.2643,M,-58.454,M,01,0004*48
$GPGGA,064650.00,3820.9166507,N,09258.3742099,E,4,19,0.7,2786.2424,M,-58.454,M,01,0004*4B
$GPGGA,064651.00,3820.9163140,N,09258.3745945,E,4,19,0.7,2786.2474,M,-58.454,M,01,0004*42
$GPGGA,064652.00,3820.9159834,N,09258.3749812,E,4,19,0.7,2786.2421,M,-58.454,M,01,0004*4D
$GPGGA,064653.00,3820.9156555,N,09258.3753292,E,4,19,0.7,2786.2664,M,-58.454,M,01,0004*43
$GPGGA,064654.00,3820.9154118,N,09258.3755677,E,4,19,0.7,2786.2584,M,-58.454,M,01,0004*4F
$GPGGA,064655.00,3820.9153255,N,09258.3756100,E,4,19,0.7,2786.2763,M,-58.454,M,01,0004*4C
$GPGGA,064656.00,3820.9153407,N,09258.3755928,E,4,19,0.7,2786.2581,M,-58.454,M,01,0004*41
$GPGGA,064657.00,3820.9153454,N,09258.3755829,E,4,19,0.7,2786.2524,M,-58.454,M,01,0004*49
$GPGGA,064658.00,3820.9153495,N,09258.3756011,E,4,19,0.7,2786.2593,M,-58.454,M,01,0004*47
$GPGGA,064659.00,3820.9153522,N,09258.3755912,E,4,19,0.7,2786.2555,M,-58.454,M,01,0004*48
$GPGGA,064700.00,3820.9153573,N,09258.3755858,E,4,19,0.7,2786.2530,M,-58.454,M,01,0004*4D
$GPGGA,064701.00,3820.9153489,N,09258.3756091,E,4,19,0.7,2786.2640,M,-58.454,M,01,0004*42
$GPGGA,064702.00,3820.9152872,N,09258.3757230,E,4,19,0.7,2786.2485,M,-58.454,M,01,0004*4B
$GPGGA,064703.00,3820.9150400,N,09258.3759423,E,4,19,0.7,2786.2476,M,-58.454,M,01,0004*47
$GPGGA,064704.00,3820.9146713,N,09258.3763385,E,4,19,0.7,2786.2311,M,-58.454,M,01,0004*42
$GPGGA,064705.00,3820.9142506,N,09258.3768129,E,4,19,0.7,2786.2370,M,-58.454,M,01,0004*49
$GPGGA,064706.00,3820.9137875,N,09258.3772367,E,4,19,0.7,2786.2168,M,-58.454,M,01,0004*49
$GPGGA,064707.00,3820.9132963,N,09258.3776968,E,4,19,0.7,2786.1948,M,-58.454,M,01,0004*43
$GPGGA,064708.00,3820.9128326,N,09258.3782015,E,4,19,0.7,2786.1969,M,-58.454,M,01,0004*47
$GPGGA,064709.00,3820.9123824,N,09258.3786599,E,4,19,0.7,2786.2367,M,-58.454,M,01,0004*46
$GPGGA,064710.00,3820.9119296,N,09258.3792285,E,4,19,0.7,2786.2616,M,-58.454,M,01,0004*48
$GPGGA,064812.00,3820.9094506,N,09258.3824452,E,1,16,1.1,2774.8952,M,-58.455,M,,0004*44
$GPGGA,064813.00,3820.9092772,N,09258.3825580,E,1,16,1.1,2775.5667,M,-58.455,M,,0004*48
$GPGGA,064814.00,3820.9088447,N,09258.3827281,E,1,17,1.1,2776.0858,M,-58.455,M,,0004*40
$GPGGA,064815.00,3820.9080417,N,09258.3837582,E,1,18,0.7,2777.5290,M,-58.455,M,,0004*4B
$GPGGA,064816.00,3820.9077128,N,09258.3838018,E,1,20,0.7,2776.1788,M,-58.455,M,,0004*42
$GPGGA,064817.00,3820.9072825,N,09258.3841526,E,1,20,0.7,2776.4431,M,-58.455,M,,0004*40
$GPGGA,064818.00,3820.9068730,N,09258.3845453,E,1,20,0.7,2775.4342,M,-58.455,M,,0004*48
$GPGGA,064819.00,3820.9064101,N,09258.3851298,E,1,20,0.7,2775.5988,M,-58.455,M,,0004*48
$GPGGA,064820.00,3820.9061023,N,09258.3859233,E,1,21,0.7,2774.3780,M,-58.455,M,,0004*4F
$GPGGA,064821.00,3820.9056534,N,09258.3863100,E,1,21,0.7,2774.4090,M,-58.455,M,,0004*42
$GPGGA,064822.00,3820.9065081,N,09258.3845981,E,5,12,0.9,2783.5254,M,-58.455,M,01,0004*47
$GPGGA,064823.00,3820.9055232,N,09258.3859727,E,4,12,0.7,2786.1920,M,-58.455,M,01,0004*46
$GPGGA,064824.00,3820.9050693,N,09258.3864419,E,4,12,0.7,2786.1924,M,-58.455,M,01,0004*4F
$GPGGA,064825.00,3820.9046144,N,09258.3869498,E,4,12,0.7,2786.2306,M,-58.455,M,01,0004*49
$GPGGA,064826.00,3820.9041660,N,09258.3874932,E,4,12,0.6,2786.2131,M,-58.455,M,01,0004*4A
$GPGGA,064827.00,3820.9037198,N,09258.3880238,E,4,12,0.6,2786.1744,M,-58.455,M,01,0004*47
$GPGGA,064828.00,3820.9032682,N,09258.3885250,E,4,13,0.6,2786.2081,M,-58.455,M,01,0004*46
$GPGGA,064829.00,3820.9028006,N,09258.3890219,E,4,13,0.6,2786.2046,M,-58.455,M,01,0004*44
$GPGGA,064830.00,3820.9023201,N,09258.3895125,E,4,13,0.6,2786.2232,M,-58.455,M,01,0004*4A
$GPGGA,064831.00,3820.9018225,N,09258.3900429,E,4,13,0.6,2786.2228,M,-58.455,M,01,0004*4A
$GPGGA,064832.00,3820.9013310,N,09258.3905913,E,4,13,0.6,2786.2224,M,-58.455,M,01,0004*48
$GPGGA,064833.00,3820.9008489,N,09258.3911388,E,4,13,0.6,2786.1834,M,-58.455,M,01,0004*41
$GPGGA,064834.00,3820.9003676,N,09258.3916840,E,4,13,0.6,2786.1688,M,-58.455,M,01,0004*4E
$GPGGA,064835.00,3820.8998888,N,09258.3921892,E,4,13,0.6,2786.1986,M,-58.456,M,01,0004*43
$GPGGA,064836.00,3820.8994222,N,09258.3926920,E,4,13,0.6,2786.1888,M,-58.456,M,01,0004*46
$GPGGA,064837.00,3820.8989127,N,09258.3931637,E,4,13,0.6,2786.2277,M,-58.456,M,01,0004*4B
$GPGGA,064838.00,3820.8984658,N,09258.3936217,E,4,13,0.6,2786.1989,M,-58.456,M,01,0004*4E
$GPGGA,064839.00,3820.8980454,N,09258.3941076,E,4,13,0.6,2786.1756,M,-58.456,M,01,0004*4C
$GPGGA,064840.00,3820.8975657,N,09258.3946065,E,4,13,0.6,2786.1821,M,-58.456,M,01,0004*43
$GPGGA,064841.00,3820.8971127,N,09258.3951565,E,4,19,0.6,2786.2096,M,-58.456,M,01,0004*48
$GPGGA,064842.00,3820.8966443,N,09258.3957121,E,4,19,0.6,2786.2210,M,-58.456,M,01,0004*44
$GPGGA,064843.00,3820.8961801,N,09258.3962519,E,4,19,0.6,2786.1978,M,-58.456,M,01,0004*47
$GPGGA,064844.00,3820.8956966,N,09258.3967546,E,4,19,0.6,2786.1905,M,-58.456,M,01,0004*41
$GPGGA,064845.00,3820.8952143,N,09258.3972199,E,4,19,0.6,2786.1865,M,-58.456,M,01,0004*4E
$GPGGA,064846.00,3820.8947080,N,09258.3976992,E,4,19,0.6,2786.2252,M,-58.456,M,01,0004*4D
$GPGGA,064847.00,3820.8942431,N,09258.3982432,E,4,19,0.6,2786.1902,M,-58.456,M,01,0004*46
$GPGGA,064848.00,3820.8937590,N,09258.3987499,E,4,19,0.6,2786.1565,M,-58.456,M,01,0004*48
$GPGGA,064849.00,3820.8932835,N,09258.3993230,E,4,19,0.6,2786.1484,M,-58.456,M,01,0004*40
$GPGGA,064850.00,3820.8927823,N,09258.3998966,E,4,19,0.6,2786.1370,M,-58.456,M,01,0004*44
$GPGGA,064851.00,3820.8922394,N,09258.4004773,E,4,19,0.7,2786.1365,M,-58.456,M,01,0004*43
$GPGGA,064852.00,3820.8917120,N,09258.4010119,E,4,19,0.6,2786.1732,M,-58.456,M,01,0004*43
$GPGGA,064853.00,3820.8911774,N,09258.4014653,E,4,19,0.6,2786.1653,M,-58.456,M,01,0004*48
$GPGGA,064854.00,3820.8906190,N,09258.4019442,E,4,19,0.6,2786.1384,M,-58.456,M,01,0004*45
$GPGGA,064855.00,3820.8900656,N,09258.4024010,E,4,19,0.6,2786.1533,M,-58.456,M,01,0004*48
$GPGGA,064856.00,3820.8895890,N,09258.4029358,E,4,19,0.6,2786.1182,M,-58.456,M,01,0004*4E
$GPGGA,064857.00,3820.8891115,N,09258.4035112,E,4,19,0.6,2786.1686,M,-58.456,M,01,0004*4D
$GPGGA,064858.00,3820.8886190,N,09258.4040472,E,4,19,0.7,2786.1613,M,-58.456,M,01,0004*45
$GPGGA,064859.00,3820.8880902,N,09258.4045530,E,4,19,0.6,2786.1773,M,-58.457,M,01,0004*44
$GPGGA,064900.00,3820.8875995,N,09258.4050505,E,4,19,0.6,2786.1434,M,-58.457,M,01,0004*4F
$GPGGA,064901.00,3820.8871219,N,09258.4056358,E,4,19,0.6,2786.1008,M,-58.457,M,01,0004*46
$GPGGA,064902.00,3820.8866125,N,09258.4061564,E,4,19,0.6,2786.0859,M,-58.457,M,01,0004*4F
$GPGGA,064903.00,3820.8861164,N,09258.4066633,E,4,19,0.6,2786.0833,M,-58.457,M,01,0004*46
$GPGGA,064904.00,3820.8856224,N,09258.4071640,E,4,19,0.6,2786.1288,M,-58.457,M,01,0004*4B
$GPGGA,064905.00,3820.8851507,N,09258.4077287,E,4,19,0.6,2786.1159,M,-58.457,M,01,0004*4D