%  GPST                  latitude(deg) longitude(deg)  height(m)   Q  ns   sdn(m)   sde(m)   sdu(m)  sdne(m)  sdeu(m)  sdun(m) age(s)  ratio
2023/08/18 08:43:58.000   31.025719080  121.440500993    16.5969   2  16   0.6429   0.3540   1.4254  -0.1797  -0.3300   0.3074   3.00    1.0
2023/08/18 08:43:59.000   31.025726307  121.440499508    18.5924   2  16   0.6108   0.3325   1.2819  -0.1389  -0.2430   0.3603   3.00    1.2
2023/08/18 08:44:00.000   31.025725025  121.440495940    18.6490   2  16   0.6108   0.3325   1.2820  -0.1389  -0.2429   0.3605   3.00    1.1
2023/08/18 08:44:01.000   31.025729369  121.440486566    19.6418   2  15   0.6322   0.3578   1.3951  -0.1147  -0.3055   0.2059   1.00    1.0
2023/08/18 08:44:02.000   31.025723252  121.440494838    18.4781   2  16   0.6600   0.3573   1.4366  -0.1991  -0.3163   0.2619   2.00    2.0
2023/08/18 08:44:03.000   31.025720545  121.440491254    16.5162   1  16   0.0071   0.0041   0.0148  -0.0020  -0.0037   0.0041   2.00    2.0
2023/08/18 08:44:04.000   31.025730056  121.440487763    16.5362   1  16   0.0074   0.0039   0.0153  -0.0015  -0.0027   0.0040   3.00    4.6
2023/08/18 08:44:05.000   31.025740191  121.440484014    16.6331   1  17   0.0068   0.0042   0.0164   0.0006  -0.0025   0.0014   4.00    4.6
2023/08/18 08:44:06.000   31.025750182  121.440481049    16.6086   1  19   0.0062   0.0047   0.0172   0.0022  -0.0022  -0.0041   5.00    5.2
2023/08/18 08:44:07.000   31.025760209  121.440477751    16.6006   1  19   0.0051   0.0039   0.0140   0.0017  -0.0019  -0.0031   3.00    5.0
2023/08/18 08:44:08.000   31.025770820  121.440474764    16.6848   1  18   0.0048   0.0037   0.0130   0.0018  -0.0010  -0.0023   2.00    3.0
2023/08/18 08:44:09.000   31.025780745  121.440470294    16.7427   1  19   0.0050   0.0038   0.0134   0.0015   0.0022  -0.0007   3.00    3.6
2023/08/18 08:44:10.000   31.025790501  121.440465965    16.7274   1  20   0.0043   0.0032   0.0113   0.0008   0.0012  -0.0011   1.00    4.4
2023/08/18 08:44:11.000   31.025801066  121.440461734    16.7102   1  20   0.0043   0.0032   0.0113   0.0008   0.0012  -0.0011   1.00    6.9
2023/08/18 08:44:12.000   31.025811993  121.440457489    16.7523   1  20   0.0042   0.0031   0.0112   0.0008   0.0015  -0.0010   1.00    4.8
2023/08/18 08:44:13.000   31.025823092  121.440453356    16.7355   1  19   0.0048   0.0035   0.0126  -0.0004  -0.0008   0.0020   2.00    3.0
2023/08/18 08:44:14.000   31.025834225  121.440449149    16.7701   1  18   0.0053   0.0039   0.0140   0.0011   0.0016   0.0027   3.00    3.3
2023/08/18 08:44:15.000   31.025845456  121.440444618    16.7863   1  18   0.0059   0.0041   0.0154   0.0012   0.0022   0.0029   4.00    3.8
2023/08/18 08:44:16.000   31.025856762  121.440440511    16.7985   1  19   0.0063   0.0044   0.0167   0.0005   0.0016   0.0021   5.00    2.7
2023/08/18 08:44:17.000   31.025867970  121.440436577    16.7953   1  21   0.0042   0.0033   0.0114   0.0008   0.0015  -0.0026   2.00    2.4
2023/08/18 08:44:18.000   31.025878987  121.440431589    16.8108   1  21   0.0046   0.0036   0.0124   0.0009   0.0017  -0.0030   3.00    2.6
2023/08/18 08:44:19.000   31.025889846  121.440425844    16.8032   1  21   0.0042   0.0033   0.0114   0.0008   0.0015  -0.0026   2.00    2.3
2023/08/18 08:44:20.000   31.025900699  121.440420457    16.7621   1  21   0.0038   0.0031   0.0102   0.0007   0.0015  -0.0031   1.00    2.4
2023/08/18 08:44:21.000   31.025911720  121.440415751    16.7711   1  21   0.0038   0.0031   0.0102   0.0007   0.0015  -0.0031   1.00    3.3
2023/08/18 08:44:22.000   31.025923136  121.440410568    16.7487   1  21   0.0041   0.0033   0.0109   0.0008   0.0016  -0.0034   2.00    3.6
2023/08/18 08:44:23.000   31.025934356  121.440405934    16.7468   1  21   0.0041   0.0033   0.0109   0.0008   0.0016  -0.0034   2.00    4.2
2023/08/18 08:44:24.000   31.025941704  121.440405121    16.4031   2  21   0.3725   0.3015   0.9914   0.0773   0.1371  -0.2954   3.00    0.0
2023/08/18 08:44:25.000   31.025957173  121.440396236    16.7942   1  20   0.0049   0.0040   0.0132   0.0007   0.0017  -0.0042   4.00    2.4
2023/08/18 08:44:26.000   31.025962826  121.440396925    16.3259   2  20   0.3852   0.3053   1.0007   0.0359   0.1590  -0.3169   5.00    0.0
2023/08/18 08:44:27.000   31.025976205  121.440388667    16.5976   2  21   0.3900   0.3095   1.0458   0.0827   0.1019  -0.2304   5.00    1.9
2023/08/18 08:44:28.000   31.025991998  121.440381720    16.6615   1  20   0.0044   0.0036   0.0121   0.0014  -0.0016  -0.0030   2.00    3.3
2023/08/18 08:44:29.000   31.026003354  121.440377114    16.5773   1  19   0.0043   0.0036   0.0121   0.0012  -0.0017  -0.0030   2.00    2.6
2023/08/18 08:44:30.000   31.026014550  121.440371955    16.5744   1  19   0.0045   0.0039   0.0125   0.0014  -0.0016  -0.0042   3.00    2.2
2023/08/18 08:44:31.000   31.026025902  121.440366940    16.5252   1  19   0.0044   0.0036   0.0125   0.0005  -0.0021  -0.0023   2.00    2.8
2023/08/18 08:44:32.000   31.026037190  121.440361362    16.4626   1  19   0.0044   0.0036   0.0125   0.0005  -0.0021  -0.0023   2.00    3.0
2023/08/18 08:44:33.000   31.026049069  121.440355395    16.3928   1  19   0.0043   0.0036   0.0121   0.0012  -0.0017  -0.0030   2.00    3.8
2023/08/18 08:44:34.000   31.026060549  121.440348632    16.3551   1  17   0.0052   0.0041   0.0156  -0.0007  -0.0034   0.0028   3.00    4.0
2023/08/18 08:44:35.000   31.026071536  121.440341342    16.2887   1  18   0.0058   0.0043   0.0171  -0.0007  -0.0032   0.0029   4.00    3.0
2023/08/18 08:44:36.000   31.026078962  121.440336249    15.7702   2  19   0.4019   0.3264   1.1441   0.0459  -0.1932  -0.1852   5.00    0.0
2023/08/18 08:44:37.000   31.026088566  121.440330797    17.4445   2  20   0.4017   0.3147   1.0715   0.0347  -0.0508  -0.1736   1.00    1.7
2023/08/18 08:44:38.000   31.026105526  121.440322587    16.2213   1  17   0.0076   0.0040   0.0137  -0.0033  -0.0023   0.0053   2.00    2.9
2023/08/18 08:44:39.000   31.026112016  121.440320668    16.8078   2  17   0.5310   0.3473   1.1824  -0.1953  -0.2490   0.2198   2.00    0.0
2023/08/18 08:44:40.000   31.026131103  121.440314948    17.9468   2  14   0.7074   0.4342   1.7782  -0.2693   0.2176   0.6747   1.00    0.0
2023/08/18 08:44:41.000   31.026130485  121.440310617    20.5830   2  12   0.8790   0.4161   1.6438  -0.3602  -0.1667   0.3917   1.00    0.0
2023/08/18 08:44:42.000   31.026155212  121.440302622    14.3185   2  12   0.9205   0.4297   1.5814  -0.3355   0.3011   0.4774   2.00    0.0
2023/08/18 08:44:43.000   31.026157973  121.440300173    17.4109   2  15   0.6683   0.3607   1.3910  -0.1868   0.1713   0.3842   2.00    1.1
2023/08/18 08:44:44.000   31.026179394  121.440293192    16.1764   2  16   0.6359   0.3237   1.2659  -0.1331   0.0510   0.4931   3.00    1.0
2023/08/18 08:44:45.000   31.026185393  121.440287162    16.0528   1  14   0.0116   0.0044   0.0205   0.0005   0.0037   0.0108   4.00    2.4
2023/08/18 08:44:46.000   31.026196975  121.440281308    15.9829   1  15   0.0075   0.0034   0.0134  -0.0024  -0.0008   0.0038   1.00    2.5
2023/08/18 08:44:47.000   31.026200910  121.440277171    17.9442   2  15   0.7572   0.4150   1.6901  -0.3820  -0.5473   0.7520   1.00    0.0
2023/08/18 08:44:48.000   31.026198801  121.440274226    16.5470   2  16   0.6788   0.3400   1.3226  -0.2304  -0.2023   0.5809   1.00    1.7
2023/08/18 08:44:49.000   31.026220816  121.440268305    17.4086   2  14   0.5551   0.3534   1.2698  -0.1742  -0.1906   0.0656   1.00    1.1
2023/08/18 08:44:50.000   31.026243399  121.440259959    16.0440   1  18   0.0069   0.0039   0.0141  -0.0028  -0.0033   0.0059   2.00    3.7
2023/08/18 08:44:51.000   31.026238237  121.440263354    16.4177   2  17   0.5310   0.3308   1.1990   0.0468  -0.2047   0.1859   1.00    0.0
2023/08/18 08:44:52.000   31.026262286  121.440257094    16.1315   2  14   0.6205   0.3527   1.5506  -0.1753  -0.4109   0.4716   1.00    1.4
2023/08/18 08:44:53.000   31.026278824  121.440246944    15.9795   1  18   0.0069   0.0039   0.0141  -0.0028  -0.0033   0.0059   2.00    2.1
2023/08/18 08:44:54.000   31.026283931  121.440243456    16.4326   2  18   0.5249   0.3036   1.1349  -0.0721   0.1263   0.2134   3.00    0.0
2023/08/18 08:44:55.000   31.026301615  121.440239033    15.9384   1  19   0.0068   0.0040   0.0148  -0.0008   0.0019   0.0029   4.00    4.1
2023/08/18 08:44:56.000   31.026312490  121.440234924    15.9506   1  19   0.0076   0.0044   0.0164  -0.0008   0.0022   0.0030   5.00    4.5
2023/08/18 08:44:57.000   31.026322459  121.440230282    15.9554   1  19   0.0057   0.0033   0.0123  -0.0008   0.0014   0.0027   2.00    4.9
2023/08/18 08:44:58.000   31.026331335  121.440227573    15.8952   1  19   0.0057   0.0033   0.0123  -0.0008   0.0014   0.0027   2.00    4.2
2023/08/18 08:44:59.000   31.026334545  121.440224102    17.5056   2  19   0.5125   0.3032   1.1192  -0.0610   0.1164   0.2602   2.00    0.0
2023/08/18 08:45:00.000   31.026346137  121.440222667    17.3800   2  18   0.5295   0.3130   1.1520   0.0810   0.1862   0.3227   3.00    1.8
2023/08/18 08:45:01.000   31.026362703  121.440217849    15.8685   1  17   0.0060   0.0039   0.0141  -0.0014  -0.0024   0.0043   2.00    2.6
2023/08/18 08:45:02.000   31.026374291  121.440215184    15.8434   1  16   0.0071   0.0037   0.0159  -0.0020  -0.0029   0.0069   2.00    7.6
2023/08/18 08:45:03.000   31.026362358  121.440228459     7.2535   2  17   0.5970   0.3105   1.1488  -0.0485   0.2034   0.4401   2.00    0.0
2023/08/18 08:45:04.000   31.026398235  121.440209545    15.7933   1  17   0.0075   0.0038   0.0150  -0.0014   0.0010   0.0060   3.00    3.0
2023/08/18 08:45:05.000   31.026410962  121.440206319    15.7776   1  18   0.0071   0.0041   0.0152   0.0011   0.0026   0.0038   4.00    3.4
2023/08/18 08:45:06.000   31.026422840  121.440204381    15.7661   1  17   0.0090   0.0045   0.0164  -0.0005   0.0034   0.0059   5.00    5.0
2023/08/18 08:45:07.000   31.026434834  121.440205306    15.8409   1  17   0.0069   0.0035   0.0138  -0.0016   0.0010   0.0054   2.00    2.3
2023/08/18 08:45:08.000   31.026443572  121.440209403    16.4649   2  16   0.6247   0.3288   1.2677  -0.1051   0.1176   0.5051   2.00    0.0
2023/08/18 08:45:09.000   31.026431819  121.440222019     9.2684   2  19   0.5175   0.2994   1.0538  -0.0635   0.2098   0.1897   3.00    1.7
2023/08/18 08:45:10.000   31.026452967  121.440230345    11.5505   2  19   0.5176   0.2994   1.0539  -0.0636   0.2098   0.1898   1.00    2.0
2023/08/18 08:45:11.000   31.026480075  121.440228134    15.7475   1  19   0.0060   0.0036   0.0121  -0.0012   0.0022   0.0031   2.00    2.3
2023/08/18 08:45:12.000   31.026490682  121.440235392    15.8357   1  17   0.0057   0.0049   0.0134   0.0027   0.0057   0.0036   2.00    4.1
2023/08/18 08:45:13.000   31.026501179  121.440242055    15.9421   1  18   0.0054   0.0044   0.0124   0.0021   0.0047   0.0024   2.00    3.6
2023/08/18 08:45:14.000   31.026529835  121.440266994    20.4747   2  18   0.4778   0.3708   1.0671   0.1541   0.3568   0.1439   3.00    0.0
2023/08/18 08:45:15.000   31.026521691  121.440254026    16.0106   1  18   0.0064   0.0053   0.0150   0.0026   0.0058   0.0026   4.00    4.7
2023/08/18 08:45:16.000   31.026531171  121.440261167    16.0540   1  18   0.0064   0.0053   0.0155   0.0026   0.0055   0.0024   4.00    3.7
2023/08/18 08:45:17.000   31.026540835  121.440268222    16.0754   1  18   0.0071   0.0060   0.0173   0.0029   0.0062   0.0025   5.00    3.2
2023/08/18 08:45:18.000   31.026551160  121.440275192    16.0987   1  17   0.0059   0.0049   0.0140   0.0024   0.0049   0.0024   3.00    2.4
2023/08/18 08:45:19.000   31.026561503  121.440280584    16.0919   1  19   0.0052   0.0036   0.0118   0.0012   0.0029  -0.0008   2.00    2.4
2023/08/18 08:45:20.000   31.026571529  121.440286961    16.0695   1  20   0.0047   0.0034   0.0112  -0.0014   0.0014  -0.0007   1.00    2.6
2023/08/18 08:45:21.000   31.026579615  121.440295036    16.0841   1  20   0.0045   0.0036   0.0117  -0.0016   0.0017  -0.0028   2.00    2.1
2023/08/18 08:45:22.000   31.026588976  121.440303377    16.1115   1  20   0.0048   0.0035   0.0116  -0.0012   0.0020   0.0012   1.00    3.0
2023/08/18 08:45:23.000   31.026598990  121.440310751    16.1492   1  19   0.0047   0.0040   0.0117   0.0002   0.0039  -0.0021   2.00    2.2
2023/08/18 08:45:24.000   31.026609489  121.440319100    16.0847   1  19   0.0051   0.0044   0.0133   0.0004   0.0040  -0.0026   3.00    2.4
2023/08/18 08:45:25.000   31.026606848  121.440333054    12.3119   2  19   0.4113   0.3669   1.0835   0.0814   0.3112  -0.0683   4.00    0.0
2023/08/18 08:45:26.000   31.026630233  121.440337525    16.0553   1  20   0.0047   0.0035   0.0110  -0.0009   0.0027  -0.0025   2.00    2.8
2023/08/18 08:45:27.000   31.026640305  121.440345983    16.1019   1  19   0.0048   0.0038   0.0123  -0.0013   0.0034  -0.0032   3.00    2.4
2023/08/18 08:45:28.000   31.026650077  121.440355791    16.1501   1  19   0.0048   0.0036   0.0112  -0.0001   0.0031  -0.0022   2.00    2.9
2023/08/18 08:45:29.000   31.026659650  121.440365429    16.1445   1  18   0.0052   0.0045   0.0127   0.0008   0.0044  -0.0023   3.00    3.7
2023/08/18 08:45:30.000   31.026669391  121.440374533    16.1451   1  19   0.0052   0.0040   0.0127   0.0008   0.0039  -0.0020   3.00    2.9
2023/08/18 08:45:31.000   31.026671534  121.440390816    16.9458   2  19   0.4178   0.3349   1.0447   0.0963   0.3088   0.0950   1.00    0.0
2023/08/18 08:45:32.000   31.026689616  121.440391105    16.1223   1  19   0.0048   0.0037   0.0116   0.0007   0.0035  -0.0017   2.00    4.2
2023/08/18 08:45:33.000   31.026699323  121.440398727    16.1606   1  19   0.0048   0.0037   0.0116   0.0007   0.0035  -0.0017   2.00    7.3
2023/08/18 08:45:34.000   31.026708441  121.440407044    16.2156   1  19   0.0051   0.0042   0.0123  -0.0008   0.0038  -0.0028   3.00    2.4
2023/08/18 08:45:35.000   31.026716836  121.440415969    16.2654   1  19   0.0054   0.0049   0.0136  -0.0003   0.0047  -0.0038   4.00    2.0
2023/08/18 08:45:36.000   31.026726578  121.440424146    16.2647   1  19   0.0043   0.0041   0.0109  -0.0006   0.0037  -0.0035   2.00    4.0
2023/08/18 08:45:37.000   31.026736901  121.440431845    16.2522   1  19   0.0049   0.0045   0.0122   0.0002   0.0042  -0.0033   3.00    3.6
2023/08/18 08:45:38.000   31.026746731  121.440439220    16.2884   1  22   0.0041   0.0033   0.0107  -0.0014   0.0026  -0.0034   2.00    5.1
2023/08/18 08:45:39.000   31.026756538  121.440447226    16.3350   1  21   0.0045   0.0036   0.0118  -0.0014   0.0031  -0.0037   3.00    3.5
2023/08/18 08:45:40.000   31.026767372  121.440454933    16.3365   1  22   0.0044   0.0035   0.0117  -0.0016   0.0029  -0.0038   3.00    3.6
2023/08/18 08:45:41.000   31.026778534  121.440462675    16.2205   1  22   0.0038   0.0030   0.0100  -0.0009   0.0023  -0.0028   1.00    2.3
2023/08/18 08:45:42.000   31.026790009  121.440470381    16.2320   1  23   0.0037   0.0029   0.0097  -0.0010   0.0020  -0.0033   1.00    2.2
2023/08/18 08:45:43.000   31.026800869  121.440477936    16.2529   1  23   0.0039   0.0030   0.0103  -0.0011   0.0022  -0.0035   2.00    3.8
2023/08/18 08:45:44.000   31.026811278  121.440485078    16.2602   1  21   0.0046   0.0038   0.0128  -0.0015   0.0033  -0.0044   3.00    2.9
2023/08/18 08:45:45.000   31.026821572  121.440492181    16.2571   1  21   0.0050   0.0041   0.0130  -0.0018   0.0035  -0.0046   4.00    2.9
2023/08/18 08:45:46.000   31.026832444  121.440499781    16.1319   1  21   0.0057   0.0053   0.0161  -0.0025   0.0051  -0.0058   5.00    4.7
2023/08/18 08:45:47.000   31.026837779  121.440513571    19.3995   2  21   0.3734   0.3500   1.0269  -0.1452   0.2834  -0.3263   2.00    0.0
2023/08/18 08:45:48.000   31.026853268  121.440513785    16.2005   1  21   0.0038   0.0040   0.0110  -0.0012   0.0037  -0.0037   2.00    5.7
2023/08/18 08:45:49.000   31.026863777  121.440520592    16.1853   1  22   0.0043   0.0038   0.0120  -0.0007   0.0033  -0.0036   3.00    5.4
2023/08/18 08:45:50.000   31.026874249  121.440526880    16.2244   1  21   0.0037   0.0037   0.0106  -0.0010   0.0028  -0.0033   1.00    3.2
2023/08/18 08:45:51.000   31.026885312  121.440532654    16.1834   1  22   0.0038   0.0037   0.0109  -0.0015   0.0029  -0.0039   2.00    2.3
2023/08/18 08:45:52.000   31.026896215  121.440539285    16.1869   1  22   0.0038   0.0034   0.0112  -0.0017   0.0027  -0.0037   2.00    2.0
2023/08/18 08:45:53.000   31.026905032  121.440545510    16.2429   1  23   0.0038   0.0034   0.0114  -0.0010   0.0027  -0.0034   2.00    4.6
2023/08/18 08:45:54.000   31.026912864  121.440555088    16.9237   2  23   0.3281   0.3050   0.9555  -0.0809   0.1946  -0.2977   3.00    0.0
2023/08/18 08:45:55.000   31.026919533  121.440558304    16.2841   2  23   0.3268   0.2797   0.9469  -0.0546   0.1494  -0.2913   4.00    2.0
2023/08/18 08:45:56.000   31.026933035  121.440559654    16.2221   1  23   0.0051   0.0040   0.0152  -0.0010   0.0026  -0.0042   5.00    2.9
2023/08/18 08:45:57.000   31.026942677  121.440564407    16.2271   1  22   0.0037   0.0030   0.0110  -0.0011   0.0018  -0.0033   2.00    2.7
2023/08/18 08:45:58.000   31.026952928  121.440570064    16.2115   1  21   0.0037   0.0031   0.0111  -0.0009   0.0021  -0.0032   2.00    2.7
2023/08/18 08:45:59.000   31.026963581  121.440574978    16.2269   1  23   0.0037   0.0030   0.0105  -0.0011   0.0022  -0.0032   2.00    2.7
2023/08/18 08:46:00.000   31.026974720  121.440578876    16.1279   1  23   0.0034   0.0028   0.0097  -0.0011   0.0020  -0.0032   1.00    3.3
2023/08/18 08:46:01.000   31.026985443  121.440582866    16.1047   1  22   0.0035   0.0029   0.0097  -0.0008   0.0020  -0.0032   1.00    3.8
2023/08/18 08:46:02.000   31.026994979  121.440587950    16.0841   1  23   0.0034   0.0028   0.0097  -0.0011   0.0020  -0.0032   1.00    3.1
2023/08/18 08:46:03.000   31.027005251  121.440593663    16.0385   1  23   0.0036   0.0030   0.0103  -0.0011   0.0022  -0.0035   2.00    3.1
2023/08/18 08:46:04.000   31.027015409  121.440599705    15.9936   1  22   0.0042   0.0034   0.0115  -0.0002   0.0024  -0.0035   3.00    3.3
2023/08/18 08:46:05.000   31.027025185  121.440605093    15.9557   1  23   0.0045   0.0036   0.0127  -0.0010   0.0027  -0.0040   4.00    3.1
2023/08/18 08:46:06.000   31.027033576  121.440609005    16.0030   1  23   0.0040   0.0033   0.0112  -0.0010   0.0024  -0.0039   3.00    3.4
2023/08/18 08:46:07.000   31.027035039  121.440616714    17.0318   2  21   0.3276   0.2889   0.9285  -0.0342   0.2070  -0.2706   4.00    0.0
2023/08/18 08:46:08.000   31.027036179  121.440619027    16.3217   2  22   0.3186   0.2768   0.9365  -0.0857   0.2029  -0.2757   2.00    1.7
2023/08/18 08:46:09.000   31.027037047  121.440611221    15.2949   1  22   0.0041   0.0033   0.0121  -0.0012   0.0027  -0.0031   3.00    2.0
2023/08/18 08:46:10.000   31.027034681  121.440620519    17.5095   2  22   0.3223   0.2895   0.9268  -0.1129   0.2120  -0.2909   3.00    0.0
2023/08/18 08:46:11.000   31.027033930  121.440620606    17.9204   2  22   0.3232   0.2931   0.9551  -0.1077   0.1854  -0.3006   1.00    1.2
2023/08/18 08:46:12.000   31.027033534  121.440619617    17.4713   2  20   0.3366   0.3343   1.0424  -0.1272   0.2864  -0.2739   1.00    1.2
2023/08/18 08:46:13.000   31.027037001  121.440611264    15.3360   1  19   0.0042   0.0038   0.0124  -0.0013   0.0037  -0.0025   2.00    3.0
2023/08/18 08:46:14.000   31.027037489  121.440616811    15.8286   2  19   0.3365   0.3376   1.0072  -0.1276   0.3092  -0.2681   3.00    0.0
2023/08/18 08:46:15.000   31.027037056  121.440611168    15.3068   1  18   0.0048   0.0049   0.0144  -0.0026   0.0052  -0.0051   4.00    4.7
2023/08/18 08:46:16.000   31.027037079  121.440611144    15.3363   1  18   0.0054   0.0054   0.0170  -0.0029   0.0057  -0.0061   5.00    4.4
2023/08/18 08:46:17.000   31.027037030  121.440611255    15.3242   1  18   0.0038   0.0038   0.0115  -0.0016   0.0033  -0.0040   2.00    3.5
2023/08/18 08:46:18.000   31.027037038  121.440611239    15.3115   1  19   0.0041   0.0041   0.0121  -0.0019   0.0040  -0.0042   3.00    3.0
2023/08/18 08:46:19.000   31.027037047  121.440611156    15.3142   1  20   0.0037   0.0035   0.0112  -0.0012   0.0028  -0.0037   2.00    2.9
2023/08/18 08:46:20.000   31.027037035  121.440611185    15.2950   1  20   0.0035   0.0033   0.0105  -0.0012   0.0026  -0.0034   1.00    2.7
2023/08/18 08:46:21.000   31.027037041  121.440611167    15.3095   1  20   0.0037   0.0035   0.0112  -0.0012   0.0028  -0.0037   2.00    2.7
2023/08/18 08:46:22.000   31.027037019  121.440611199    15.3165   1  20   0.0035   0.0033   0.0105  -0.0012   0.0026  -0.0034   1.00    2.2
2023/08/18 08:46:23.000   31.027037024  121.440611185    15.3086   1  20   0.0037   0.0034   0.0108  -0.0013   0.0031  -0.0036   2.00    2.6
2023/08/18 08:46:24.000   31.027037051  121.440611121    15.3128   1  20   0.0040   0.0037   0.0122  -0.0013   0.0031  -0.0041   3.00    5.3
2023/08/18 08:46:25.000   31.027037117  121.440611105    15.3108   1  20   0.0044   0.0041   0.0135  -0.0015   0.0035  -0.0046   4.00    4.4
2023/08/18 08:46:26.000   31.027037075  121.440611084    15.3215   1  20   0.0049   0.0045   0.0157  -0.0017   0.0040  -0.0048   5.00    3.4
2023/08/18 08:46:27.000   31.027037013  121.440611217    15.3242   1  19   0.0042   0.0042   0.0130  -0.0018   0.0039  -0.0040   3.00    5.6
2023/08/18 08:46:28.000   31.027036990  121.440611209    15.3252   1  19   0.0038   0.0038   0.0118  -0.0016   0.0034  -0.0036   2.00    3.6
2023/08/18 08:46:29.000   31.027036954  121.440611256    15.3188   1  19   0.0037   0.0037   0.0111  -0.0017   0.0036  -0.0038   2.00    3.2
2023/08/18 08:46:30.000   31.027036955  121.440611237    15.3210   1  19   0.0041   0.0041   0.0121  -0.0019   0.0040  -0.0042   3.00    3.8
2023/08/18 08:46:31.000   31.027037011  121.440611246    15.3064   1  18   0.0038   0.0038   0.0112  -0.0016   0.0035  -0.0039   2.00    3.4
2023/08/18 08:46:32.000   31.027037008  121.440611356    15.3094   1  18   0.0036   0.0036   0.0108  -0.0015   0.0033  -0.0033   1.00    3.0
2023/08/18 08:46:33.000   31.027036956  121.440611267    15.3239   1  18   0.0039   0.0038   0.0115  -0.0016   0.0036  -0.0036   2.00    3.6