%  GPST                  latitude(deg) longitude(deg)  height(m)   Q  ns   sdn(m)   sde(m)   sdu(m)  sdne(m)  sdeu(m)  sdun(m) age(s)  ratio
2023/08/18 08:48:40.000   31.026514411  121.440226464    16.2824   2  22   0.3525   0.3051   1.0574  -0.0819  -0.1969  -0.3085   2.00    1.1
2023/08/18 08:48:41.000   31.026515578  121.440224168    15.9658   2  23   0.3514   0.2905   1.0479  -0.0965  -0.1600  -0.3021   2.00    1.2
2023/08/18 08:48:42.000   31.026516587  121.440226105    15.4481   2  23   0.3514   0.2905   1.0479  -0.0965  -0.1601  -0.3021   1.00    1.0
2023/08/18 08:48:43.000   31.026512925  121.440229706    15.9100   2  21   0.3738   0.2985   1.0592  -0.1324  -0.1232  -0.3320   2.00    1.0
2023/08/18 08:48:44.000   31.026512767  121.440228778    15.4511   2  22   0.3583   0.2956   1.0541  -0.1145  -0.1395  -0.3149   3.00    1.1
2023/08/18 08:48:45.000   31.026513736  121.440230674    15.4449   2  22   0.3583   0.2956   1.0542  -0.1145  -0.1395  -0.3149   4.00    1.2
2023/08/18 08:48:46.000   31.026515101  121.440230179    15.3471   2  22   0.3583   0.2956   1.0542  -0.1145  -0.1395  -0.3149   4.00    1.0
2023/08/18 08:48:47.000   31.026521322  121.440228174    16.6233   2  21   0.3508   0.3069   1.0478  -0.1405  -0.1966  -0.3297   4.00    1.4
2023/08/18 08:48:48.000   31.026521353  121.440219176    16.4713   2  22   0.3593   0.3011   1.0306  -0.1429  -0.1512  -0.3467   2.00    1.1
2023/08/18 08:48:49.000   31.026521205  121.440205521    16.3950   2  23   0.3512   0.2953   1.0239  -0.1264  -0.1724  -0.3338   2.00    1.9
2023/08/18 08:48:50.000   31.026519776  121.440192913    16.7447   2  22   0.3666   0.3016   1.0240  -0.1499  -0.1744  -0.3320   2.00    1.4
2023/08/18 08:48:51.000   31.026519282  121.440180737    16.9796   2  23   0.3513   0.2953   1.0239  -0.1264  -0.1723  -0.3338   3.00    1.0
2023/08/18 08:48:52.000   31.026519435  121.440169004    15.7439   2  22   0.3667   0.3016   1.0240  -0.1499  -0.1743  -0.3321   1.00    1.9
2023/08/18 08:48:53.000   31.026521798  121.440151131    15.6553   1  22   0.0038   0.0032   0.0106  -0.0016  -0.0018  -0.0034   1.00    2.2
2023/08/18 08:48:54.000   31.026524191  121.440136368    15.6725   1  22   0.0040   0.0033   0.0112  -0.0016  -0.0018  -0.0037   2.00    2.2
2023/08/18 08:48:55.000   31.026527079  121.440126498    15.4378   2  22   0.3644   0.2972   1.0240  -0.1428  -0.1744  -0.3321   3.00    0.0
2023/08/18 08:48:56.000   31.026532157  121.440112130    15.2484   2  22   0.3644   0.2972   1.0240  -0.1428  -0.1743  -0.3321   4.00    1.2
2023/08/18 08:48:57.000   31.026534198  121.440100129    15.6031   2  22   0.3579   0.2972   1.0205  -0.1417  -0.1731  -0.3408   2.00    1.5
2023/08/18 08:48:58.000   31.026535336  121.440084181    15.7473   1  22   0.0041   0.0033   0.0116  -0.0018  -0.0015  -0.0041   2.00    2.1
2023/08/18 08:48:59.000   31.026536803  121.440070300    15.7566   1  22   0.0040   0.0033   0.0112  -0.0016  -0.0018  -0.0037   2.00    2.2
2023/08/18 08:49:00.000   31.026540548  121.440058591    15.5284   2  23   0.3439   0.2913   1.0205  -0.1194  -0.1722  -0.3416   2.00    0.0
2023/08/18 08:49:01.000   31.026543609  121.440043643    15.6909   2  23   0.3322   0.2865   1.0205  -0.0978  -0.1715  -0.3422   1.00    1.4
2023/08/18 08:49:02.000   31.026547072  121.440029564    14.7703   2  22   0.3440   0.2913   1.0205  -0.1196  -0.1721  -0.3417   2.00    1.9
2023/08/18 08:49:03.000   31.026548093  121.440015532    15.3122   2  22   0.3441   0.2913   1.0205  -0.1197  -0.1721  -0.3417   2.00    1.8
2023/08/18 08:49:04.000   31.026550754  121.440000179    16.3075   2  22   0.3441   0.2913   1.0205  -0.1197  -0.1721  -0.3417   3.00    1.4
2023/08/18 08:49:05.000   31.026556880  121.439990695    15.2315   2  22   0.3498   0.2913   1.0240  -0.1200  -0.1723  -0.3339   4.00    1.2
2023/08/18 08:49:06.000   31.026560739  121.439978119    15.3021   2  23   0.3373   0.2865   1.0240  -0.0974  -0.1710  -0.3351   5.00    1.1
2023/08/18 08:49:07.000   31.026564036  121.439965117    15.9645   2  22   0.3498   0.2913   1.0240  -0.1200  -0.1723  -0.3340   6.00    1.1
2023/08/18 08:49:08.000   31.026570989  121.439952986    15.8087   1  23   0.0037   0.0030   0.0109  -0.0012  -0.0014  -0.0033   1.00    2.0
2023/08/18 08:49:09.000   31.026575125  121.439939650    15.7742   1  24   0.0037   0.0031   0.0108  -0.0014   0.0003  -0.0028   2.00    2.8
2023/08/18 08:49:10.000   31.026578819  121.439926597    15.7299   2  23   0.3460   0.2786   1.0671  -0.1153   0.0554  -0.1801   3.00    0.0
2023/08/18 08:49:11.000   31.026577361  121.439917691    14.1648   2  24   0.3312   0.2710   0.9572  -0.0956   0.1186  -0.2776   3.00    1.4
2023/08/18 08:49:12.000   31.026588840  121.439901048    15.7436   1  23   0.0037   0.0030   0.0108  -0.0012   0.0022  -0.0028   2.00    2.1
2023/08/18 08:49:13.000   31.026591682  121.439887620    15.1335   2  23   0.3357   0.2716   1.0269  -0.0902   0.1448  -0.2380   2.00    0.0
2023/08/18 08:49:14.000   31.026591724  121.439877060    15.5682   2  23   0.3438   0.2746   0.9572  -0.1151   0.1179  -0.2769   3.00    1.4
2023/08/18 08:49:15.000   31.026604264  121.439862199    15.6931   1  23   0.0046   0.0037   0.0143  -0.0018   0.0016  -0.0030   4.00    2.1
2023/08/18 08:49:16.000   31.026608575  121.439846412    15.6069   2  23   0.3461   0.2786   1.0671  -0.1154   0.0555  -0.1797   4.00    0.0
2023/08/18 08:49:17.000   31.026611526  121.439835468    15.7561   2  23   0.3542   0.2833   0.9846  -0.1386  -0.0459  -0.2386   3.00    1.9
2023/08/18 08:49:18.000   31.026619126  121.439822580    15.6595   1  22   0.0041   0.0032   0.0126  -0.0014  -0.0018  -0.0027   2.00    2.1
2023/08/18 08:49:19.000   31.026623280  121.439809192    15.6477   1  24   0.0037   0.0029   0.0101  -0.0015  -0.0004  -0.0025   1.00    2.7
2023/08/18 08:49:20.000   31.026609170  121.439793205    10.1939   2  24   0.3336   0.2729   0.9407  -0.1254   0.0928  -0.3020   2.00    0.0
2023/08/18 08:49:21.000   31.026627401  121.439784418    15.5899   1  23   0.0043   0.0034   0.0128  -0.0017   0.0007  -0.0022   3.00    4.2
2023/08/18 08:49:22.000   31.026632270  121.439771586    15.5559   1  22   0.0040   0.0030   0.0110  -0.0017  -0.0007  -0.0013   1.00    3.8
2023/08/18 08:49:23.000   31.026637261  121.439758895    15.5542   1  23   0.0037   0.0029   0.0094  -0.0018   0.0012  -0.0029   1.00    2.5
2023/08/18 08:49:24.000   31.026642716  121.439746310    15.5548   1  24   0.0037   0.0031   0.0105  -0.0016  -0.0006  -0.0032   2.00    2.9
2023/08/18 08:49:25.000   31.026648118  121.439732424    14.9976   2  23   0.3623   0.2958   1.0766  -0.1381  -0.1053  -0.1570   3.00    0.0
2023/08/18 08:49:26.000   31.026652940  121.439719965    15.6262   1  23   0.0041   0.0035   0.0120  -0.0013  -0.0012  -0.0037   3.00    2.4
2023/08/18 08:49:27.000   31.026663047  121.439713660    16.7340   2  24   0.3337   0.2729   0.9407  -0.1254   0.0930  -0.3019   3.00    0.0
2023/08/18 08:49:28.000   31.026664649  121.439697548    15.5193   2  24   0.3541   0.2832   0.9845  -0.1385  -0.0450  -0.2385   2.00    1.4
2023/08/18 08:49:29.000   31.026669186  121.439683681    15.2977   2  23   0.3461   0.2785   1.0671  -0.1156   0.0558  -0.1787   3.00    1.3
2023/08/18 08:49:30.000   31.026669780  121.439674004    14.5586   2  23   0.3545   0.2892   0.9570  -0.1626  -0.0712  -0.2819   2.00    1.2
2023/08/18 08:49:31.000   31.026679710  121.439660897    15.2542   2  23   0.3393   0.2831   0.9570  -0.1427  -0.0673  -0.2836   2.00    1.6
2023/08/18 08:49:32.000   31.026684838  121.439653836    15.8449   1  24   0.0036   0.0029   0.0097  -0.0016   0.0016  -0.0033   1.00    2.7
2023/08/18 08:49:33.000   31.026691702  121.439643535    15.8810   1  24   0.0039   0.0031   0.0108  -0.0016  -0.0002  -0.0027   2.00    3.6
2023/08/18 08:49:34.000   31.026698392  121.439633677    15.9632   1  24   0.0042   0.0034   0.0117  -0.0017   0.0005  -0.0031   3.00    3.2
2023/08/18 08:49:35.000   31.026705872  121.439622200    17.4959   2  24   0.3540   0.2766   0.9316  -0.1366   0.1318  -0.2446   4.00    0.0
2023/08/18 08:49:36.000   31.026706369  121.439616257    15.5945   2  24   0.3309   0.2675   0.9189  -0.0996   0.1602  -0.2690   5.00    1.2
2023/08/18 08:49:37.000   31.026717936  121.439605931    15.0721   2  24   0.3438   0.2746   0.9573  -0.1153   0.1184  -0.2765   5.00    1.5
2023/08/18 08:49:38.000   31.026723545  121.439595152    15.0680   2  23   0.3579   0.2777   0.9730  -0.0956   0.1459  -0.2430   2.00    1.8
2023/08/18 08:49:39.000   31.026736707  121.439586203    15.9851   1  23   0.0036   0.0030   0.0100  -0.0014   0.0014  -0.0031   1.00    2.3
2023/08/18 08:49:40.000   31.026744781  121.439576872    16.6277   2  23   0.3629   0.2881   0.9931  -0.1531   0.0708  -0.2590   2.00    0.0
2023/08/18 08:49:41.000   31.026753223  121.439566449    16.4338   2  24   0.3395   0.2784   0.9841  -0.1183  -0.0218  -0.2441   2.00    1.7
2023/08/18 08:49:42.000   31.026759677  121.439556730    16.2120   2  24   0.3395   0.2784   0.9841  -0.1183  -0.0218  -0.2441   3.00    0.0
2023/08/18 08:49:43.000   31.026765543  121.439548306    16.1858   2  24   0.3395   0.2784   0.9841  -0.1183  -0.0218  -0.2441   1.00    1.2
2023/08/18 08:49:44.000   31.026768960  121.439543837    15.0312   2  21   0.3957   0.2990   1.1134   0.0820   0.1714   0.1529   2.00    1.5
2023/08/18 08:49:45.000   31.026770257  121.439541706    15.3627   2  22   0.3634   0.2887   1.0744  -0.1106   0.1083  -0.1891   3.00    1.5
2023/08/18 08:49:46.000   31.026769920  121.439540905    16.2363   2  21   0.3751   0.2963   1.0760  -0.0779   0.1249  -0.1742   3.00    1.2
2023/08/18 08:49:47.000   31.026771400  121.439536873    14.0244   2  20   0.3736   0.3224   1.0959  -0.0813   0.1730  -0.1934   4.00    1.1