%  GPST                  latitude(deg) longitude(deg)  height(m)   Q  ns   sdn(m)   sde(m)   sdu(m)  sdne(m)  sdeu(m)  sdun(m) age(s)  ratio
2023/08/18 08:50:52.000   31.026736722  121.439444022    15.6440   1  22   0.0038   0.0036   0.0103  -0.0012   0.0030  -0.0039   2.00    2.1
2023/08/18 08:50:53.000   31.026736622  121.439444013    15.6327   1  21   0.0036   0.0034   0.0097  -0.0011   0.0028  -0.0036   1.00    2.1
2023/08/18 08:50:54.000   31.026739064  121.439449459    15.9923   2  21   0.3452   0.3322   0.9152  -0.1181   0.2632  -0.3424   2.00    0.0
2023/08/18 08:50:55.000   31.026736678  121.439444123    15.6581   1  21   0.0041   0.0039   0.0112  -0.0014   0.0032  -0.0043   3.00    2.3
2023/08/18 08:50:56.000   31.026744395  121.439449920    15.1258   2  21   0.3541   0.3249   0.9100  -0.0903   0.2499  -0.3272   3.00    0.0
2023/08/18 08:50:57.000   31.026736551  121.439444270    15.6645   1  21   0.0039   0.0036   0.0102  -0.0008   0.0029  -0.0038   2.00    2.4
2023/08/18 08:50:58.000   31.026736311  121.439445191    15.6832   1  20   0.0039   0.0033   0.0101  -0.0005   0.0023  -0.0037   2.00    2.4
2023/08/18 08:50:59.000   31.026736878  121.439448749    15.1438   2  20   0.3614   0.3232   0.8978  -0.1589   0.2310  -0.3522   3.00    0.0
2023/08/18 08:51:00.000   31.026735924  121.439447490    16.3494   1  19   0.0040   0.0033   0.0107   0.0003   0.0027  -0.0034   2.00    3.6
2023/08/18 08:51:01.000   31.026735283  121.439456304    15.1319   2  18   0.3649   0.3387   1.0050   0.0576   0.3037  -0.2165   1.00    0.0
2023/08/18 08:51:02.000   31.026737772  121.439468135    15.2657   2  21   0.3353   0.2915   0.8903  -0.0688   0.1816  -0.3110   2.00    1.3
2023/08/18 08:51:03.000   31.026740220  121.439475701    15.9608   2  22   0.3350   0.2873   0.8901  -0.0636   0.1842  -0.3114   2.00    1.2
2023/08/18 08:51:04.000   31.026743970  121.439491328    15.6347   2  22   0.3350   0.2873   0.8900  -0.0636   0.1843  -0.3114   3.00    1.1
2023/08/18 08:51:05.000   31.026742354  121.439502804    14.6337   2  22   0.3250   0.2819   0.8772  -0.0921   0.1632  -0.3293   4.00    1.2
2023/08/18 08:51:06.000   31.026745662  121.439517321    14.8057   2  22   0.3250   0.2819   0.8772  -0.0921   0.1632  -0.3293   3.00    1.1
2023/08/18 08:51:07.000   31.026747864  121.439530827    15.5749   2  21   0.3271   0.3096   0.8866  -0.1152   0.2078  -0.3365   3.00    1.5
2023/08/18 08:51:08.000   31.026750025  121.439547907    16.0368   2  23   0.3140   0.2701   0.8771  -0.1234   0.1651  -0.3282   4.00    1.3
2023/08/18 08:51:09.000   31.026757736  121.439563221    16.0902   1  23   0.0035   0.0028   0.0096  -0.0014   0.0018  -0.0034   1.00    2.9
2023/08/18 08:51:10.000   31.026760378  121.439578058    16.0127   1  22   0.0038   0.0035   0.0103  -0.0020   0.0029  -0.0043   2.00    2.5
2023/08/18 08:51:11.000   31.026757387  121.439591746    16.3966   2  23   0.3189   0.2834   0.8857  -0.1422   0.1975  -0.3386   2.00    0.0
2023/08/18 08:51:12.000   31.026762314  121.439604853    15.8640   2  23   0.3256   0.3049   0.8973  -0.1661   0.2350  -0.3522   2.00    1.9
2023/08/18 08:51:13.000   31.026769956  121.439620978    15.8223   1  23   0.0038   0.0032   0.0103  -0.0018   0.0023  -0.0038   2.00    2.2
2023/08/18 08:51:14.000   31.026768859  121.439633498    15.4218   2  25   0.3025   0.2793   0.8602  -0.1242   0.1703  -0.3055   3.00    0.0
2023/08/18 08:51:15.000   31.026772100  121.439647702    15.5048   2  25   0.2988   0.2634   0.8538  -0.1050   0.1388  -0.2973   4.00    1.0
2023/08/18 08:51:16.000   31.026774335  121.439660179    15.8962   2  25   0.2988   0.2634   0.8538  -0.1051   0.1388  -0.2973   5.00    1.0
2023/08/18 08:51:17.000   31.026776455  121.439676565    15.8020   2  25   0.3025   0.2793   0.8602  -0.1242   0.1703  -0.3055   6.00    1.2
2023/08/18 08:51:18.000   31.026783025  121.439690038    15.7826   2  25   0.2988   0.2634   0.8538  -0.1051   0.1388  -0.2972   3.00    1.2
2023/08/18 08:51:19.000   31.026790673  121.439699994    15.6039   1  24   0.0035   0.0030   0.0092  -0.0016   0.0021  -0.0035   1.00    2.7
2023/08/18 08:51:20.000   31.026789723  121.439717062    15.6942   2  23   0.3132   0.2817   0.8603  -0.1122   0.1703  -0.3058   2.00    0.0
2023/08/18 08:51:21.000   31.026796876  121.439728076    14.9744   2  23   0.3496   0.2965   0.9144  -0.1820   0.2260  -0.3497   1.00    0.0
2023/08/18 08:51:22.000   31.026796497  121.439744684    15.2799   2  22   0.3202   0.2783   0.8824  -0.1384   0.1439  -0.2794   2.00    1.2
2023/08/18 08:51:23.000   31.026803419  121.439759196    16.2714   2  22   0.3283   0.3125   0.9124  -0.1234   0.2365  -0.2608   2.00    1.2
2023/08/18 08:51:24.000   31.026805205  121.439772946    16.6815   2  24   0.3093   0.2859   0.8753  -0.1133   0.1847  -0.2884   3.00    0.0
2023/08/18 08:51:25.000   31.026809414  121.439786178    16.5987   2  23   0.3093   0.2908   0.8754  -0.1141   0.1833  -0.2883   4.00    0.0
2023/08/18 08:51:26.000   31.026811054  121.439796603    16.9807   2  23   0.3167   0.2750   0.8878  -0.1073   0.1335  -0.2516   5.00    0.0
2023/08/18 08:51:27.000   31.026819776  121.439807101    16.8278   2  24   0.3100   0.2761   0.8739  -0.1044   0.1440  -0.2719   6.00    1.3
2023/08/18 08:51:28.000   31.026822511  121.439824235    15.8130   1  24   0.0036   0.0035   0.0100  -0.0018   0.0026  -0.0036   2.00    2.5
2023/08/18 08:51:29.000   31.026823933  121.439846912    15.1384   2  24   0.3060   0.2702   0.8676  -0.0912   0.1566  -0.2802   3.00    0.0
2023/08/18 08:51:30.000   31.026825095  121.439857382    14.7267   2  24   0.3134   0.2702   0.8833  -0.0924   0.1549  -0.2593   2.00    1.6
2023/08/18 08:51:31.000   31.026835591  121.439864406    15.9292   1  25   0.0036   0.0034   0.0101  -0.0017   0.0026  -0.0035   2.00    2.1
2023/08/18 08:51:32.000   31.026839970  121.439877902    15.9419   1  25   0.0034   0.0029   0.0097  -0.0011   0.0019  -0.0034   2.00    2.2
2023/08/18 08:51:33.000   31.026840098  121.439895695    16.1008   2  24   0.3040   0.2797   0.8669  -0.1229   0.1745  -0.2999   2.00    0.0
2023/08/18 08:51:34.000   31.026845204  121.439907907    16.4260   2  25   0.3003   0.2636   0.8604  -0.1035   0.1432  -0.2914   3.00    1.4
2023/08/18 08:51:35.000   31.026850517  121.439921082    15.6346   2  25   0.3020   0.2676   0.8851  -0.0964   0.1051  -0.3023   4.00    1.2
2023/08/18 08:51:36.000   31.026855818  121.439934244    15.8374   2  25   0.3020   0.2676   0.8851  -0.0964   0.1051  -0.3023   5.00    1.1
2023/08/18 08:51:37.000   31.026861565  121.439946454    16.4431   2  25   0.3020   0.2676   0.8851  -0.0964   0.1051  -0.3023   6.00    1.0
2023/08/18 08:51:38.000   31.026869226  121.439956367    17.4886   2  24   0.3066   0.2821   0.8985  -0.1184  -0.0517  -0.2887   7.00    0.0
2023/08/18 08:51:39.000   31.026874741  121.439970176    16.5709   2  23   0.3193   0.2854   0.9257  -0.1014   0.0814  -0.2517   1.00    1.7
2023/08/18 08:51:40.000   31.026878276  121.439985106    16.4114   2  20   0.3445   0.3382   1.0030  -0.1343  -0.0986  -0.3407   1.00    1.1
2023/08/18 08:51:41.000   31.026880226  121.439992623    11.6791   2  19   0.4335   0.3721   1.0084  -0.2631   0.1535  -0.3758   1.00    1.0
2023/08/18 08:51:42.000   31.026881289  121.440020771    12.0355   2  19   0.4151   0.3702   0.9436  -0.2705   0.2701  -0.3470   2.00    1.1
2023/08/18 08:51:43.000   31.026884189  121.440025240    18.2842   2  23   0.3569   0.3462   1.0204  -0.1751   0.2620  -0.2639   2.00    0.0
2023/08/18 08:51:44.000   31.026883863  121.440039488    15.3482   2  23   0.3212   0.3176   0.9739  -0.1421   0.1937  -0.2730   3.00    0.0
2023/08/18 08:51:45.000   31.026900149  121.440055855    15.6381   1  23   0.0044   0.0042   0.0129  -0.0019   0.0033  -0.0051   4.00    3.4
2023/08/18 08:51:46.000   31.026895725  121.440067254    16.2161   2  23   0.3103   0.2921   0.8960  -0.1159   0.2151  -0.2864   5.00    0.0
2023/08/18 08:51:47.000   31.026910320  121.440083640    15.7510   1  25   0.0034   0.0029   0.0097  -0.0011   0.0019  -0.0034   2.00    2.6
2023/08/18 08:51:48.000   31.026907478  121.440095896    16.9631   2  25   0.3004   0.2636   0.8602  -0.1036   0.1432  -0.2911   2.00    0.0
2023/08/18 08:51:49.000   31.026918369  121.440108992    15.7961   1  25   0.0032   0.0027   0.0091  -0.0012   0.0016  -0.0033   1.00    2.1
2023/08/18 08:51:50.000   31.026918179  121.440119682    16.3015   2  25   0.3004   0.2636   0.8601  -0.1036   0.1432  -0.2911   2.00    0.0
2023/08/18 08:51:51.000   31.026925444  121.440135742    15.8671   1  24   0.0033   0.0029   0.0092  -0.0014   0.0020  -0.0034   1.00    2.2
2023/08/18 08:51:52.000   31.026929027  121.440149555    15.8943   1  25   0.0034   0.0029   0.0097  -0.0011   0.0019  -0.0034   2.00    2.1
2023/08/18 08:51:53.000   31.026931034  121.440165586    16.9356   2  25   0.3060   0.2668   0.8674  -0.0915   0.1584  -0.2796   3.00    0.0
2023/08/18 08:51:54.000   31.026931007  121.440175282    15.8397   2  25   0.3004   0.2636   0.8601  -0.1036   0.1432  -0.2910   3.00    1.7
2023/08/18 08:51:55.000   31.026935941  121.440191688    16.3580   2  25   0.3004   0.2636   0.8601  -0.1037   0.1432  -0.2910   4.00    1.6
2023/08/18 08:51:56.000   31.026940648  121.440204228    16.3678   2  25   0.3004   0.2636   0.8600  -0.1037   0.1432  -0.2910   3.00    1.8
2023/08/18 08:51:57.000   31.026950173  121.440221879    15.9036   1  25   0.0036   0.0029   0.0099  -0.0014   0.0020  -0.0039   2.00    2.1
2023/08/18 08:51:58.000   31.026949744  121.440233942    16.4091   2  25   0.3004   0.2636   0.8600  -0.1037   0.1432  -0.2909   2.00    0.0
2023/08/18 08:51:59.000   31.026953439  121.440247813    16.3909   2  25   0.3004   0.2636   0.8600  -0.1037   0.1432  -0.2909   3.00    1.2
2023/08/18 08:52:00.000   31.026956839  121.440265415    16.0025   2  25   0.3029   0.2692   0.8634  -0.1134   0.1278  -0.2857   2.00    1.8
2023/08/18 08:52:01.000   31.026964849  121.440278692    15.9174   1  25   0.0035   0.0030   0.0097  -0.0015   0.0017  -0.0036   2.00    2.1
2023/08/18 08:52:02.000   31.026967767  121.440293065    15.9385   1  24   0.0035   0.0032   0.0098  -0.0016   0.0020  -0.0036   2.00    2.1
2023/08/18 08:52:03.000   31.026970853  121.440306900    15.9839   1  25   0.0034   0.0030   0.0097  -0.0014   0.0016  -0.0035   2.00    2.1
2023/08/18 08:52:04.000   31.026973148  121.440322455    16.9668   2  25   0.3098   0.2711   0.8727  -0.1037   0.1430  -0.2708   3.00    0.0
2023/08/18 08:52:05.000   31.026977368  121.440333805    16.9116   2  25   0.3204   0.2749   0.8730  -0.1202   0.1468  -0.2743   4.00    1.3
2023/08/18 08:52:06.000   31.026972055  121.440347293    15.1116   2  24   0.3143   0.2844   0.8675  -0.1385   0.1807  -0.3049   3.00    1.3
2023/08/18 08:52:07.000   31.026983764  121.440363874    16.5309   2  25   0.3040   0.2664   0.8597  -0.0943   0.1533  -0.2863   4.00    1.2
2023/08/18 08:52:08.000   31.026984961  121.440378282    16.4295   2  24   0.3180   0.2666   0.8886  -0.0988   0.1462  -0.2469   4.00    1.6
2023/08/18 08:52:09.000   31.026988541  121.440391168    16.8369   2  24   0.3180   0.2666   0.8886  -0.0988   0.1462  -0.2469   3.00    1.7
2023/08/18 08:52:10.000   31.026994538  121.440403689    15.9036   1  23   0.0038   0.0031   0.0148  -0.0014   0.0025  -0.0041   2.00    4.4
2023/08/18 08:52:11.000   31.026993322  121.440421610    17.2121   2  24   0.3244   0.2834   0.9054  -0.1165   0.1824  -0.2442   1.00    0.0
2023/08/18 08:52:12.000   31.027001230  121.440432053    15.9625   1  24   0.0035   0.0029   0.0102  -0.0011   0.0021  -0.0032   2.00    3.4
2023/08/18 08:52:13.000   31.027004682  121.440445526    15.9674   1  24   0.0037   0.0032   0.0113  -0.0010   0.0026  -0.0035   3.00    2.1
2023/08/18 08:52:14.000   31.027008730  121.440458689    15.9441   1  24   0.0037   0.0032   0.0113  -0.0010   0.0026  -0.0035   3.00    3.0
2023/08/18 08:52:15.000   31.027016372  121.440472714    18.3139   2  25   0.3012   0.3037   0.8820  -0.1347   0.2241  -0.3054   4.00    0.0
2023/08/18 08:52:16.000   31.027019469  121.440488259    18.3457   2  24   0.3021   0.2876   0.8819  -0.1002   0.2059  -0.2828   5.00    1.3
2023/08/18 08:52:17.000   31.027018767  121.440498284    16.0619   1  25   0.0045   0.0043   0.0130  -0.0022   0.0030  -0.0049   5.00    2.0
2023/08/18 08:52:18.000   31.027022183  121.440510834    16.0207   1  26   0.0036   0.0032   0.0105  -0.0013   0.0021  -0.0038   3.00    2.8
2023/08/18 08:52:19.000   31.027028853  121.440521976    18.1046   2  26   0.2941   0.2665   0.8652  -0.0932   0.1590  -0.2866   3.00    0.0
2023/08/18 08:52:20.000   31.027030087  121.440526897    17.9427   2  23   0.3158   0.2703   0.9492  -0.1091   0.1967  -0.2883   2.00    1.8
2023/08/18 08:52:21.000   31.027025797  121.440526878    15.1836   1  23   0.0042   0.0032   0.0104  -0.0022   0.0029  -0.0040   1.00    2.5
2023/08/18 08:52:22.000   31.027025692  121.440526903    15.1887   1  24   0.0039   0.0032   0.0097  -0.0021   0.0027  -0.0039   1.00    2.8
2023/08/18 08:52:23.000   31.027029254  121.440520796    18.1749   2  25   0.3233   0.2957   0.8727  -0.1625   0.2073  -0.3271   2.00    0.0
2023/08/18 08:52:24.000   31.027019333  121.440524532    17.3516   2  21   0.3912   0.3174   1.0350  -0.1554   0.2515  -0.3770   3.00    1.5
2023/08/18 08:52:25.000   31.027018683  121.440524437    16.5365   2  22   0.3666   0.3174   1.0613  -0.1321   0.1578  -0.3056   4.00    1.1
2023/08/18 08:52:26.000   31.027019178  121.440525050    16.4331   2  21   0.3843   0.3286   1.1820  -0.0873  -0.0833  -0.3703   5.00    1.1
2023/08/18 08:52:27.000   31.027018653  121.440532645    13.8742   2  20   0.3770   0.3237   1.0100  -0.1016   0.2093  -0.3330   6.00    1.4