%  GPST                  latitude(deg) longitude(deg)  height(m)   Q  ns   sdn(m)   sde(m)   sdu(m)  sdne(m)  sdeu(m)  sdun(m) age(s)  ratio
2023/08/18 08:20:21.000   31.025232829  121.440623400    19.7612   2  16   0.5312   0.5535   1.5897  -0.3539  -0.5242   0.3645   3.00    0.0
2023/08/18 08:20:22.000   31.025232198  121.440631791    20.3197   2  16   0.5312   0.5534   1.5897  -0.3539  -0.5240   0.3644   2.00    0.0
2023/08/18 08:20:23.000   31.025232460  121.440658236    15.1704   1  16   0.0053   0.0058   0.0167  -0.0033  -0.0066   0.0050   2.00    2.6
2023/08/18 08:20:24.000   31.025242281  121.440631723    21.6375   2  15   0.5077   0.5267   1.5102  -0.3263  -0.5168   0.3632   2.00    0.0
2023/08/18 08:20:25.000   31.025259367  121.440641638    18.7505   2  13   0.5131   0.6998   1.8275  -0.3414  -0.8469   0.4195   3.00    0.0
2023/08/18 08:20:26.000   31.025274042  121.440628107    18.5180   2  15   0.4912   0.6629   1.7420  -0.3426  -0.8493   0.5072   3.00    0.0
2023/08/18 08:20:27.000   31.025293898  121.440623687    18.5011   2  15   0.4367   0.6614   1.6886  -0.3284  -0.8384   0.4012   2.00    0.0
2023/08/18 08:20:28.000   31.025312207  121.440621465    17.6144   2  16   0.4872   0.5161   1.4405  -0.3025  -0.5601   0.4429   2.00    1.0
2023/08/18 08:20:29.000   31.025339822  121.440606747    17.6594   2  16   0.4872   0.5161   1.4405  -0.3024  -0.5600   0.4428   3.00    1.0
2023/08/18 08:20:30.000   31.025364001  121.440598119    17.1982   2  17   0.4408   0.4822   1.3821  -0.2308  -0.4887   0.3343   2.00    1.1
2023/08/18 08:20:31.000   31.025383520  121.440590862    15.2659   1  17   0.0054   0.0060   0.0191  -0.0030  -0.0070   0.0051   3.00    2.6
2023/08/18 08:20:32.000   31.025409360  121.440579559    15.2988   1  17   0.0048   0.0053   0.0152  -0.0025  -0.0055   0.0038   2.00    2.8
2023/08/18 08:20:33.000   31.025435943  121.440567644    15.3503   1  17   0.0053   0.0059   0.0166  -0.0028  -0.0061   0.0042   3.00    2.0
2023/08/18 08:20:34.000   31.025467027  121.440554332    16.9124   2  18   0.4225   0.4748   1.3437  -0.2069  -0.5154   0.3904   3.00    0.0
2023/08/18 08:20:35.000   31.025491873  121.440541836    16.7310   2  18   0.4225   0.4747   1.3438  -0.2069  -0.5153   0.3904   3.00    1.9
2023/08/18 08:20:36.000   31.025518283  121.440530211    15.4194   1  17   0.0052   0.0076   0.0221  -0.0030  -0.0105   0.0061   3.00    3.9
2023/08/18 08:20:37.000   31.025546630  121.440517870    15.4137   1  18   0.0044   0.0049   0.0139  -0.0021  -0.0053   0.0040   1.00    2.9
2023/08/18 08:20:38.000   31.025575243  121.440505522    15.4478   1  19   0.0045   0.0050   0.0147  -0.0026  -0.0060   0.0041   2.00    3.1
2023/08/18 08:20:39.000   31.025603880  121.440493419    15.4666   1  19   0.0049   0.0055   0.0161  -0.0029  -0.0066   0.0046   3.00    3.1
2023/08/18 08:20:40.000   31.025632280  121.440481288    15.5160   1  19   0.0045   0.0050   0.0147  -0.0026  -0.0060   0.0041   2.00    4.1
2023/08/18 08:20:41.000   31.025660421  121.440469809    15.6273   1  18   0.0049   0.0067   0.0185  -0.0030  -0.0089   0.0049   3.00    2.7
2023/08/18 08:20:42.000   31.025688338  121.440458006    15.6781   1  18   0.0045   0.0061   0.0169  -0.0028  -0.0080   0.0044   2.00    2.9
2023/08/18 08:20:43.000   31.025715538  121.440445596    15.8019   1  19   0.0049   0.0055   0.0161  -0.0029  -0.0066   0.0046   3.00    2.1
2023/08/18 08:20:44.000   31.025741750  121.440435170    15.5900   2  19   0.4011   0.4337   1.3276  -0.2473  -0.5448   0.3526   2.00    0.0
2023/08/18 08:20:45.000   31.025767677  121.440428194    14.5945   2  18   0.4020   0.5138   1.5218  -0.2618  -0.7083   0.3797   3.00    1.7
2023/08/18 08:20:46.000   31.025796403  121.440410841    15.9366   1  18   0.0045   0.0064   0.0201  -0.0034  -0.0096   0.0054   2.00    2.5
2023/08/18 08:20:47.000   31.025824937  121.440399398    15.8828   1  19   0.0048   0.0054   0.0160  -0.0031  -0.0068   0.0045   3.00    2.3
2023/08/18 08:20:48.000   31.025854018  121.440388074    14.9508   2  19   0.4011   0.4335   1.3278  -0.2473  -0.5446   0.3524   2.00    0.0
2023/08/18 08:20:49.000   31.025886107  121.440375001    15.9059   2  19   0.4011   0.4335   1.3279  -0.2473  -0.5446   0.3524   3.00    1.2
2023/08/18 08:20:50.000   31.025914912  121.440360527    15.9100   2  20   0.3980   0.3816   1.1792  -0.2255  -0.4135   0.3059   3.00    1.9
2023/08/18 08:20:51.000   31.025943318  121.440352110    14.7290   2  20   0.3980   0.3816   1.1792  -0.2255  -0.4135   0.3058   3.00    1.8
2023/08/18 08:20:52.000   31.025971086  121.440335984    15.7574   1  18   0.0050   0.0056   0.0153  -0.0036  -0.0068   0.0051   2.00    4.2
2023/08/18 08:20:53.000   31.026002981  121.440316284    16.8670   2  19   0.4011   0.4333   1.3281  -0.2472  -0.5443   0.3522   3.00    0.0
2023/08/18 08:20:54.000   31.026031166  121.440307101    15.5184   1  19   0.0048   0.0045   0.0133  -0.0031  -0.0050   0.0042   2.00    2.4
2023/08/18 08:20:55.000   31.026060572  121.440291716    16.7287   2  20   0.3980   0.3815   1.1793  -0.2254  -0.4132   0.3056   3.00    0.0
2023/08/18 08:20:56.000   31.026087548  121.440281139    15.4278   1  19   0.0044   0.0049   0.0146  -0.0028  -0.0061   0.0040   2.00    4.2
2023/08/18 08:20:57.000   31.026114002  121.440269490    15.4535   1  19   0.0049   0.0046   0.0140  -0.0031  -0.0047   0.0038   2.00    6.8
2023/08/18 08:20:58.000   31.026139832  121.440258612    15.3793   1  18   0.0056   0.0051   0.0153  -0.0037  -0.0051   0.0041   3.00    4.6
2023/08/18 08:20:59.000   31.026164128  121.440244615    15.1865   2  20   0.3980   0.3814   1.1794  -0.2254  -0.4130   0.3053   3.00    0.0
2023/08/18 08:21:00.000   31.026192215  121.440237120    15.2917   1  19   0.0052   0.0049   0.0145  -0.0033  -0.0055   0.0046   3.00    9.5
2023/08/18 08:21:01.000   31.026217823  121.440227486    15.2700   1  18   0.0046   0.0049   0.0165  -0.0030  -0.0056   0.0024   2.00    5.6
2023/08/18 08:21:02.000   31.026239072  121.440215756    15.2903   1  19   0.0051   0.0049   0.0155  -0.0032  -0.0041   0.0023   3.00    4.5
2023/08/18 08:21:03.000   31.026257401  121.440201221    15.3138   1  18   0.0054   0.0058   0.0168  -0.0038  -0.0075   0.0056   3.00    6.0
2023/08/18 08:21:04.000   31.026273701  121.440182463    15.2859   1  19   0.0049   0.0046   0.0140  -0.0031  -0.0047   0.0037   2.00    4.8
2023/08/18 08:21:05.000   31.026286913  121.440158471    15.2622   1  20   0.0042   0.0043   0.0132  -0.0026  -0.0042   0.0017   2.00    2.4
2023/08/18 08:21:06.000   31.026295662  121.440130274    15.2984   1  20   0.0044   0.0042   0.0129  -0.0025  -0.0046   0.0034   2.00    3.2
2023/08/18 08:21:07.000   31.026302097  121.440098123    15.2943   1  20   0.0048   0.0046   0.0141  -0.0027  -0.0050   0.0038   3.00    2.1
2023/08/18 08:21:08.000   31.026302061  121.440063029    14.7567   2  20   0.3667   0.3808   1.1513  -0.2197  -0.4074   0.2305   2.00    0.0
2023/08/18 08:21:09.000   31.026310715  121.440031820    15.2007   1  19   0.0044   0.0053   0.0157  -0.0029  -0.0066   0.0036   3.00    7.5
2023/08/18 08:21:10.000   31.026310787  121.439997643    15.2404   1  20   0.0044   0.0046   0.0138  -0.0027  -0.0049   0.0029   3.00    2.6
2023/08/18 08:21:11.000   31.026303400  121.439953535    17.4402   2  19   0.3668   0.4224   1.2463  -0.2217  -0.5031   0.2354   1.00    0.0
2023/08/18 08:21:12.000   31.026293378  121.439924019    17.0009   2  19   0.3668   0.4224   1.2463  -0.2217  -0.5030   0.2353   2.00    1.6
2023/08/18 08:21:13.000   31.026286830  121.439896540    16.1182   2  20   0.3980   0.3809   1.1798  -0.2252  -0.4121   0.3045   1.00    1.1
2023/08/18 08:21:14.000   31.026278865  121.439863125    14.5596   2  20   0.3980   0.3809   1.1798  -0.2252  -0.4120   0.3044   2.00    1.1
2023/08/18 08:21:15.000   31.026270525  121.439829217    15.2965   1  19   0.0050   0.0056   0.0154  -0.0021  -0.0057   0.0044   3.00    2.1
2023/08/18 08:21:16.000   31.026258538  121.439791590    14.4081   2  19   0.3981   0.4226   1.2734  -0.2276  -0.5073   0.3090   2.00    0.0
2023/08/18 08:21:17.000   31.026250374  121.439757860    15.2906   1  20   0.0048   0.0046   0.0141  -0.0027  -0.0050   0.0038   3.00    2.2
2023/08/18 08:21:18.000   31.026214302  121.439718721    11.6140   2  20   0.3667   0.3805   1.1514  -0.2195  -0.4066   0.2293   2.00    0.0
2023/08/18 08:21:19.000   31.026224604  121.439679149    15.3955   2  20   0.3998   0.3872   1.1799  -0.2309  -0.4118   0.3042   1.00    1.9
2023/08/18 08:21:20.000   31.026217951  121.439647106    15.2831   1  20   0.0046   0.0045   0.0133  -0.0020  -0.0040   0.0040   2.00    2.4
2023/08/18 08:21:21.000   31.026207219  121.439609773    15.3111   1  20   0.0044   0.0042   0.0129  -0.0025  -0.0046   0.0034   2.00    2.6
2023/08/18 08:21:22.000   31.026196080  121.439572372    15.3003   1  20   0.0044   0.0042   0.0129  -0.0025  -0.0046   0.0034   2.00    2.1
2023/08/18 08:21:23.000   31.026182017  121.439531076    16.0414   2  20   0.3998   0.3871   1.1801  -0.2309  -0.4116   0.3039   2.00    0.0
2023/08/18 08:21:24.000   31.026149690  121.439497104    12.0255   2  20   0.3685   0.3867   1.1514  -0.2252  -0.4062   0.2285   2.00    1.5
2023/08/18 08:21:25.000   31.026160830  121.439459824    15.3192   1  20   0.0050   0.0049   0.0145  -0.0022  -0.0044   0.0044   3.00    2.2
2023/08/18 08:21:26.000   31.026147413  121.439422232    15.3286   1  18   0.0050   0.0049   0.0150  -0.0035  -0.0020  -0.0022   2.00    2.9
2023/08/18 08:21:27.000   31.026130965  121.439378782    17.5187   2  19   0.4207   0.4163   1.2944  -0.2708  -0.3134   0.1707   3.00    0.0
2023/08/18 08:21:28.000   31.026117439  121.439341079    18.2906   2  19   0.4126   0.4131   1.3155  -0.2553  -0.3496   0.2448   3.00    1.7
2023/08/18 08:21:29.000   31.026108678  121.439304826    15.2847   1  18   0.0060   0.0050   0.0160  -0.0028  -0.0040   0.0040   3.00    2.9
2023/08/18 08:21:30.000   31.026095078  121.439263477    15.2102   1  17   0.0053   0.0051   0.0162  -0.0034  -0.0037   0.0025   3.00    2.3
2023/08/18 08:21:31.000   31.026077799  121.439215057    17.6495   2  18   0.4218   0.4287   1.3432  -0.2743  -0.3015   0.1900   3.00    0.0
2023/08/18 08:21:32.000   31.026069726  121.439177291    15.2318   1  16   0.0049   0.0049   0.0138  -0.0025  -0.0018   0.0023   3.00    2.1
2023/08/18 08:21:33.000   31.026057852  121.439132603    15.9875   2  18   0.4128   0.3840   1.1532  -0.2421  -0.1868  -0.0845   3.00    0.0
2023/08/18 08:21:34.000   31.026036617  121.439084549    15.7981   2  16   0.4327   0.4538   1.5503  -0.2332  -0.4682   0.2383   2.00    1.1
2023/08/18 08:21:35.000   31.026030173  121.439049330    14.2595   2  15   0.4255   0.4843   1.3408  -0.2669  -0.4171  -0.1803   3.00    1.1
2023/08/18 08:21:36.000   31.026012785  121.438995114    16.6321   2  15   0.5632   0.5381   1.7912  -0.2968  -0.4550  -0.5051   2.00    0.0
2023/08/18 08:21:37.000   31.025999297  121.438959126    15.1165   1  14   0.0056   0.0051   0.0160  -0.0033  -0.0019  -0.0035   2.00    4.2
2023/08/18 08:21:38.000   31.025988206  121.438906857    18.5383   2  17   0.4304   0.4009   1.1515  -0.2144  -0.1438   0.1398   2.00    0.0
2023/08/18 08:21:39.000   31.025959461  121.438872408    19.6126   2  13   0.5304   0.4460   1.2472  -0.2889   0.1679  -0.2941   2.00    1.1
2023/08/18 08:21:40.000   31.025964551  121.438823412    17.7173   2  14   0.4391   0.4685   1.3703  -0.2686  -0.2554   0.1348   3.00    1.0
2023/08/18 08:21:41.000   31.025938772  121.438789699    18.1612   2  12   0.5201   0.5314   1.6233  -0.3035  -0.4859  -0.3053   3.00    0.0
2023/08/18 08:21:42.000   31.025923342  121.438737752    17.2704   2  14   0.4623   0.4140   1.2404  -0.2722  -0.1566   0.0359   2.00    1.0
2023/08/18 08:21:43.000   31.025903559  121.438691281    19.0872   2  10   0.5516   0.4994   1.5195  -0.3367  -0.3614   0.1129   1.00    1.0
2023/08/18 08:21:44.000   31.025892266  121.438652864    18.3513   2  12   0.5391   0.5181   1.5718  -0.4050   0.3275  -0.5091   2.00    0.0
2023/08/18 08:21:45.000   31.025875259  121.438615565    15.6264   2  13   0.7084   0.6118   1.8363  -0.5527   0.5636  -0.7108   1.00    0.0
2023/08/18 08:21:46.000   31.025861121  121.438565168    19.2795   2  10   0.6836   0.7574   2.0370  -0.5907   0.4177  -0.7104   2.00    0.0
2023/08/18 08:21:47.000   31.025854078  121.438528052    17.4116   2  10   0.5524   0.6268   1.8166  -0.4031  -0.3447  -0.5819   1.00    0.0
2023/08/18 08:21:48.000   31.025848299  121.438488773    16.7705   2   6   0.8578   1.0620   4.1626   0.4065  -1.6598  -0.9480   2.00    0.0
2023/08/18 08:21:49.000   31.025857260  121.438456233     9.5758   2   7   1.3626   0.9336   4.8024   0.7725  -1.7143  -2.3285   3.00    0.0
2023/08/18 08:21:50.000   31.025818876  121.438410779    14.0950   2   9   0.7866   0.8857   2.9526   0.4257  -1.2407  -1.1820   2.00    0.0
2023/08/18 08:21:51.000   31.025806116  121.438381567    10.8492   2  11   0.5678   0.5976   2.0374  -0.3683  -0.4707  -0.5166   3.00    0.0
2023/08/18 08:21:52.000   31.025789538  121.438315336    15.4801   2   9   0.6069   0.7282   2.4071  -0.2155  -0.8689  -0.7360   2.00    0.0
2023/08/18 08:21:53.000   31.025777512  121.438292214     9.8010   2  10   0.5839   0.5810   1.9766  -0.3455   0.1185  -0.4968   3.00    0.0
2023/08/18 08:21:54.000   31.025763303  121.438248797    10.4499   2  10   0.5824   0.5722   1.8433  -0.3516  -0.2403  -0.5260   3.00    0.0
2023/08/18 08:21:55.000   31.025751932  121.438200515    11.7790   2  12   0.5641   0.5339   1.7650  -0.3917   0.2269  -0.4469   2.00    0.0
2023/08/18 08:21:56.000   31.025740220  121.438159588    15.0626   2  13   0.5805   0.5420   1.6226  -0.3641   0.4077  -0.4494   2.00    0.0
2023/08/18 08:21:57.000   31.025725768  121.438112647    15.2610   1  15   0.0057   0.0057   0.0172  -0.0034   0.0036  -0.0033   2.00    2.1
2023/08/18 08:21:58.000   31.025707278  121.438066000    14.6597   2  12   0.6728   0.5682   1.7826  -0.3985   0.5370  -0.5077   2.00    0.0
2023/08/18 08:21:59.000   31.025688223  121.438029458    17.5220   2  13   0.5425   0.5849   1.7754  -0.2889  -0.3327  -0.4038   2.00    0.0
2023/08/18 08:22:00.000   31.025685609  121.437997904    16.6710   2  13   0.5848   0.5381   1.6349  -0.3461   0.3951  -0.4743   3.00    0.0
2023/08/18 08:22:01.000   31.025669084  121.437959290    17.7166   2  15   0.4800   0.5404   1.7122  -0.2505  -0.3364  -0.2439   3.00    0.0
2023/08/18 08:22:02.000   31.025663478  121.437931738    15.8194   2  13   0.5374   0.5607   1.7985  -0.3423  -0.0520  -0.4409   2.00    0.0
2023/08/18 08:22:03.000   31.025660685  121.437890046    17.3338   2  16   0.4308   0.4440   1.2957  -0.2354  -0.2290  -0.0928   3.00    1.0
2023/08/18 08:22:04.000   31.025654868  121.437872974    18.9319   2  17   0.3969   0.4550   1.2916  -0.2254  -0.2042   0.1105   2.00    1.5