%  GPST                  latitude(deg) longitude(deg)  height(m)   Q  ns   sdn(m)   sde(m)   sdu(m)  sdne(m)  sdeu(m)  sdun(m) age(s)  ratio
2023/08/18 08:27:43.000   31.025297961  121.440631227    13.3729   2  17   0.4542   0.5866   1.7973  -0.3504  -0.8292   0.4592   3.00    0.0
2023/08/18 08:27:44.000   31.025310447  121.440631229     9.8901   2  17   0.4518   0.5534   1.7012  -0.3372  -0.7581   0.4287   3.00    0.0
2023/08/18 08:27:45.000   31.025336209  121.440624302     0.0646   2  17   0.4052   0.5618   1.6540  -0.2573  -0.7909   0.3493   3.00    0.0
2023/08/18 08:27:46.000   31.025349691  121.440600419    13.8403   2  17   0.4107   0.6006   1.8486  -0.2675  -0.8644   0.3153   2.00    0.0
2023/08/18 08:27:47.000   31.025371803  121.440589498    15.0250   2  18   0.4107   0.5228   1.7024  -0.2668  -0.7307   0.3138   2.00    0.0
2023/08/18 08:27:48.000   31.025390389  121.440578453    15.6739   2  18   0.4103   0.4983   1.6263  -0.2612  -0.6741   0.2983   3.00    0.0
2023/08/18 08:27:49.000   31.025410053  121.440575609    13.9144   2  18   0.4103   0.4983   1.6263  -0.2611  -0.6739   0.2982   2.00    0.0
2023/08/18 08:27:50.000   31.025435521  121.440572642    14.8587   2  17   0.4129   0.5008   1.6482  -0.2565  -0.6637   0.3182   3.00    0.0
2023/08/18 08:27:51.000   31.025457981  121.440558510    13.2568   2  18   0.4069   0.4854   1.6227  -0.2496  -0.6648   0.2884   2.00    0.0
2023/08/18 08:27:52.000   31.025478277  121.440546489    13.5923   2  18   0.4069   0.4853   1.6227  -0.2496  -0.6647   0.2882   2.00    0.0
2023/08/18 08:27:53.000   31.025505311  121.440535547    15.4193   1  18   0.0048   0.0061   0.0188  -0.0031  -0.0085   0.0044   3.00    3.0
2023/08/18 08:27:54.000   31.025526208  121.440527998    13.7346   2  18   0.4069   0.4852   1.6226  -0.2495  -0.6645   0.2879   2.00    0.0
2023/08/18 08:27:55.000   31.025557279  121.440513277    13.4926   2  18   0.4069   0.4851   1.6226  -0.2495  -0.6644   0.2878   2.00    0.0
2023/08/18 08:27:56.000   31.025583199  121.440503188    15.4731   1  18   0.0048   0.0061   0.0188  -0.0031  -0.0085   0.0044   3.00    5.2
2023/08/18 08:27:57.000   31.025609259  121.440492889    15.4896   1  18   0.0044   0.0055   0.0171  -0.0028  -0.0077   0.0039   2.00    4.4
2023/08/18 08:27:58.000   31.025634900  121.440481742    15.6069   1  18   0.0044   0.0055   0.0171  -0.0028  -0.0076   0.0039   2.00    2.7
2023/08/18 08:27:59.000   31.025660386  121.440471233    15.6621   1  18   0.0048   0.0061   0.0188  -0.0031  -0.0085   0.0044   3.00    3.6
2023/08/18 08:28:00.000   31.025685885  121.440460116    15.6504   1  18   0.0044   0.0055   0.0171  -0.0028  -0.0076   0.0039   2.00    3.9
2023/08/18 08:28:01.000   31.025711238  121.440448854    15.7011   1  18   0.0044   0.0055   0.0171  -0.0028  -0.0076   0.0039   2.00    4.0
2023/08/18 08:28:02.000   31.025736130  121.440437729    15.7753   1  18   0.0048   0.0061   0.0188  -0.0031  -0.0085   0.0044   3.00    3.5
2023/08/18 08:28:03.000   31.025759261  121.440427365    16.6940   2  18   0.3844   0.4825   1.6195  -0.2370  -0.6667   0.3081   2.00    0.0
2023/08/18 08:28:04.000   31.025784060  121.440416317    17.3667   2  18   0.3844   0.4825   1.6194  -0.2369  -0.6665   0.3080   2.00    0.0
2023/08/18 08:28:05.000   31.025812077  121.440405797    15.8883   1  18   0.0038   0.0051   0.0154  -0.0025  -0.0069   0.0024   1.00    2.1
2023/08/18 08:28:06.000   31.025833190  121.440399637    15.7711   2  18   0.3844   0.4823   1.6193  -0.2369  -0.6663   0.3078   2.00    0.0
2023/08/18 08:28:07.000   31.025861154  121.440382664    14.6673   2  18   0.3844   0.4823   1.6193  -0.2369  -0.6662   0.3078   3.00    0.0
2023/08/18 08:28:08.000   31.025885651  121.440370508    14.5754   2  18   0.3844   0.4822   1.6192  -0.2369  -0.6661   0.3077   2.00    0.0
2023/08/18 08:28:09.000   31.025918431  121.440358374    15.8914   1  18   0.0048   0.0061   0.0188  -0.0031  -0.0085   0.0043   3.00    3.1
2023/08/18 08:28:10.000   31.025941813  121.440347395    16.2872   2  18   0.3844   0.4821   1.6191  -0.2368  -0.6659   0.3075   1.00    0.0
2023/08/18 08:28:11.000   31.025968460  121.440334615    15.8990   2  18   0.3845   0.4820   1.6191  -0.2368  -0.6658   0.3074   2.00    0.0
2023/08/18 08:28:12.000   31.026001706  121.440319863    15.7228   1  18   0.0044   0.0055   0.0171  -0.0028  -0.0076   0.0039   2.00    2.5
2023/08/18 08:28:13.000   31.026030787  121.440306725    15.6146   1  18   0.0044   0.0055   0.0171  -0.0028  -0.0076   0.0039   2.00    2.9
2023/08/18 08:28:14.000   31.026059537  121.440293835    15.5547   1  18   0.0044   0.0055   0.0171  -0.0028  -0.0076   0.0039   2.00    3.1
2023/08/18 08:28:15.000   31.026087790  121.440281258    15.5071   1  18   0.0048   0.0061   0.0188  -0.0031  -0.0085   0.0043   3.00    2.7
2023/08/18 08:28:16.000   31.026110253  121.440270651    13.2473   2  17   0.4264   0.4978   1.7156  -0.2729  -0.6538   0.1219   2.00    0.0
2023/08/18 08:28:17.000   31.026135127  121.440257988    15.0209   2  16   0.4598   0.5558   1.7449  -0.3508  -0.7271   0.3590   3.00    0.0
2023/08/18 08:28:18.000   31.026165146  121.440249197    13.4157   2  18   0.3991   0.4962   1.6196  -0.2623  -0.6697   0.3158   3.00    0.0
2023/08/18 08:28:19.000   31.026195170  121.440233280    13.9739   2  18   0.4070   0.4835   1.6218  -0.2487  -0.6616   0.2842   3.00    0.0
2023/08/18 08:28:20.000   31.026223727  121.440220847    13.8399   2  18   0.4071   0.4834   1.6217  -0.2487  -0.6615   0.2840   3.00    0.0
2023/08/18 08:28:21.000   31.026252654  121.440207606    15.2945   1  18   0.0045   0.0055   0.0180  -0.0029  -0.0075   0.0033   2.00    3.9
2023/08/18 08:28:22.000   31.026276947  121.440196421    15.2577   1  18   0.0045   0.0055   0.0180  -0.0029  -0.0075   0.0033   2.00    4.0
2023/08/18 08:28:23.000   31.026300497  121.440185199    15.2705   1  18   0.0048   0.0060   0.0188  -0.0031  -0.0085   0.0043   3.00    3.0
2023/08/18 08:28:24.000   31.026324966  121.440174820    10.4732   2  18   0.3813   0.4807   1.5371  -0.2342  -0.6729   0.3454   3.00    0.0
2023/08/18 08:28:25.000   31.026342306  121.440182042    11.0988   2  17   0.4303   0.4850   1.6302  -0.2605  -0.6987   0.4770   2.00    0.0
2023/08/18 08:28:26.000   31.026358012  121.440195219    11.9956   2  15   0.5016   0.4876   1.7645  -0.2469  -0.6935   0.6080   2.00    0.0
2023/08/18 08:28:27.000   31.026370427  121.440216998    15.2615   1  17   0.0049   0.0055   0.0178  -0.0026  -0.0076   0.0046   2.00    2.1
2023/08/18 08:28:28.000   31.026378984  121.440240352    10.7077   2  17   0.4846   0.4861   1.7159  -0.2563  -0.7042   0.5628   1.00    0.0
2023/08/18 08:28:29.000   31.026391129  121.440263121    11.5070   2  16   0.5454   0.4871   1.7313  -0.2404  -0.6990   0.6118   2.00    0.0
2023/08/18 08:28:30.000   31.026412673  121.440283157    15.2733   1  17   0.0051   0.0055   0.0171  -0.0025  -0.0076   0.0038   2.00    3.0
2023/08/18 08:28:31.000   31.026426678  121.440308699    15.2641   1  17   0.0051   0.0055   0.0171  -0.0025  -0.0076   0.0038   2.00    3.2
2023/08/18 08:28:32.000   31.026431960  121.440332527    13.9762   2  16   0.5181   0.4866   1.6410  -0.2349  -0.6926   0.5294   2.00    0.0
2023/08/18 08:28:33.000   31.026455153  121.440358809    15.2092   1  17   0.0056   0.0061   0.0188  -0.0028  -0.0085   0.0042   3.00    2.1
2023/08/18 08:28:34.000   31.026469785  121.440382812    15.2145   1  17   0.0056   0.0061   0.0188  -0.0028  -0.0085   0.0042   3.00    2.8
2023/08/18 08:28:35.000   31.026484768  121.440406628    15.1807   1  17   0.0051   0.0055   0.0171  -0.0025  -0.0076   0.0038   2.00    2.4
2023/08/18 08:28:36.000   31.026493500  121.440426451    15.0396   2  16   0.4351   0.4972   1.5502  -0.2008  -0.6888   0.3407   2.00    0.0
2023/08/18 08:28:37.000   31.026510767  121.440450186    15.8318   2  17   0.4350   0.4839   1.5370  -0.2041  -0.6718   0.3441   1.00    1.0
2023/08/18 08:28:38.000   31.026522843  121.440471789    16.4063   2  17   0.4350   0.4838   1.5370  -0.2041  -0.6717   0.3442   2.00    1.1
2023/08/18 08:28:39.000   31.026547239  121.440500502    15.2829   1  17   0.0063   0.0048   0.0161  -0.0030  -0.0062   0.0062   2.00    3.4
2023/08/18 08:28:40.000   31.026563203  121.440524072    15.2431   1  17   0.0056   0.0053   0.0164  -0.0029  -0.0065   0.0044   3.00    2.2
2023/08/18 08:28:41.000   31.026579638  121.440547681    15.2195   1  19   0.0051   0.0041   0.0131  -0.0024  -0.0042   0.0035   2.00    3.1
2023/08/18 08:28:42.000   31.026596215  121.440571310    15.1983   1  20   0.0051   0.0041   0.0130  -0.0017  -0.0032   0.0012   3.00    2.5
2023/08/18 08:28:43.000   31.026612915  121.440595013    15.1840   1  20   0.0044   0.0036   0.0112  -0.0015  -0.0028   0.0012   1.00    2.9
2023/08/18 08:28:44.000   31.026629495  121.440618774    15.1625   1  20   0.0047   0.0038   0.0119  -0.0016  -0.0030   0.0012   2.00    3.1
2023/08/18 08:28:45.000   31.026646159  121.440642170    15.1708   1  20   0.0051   0.0041   0.0130  -0.0017  -0.0032   0.0012   3.00    2.6
2023/08/18 08:28:46.000   31.026663224  121.440664795    15.2023   1  19   0.0052   0.0042   0.0131  -0.0015  -0.0030   0.0018   3.00    2.4
2023/08/18 08:28:47.000   31.026680733  121.440686920    15.2077   1  20   0.0052   0.0042   0.0138  -0.0019  -0.0026  -0.0017   3.00    2.4
2023/08/18 08:28:48.000   31.026698655  121.440708600    15.2366   1  17   0.0059   0.0040   0.0138  -0.0020  -0.0031   0.0048   1.00    2.1
2023/08/18 08:28:49.000   31.026716993  121.440730001    15.1858   1  17   0.0067   0.0043   0.0157  -0.0019  -0.0029   0.0063   2.00    7.2
2023/08/18 08:28:50.000   31.026735958  121.440751262    15.2127   1  19   0.0054   0.0043   0.0145  -0.0016  -0.0014   0.0016   3.00    4.8
2023/08/18 08:28:51.000   31.026754942  121.440772279    15.2260   1  19   0.0054   0.0043   0.0145  -0.0016  -0.0014   0.0016   3.00    5.8
2023/08/18 08:28:52.000   31.026774301  121.440793182    15.2091   1  19   0.0049   0.0040   0.0133  -0.0015  -0.0013   0.0016   2.00    5.2
2023/08/18 08:28:53.000   31.026790663  121.440810138    16.9531   2  19   0.4200   0.3585   1.2082  -0.1083  -0.1492   0.2045   3.00    0.0
2023/08/18 08:28:54.000   31.026821323  121.440821124    10.9780   2  19   0.4092   0.3477   1.0987  -0.1084  -0.2569   0.1976   2.00    1.8
2023/08/18 08:28:55.000   31.026832451  121.440850592    17.6261   2  19   0.4131   0.3547   1.1644  -0.1252  -0.1974   0.1318   3.00    1.7
2023/08/18 08:28:56.000   31.026850890  121.440878936    15.1823   1  19   0.0049   0.0042   0.0140  -0.0013  -0.0028   0.0010   2.00    3.4
2023/08/18 08:28:57.000   31.026870814  121.440899685    15.1845   1  18   0.0049   0.0041   0.0133  -0.0013  -0.0013   0.0016   2.00    5.7
2023/08/18 08:28:58.000   31.026890810  121.440920116    15.1441   1  20   0.0048   0.0038   0.0130  -0.0009   0.0014  -0.0004   2.00    3.1
2023/08/18 08:28:59.000   31.026910999  121.440939665    15.1801   1  18   0.0053   0.0047   0.0145  -0.0007   0.0030  -0.0008   3.00    7.9
2023/08/18 08:29:00.000   31.026931494  121.440958656    15.1751   1  19   0.0052   0.0040   0.0131  -0.0004  -0.0016   0.0019   3.00    7.6
2023/08/18 08:29:01.000   31.026952503  121.440976947    15.2035   1  19   0.0048   0.0037   0.0121  -0.0005  -0.0015   0.0018   2.00    4.7
2023/08/18 08:29:02.000   31.026973462  121.440995020    15.1759   1  20   0.0044   0.0033   0.0112   0.0007   0.0005   0.0012   1.00    4.3
2023/08/18 08:29:03.000   31.026994510  121.441013244    15.1754   1  20   0.0047   0.0035   0.0118   0.0008   0.0006   0.0011   2.00    2.6
2023/08/18 08:29:04.000   31.027015713  121.441031126    15.2025   1  19   0.0048   0.0037   0.0121  -0.0005  -0.0015   0.0018   2.00    4.1
2023/08/18 08:29:05.000   31.027036999  121.441048785    15.2017   1  18   0.0048   0.0037   0.0121   0.0004  -0.0015   0.0018   2.00    3.6
2023/08/18 08:29:06.000   31.027049757  121.441071311    18.3608   2  19   0.4105   0.3313   1.1028   0.0189  -0.1514   0.2050   3.00    0.0
2023/08/18 08:29:07.000   31.027070863  121.441088811    17.5793   2  19   0.4105   0.3313   1.1029   0.0186  -0.1513   0.2050   2.00    1.4
2023/08/18 08:29:08.000   31.027090308  121.441105916    16.1789   2  19   0.4105   0.3313   1.1029   0.0184  -0.1512   0.2051   1.00    1.6
2023/08/18 08:29:09.000   31.027124971  121.441119683    15.1176   1  17   0.0052   0.0039   0.0157  -0.0015  -0.0036   0.0041   2.00    4.8
2023/08/18 08:29:10.000   31.027147156  121.441137906    15.0870   1  17   0.0052   0.0039   0.0131  -0.0014  -0.0028   0.0035   2.00    4.1
2023/08/18 08:29:11.000   31.027146028  121.441152942    15.6035   2  18   0.4643   0.3436   1.1266   0.1416  -0.0445   0.3028   3.00    0.0
2023/08/18 08:29:12.000   31.027191721  121.441171064    15.1325   1  17   0.0056   0.0044   0.0125   0.0021   0.0022   0.0033   2.00    2.8
2023/08/18 08:29:13.000   31.027214063  121.441186440    15.1295   1  19   0.0059   0.0044   0.0133   0.0024   0.0029   0.0030   3.00    2.0
2023/08/18 08:29:14.000   31.027236543  121.441201429    15.1189   1  18   0.0068   0.0044   0.0147   0.0021   0.0024   0.0055   3.00    4.9
2023/08/18 08:29:15.000   31.027259588  121.441215956    15.1556   1  19   0.0054   0.0036   0.0121   0.0018   0.0016   0.0027   2.00    2.4
2023/08/18 08:29:16.000   31.027265111  121.441226150    14.8999   2  19   0.4589   0.3304   1.1028   0.1633   0.1419   0.2747   2.00    0.0
2023/08/18 08:29:17.000   31.027305948  121.441243668    15.1518   1  19   0.0059   0.0039   0.0131   0.0021   0.0018   0.0028   3.00    2.9
2023/08/18 08:29:18.000   31.027329112  121.441257317    15.1602   1  19   0.0054   0.0036   0.0121   0.0018   0.0017   0.0027   2.00    6.5
2023/08/18 08:29:19.000   31.027352535  121.441271029    15.1882   1  19   0.0059   0.0039   0.0131   0.0021   0.0018   0.0028   3.00    2.2
2023/08/18 08:29:20.000   31.027375846  121.441285064    15.1507   1  18   0.0062   0.0041   0.0136   0.0018   0.0022   0.0051   2.00   10.0
2023/08/18 08:29:21.000   31.027399364  121.441299157    15.1413   1  18   0.0062   0.0041   0.0136   0.0018   0.0022   0.0051   2.00    3.9
2023/08/18 08:29:22.000   31.027423006  121.441313230    15.1121   1  18   0.0072   0.0045   0.0159   0.0017   0.0015   0.0066   3.00    6.6
2023/08/18 08:29:23.000   31.027446823  121.441326563    15.1117   1  18   0.0078   0.0046   0.0167   0.0008  -0.0025   0.0067   4.00    8.5
2023/08/18 08:29:24.000   31.027471158  121.441339403    15.0977   1  19   0.0073   0.0050   0.0163   0.0023   0.0006   0.0036   5.00    2.6
2023/08/18 08:29:25.000   31.027495495  121.441351874    15.0584   1  18   0.0097   0.0056   0.0205   0.0013  -0.0030   0.0082   6.00    4.9
2023/08/18 08:29:26.000   31.027513841  121.441363604    16.7438   2  19   0.4591   0.3302   1.1039   0.1630   0.1434   0.2761   2.00    0.0
2023/08/18 08:29:27.000   31.027544610  121.441374924    15.0839   1  17   0.0063   0.0041   0.0137   0.0020  -0.0009   0.0029   3.00    3.5
2023/08/18 08:29:28.000   31.027568799  121.441385872    15.1453   1  17   0.0058   0.0042   0.0128   0.0020   0.0018   0.0031   2.00    2.5
2023/08/18 08:29:29.000   31.027592991  121.441396493    15.1746   1  18   0.0065   0.0045   0.0140   0.0020   0.0025   0.0042   3.00    3.2
2023/08/18 08:29:30.000   31.027616826  121.441406785    15.1266   1  16   0.0075   0.0042   0.0151   0.0001   0.0005   0.0069   2.00    2.8
2023/08/18 08:29:31.000   31.027641055  121.441416985    15.1067   1  16   0.0065   0.0043   0.0125   0.0012   0.0020   0.0035   2.00    2.4
2023/08/18 08:29:32.000   31.027665671  121.441426704    15.1174   1  18   0.0064   0.0039   0.0139   0.0003  -0.0021   0.0055   2.00    3.3
2023/08/18 08:29:33.000   31.027690567  121.441435934    15.1363   1  18   0.0060   0.0046   0.0136   0.0021   0.0023   0.0034   3.00    2.3
2023/08/18 08:29:34.000   31.027715767  121.441444637    15.1299   1  17   0.0078   0.0052   0.0169   0.0014  -0.0008   0.0068   4.00    2.1
2023/08/18 08:29:35.000   31.027741294  121.441452987    15.1078   1  17   0.0064   0.0043   0.0141   0.0010  -0.0006   0.0056   2.00    2.4
2023/08/18 08:29:36.000   31.027759472  121.441463643    16.2881   2  18   0.5419   0.3712   1.3340   0.1384   0.1130   0.5376   2.00    0.0
2023/08/18 08:29:37.000   31.027792631  121.441469194    15.1414   1  18   0.0062   0.0041   0.0136   0.0018   0.0022   0.0051   2.00    4.7
2023/08/18 08:29:38.000   31.027813308  121.441479113    16.8943   2  17   0.4687   0.4359   1.1987   0.2291   0.2825   0.3205   3.00    0.0
2023/08/18 08:29:39.000   31.027844131  121.441485328    15.1089   1  16   0.0082   0.0052   0.0167   0.0018   0.0031   0.0079   3.00    4.2
2023/08/18 08:29:40.000   31.027869869  121.441493385    15.1278   1  16   0.0070   0.0045   0.0145   0.0013   0.0026   0.0068   1.00    4.9
2023/08/18 08:29:41.000   31.027882385  121.441504816    15.4549   2  17   0.5482   0.4251   1.3686   0.1898   0.2752   0.5608   2.00    0.0
2023/08/18 08:29:42.000   31.027920788  121.441509046    15.0866   1  16   0.0082   0.0052   0.0167   0.0018   0.0031   0.0079   3.00    6.4
2023/08/18 08:29:43.000   31.027946215  121.441516013    15.0984   1  16   0.0091   0.0058   0.0184   0.0021   0.0036   0.0087   4.00    4.7
2023/08/18 08:29:44.000   31.027971639  121.441522313    15.0739   1  17   0.0091   0.0064   0.0200   0.0031   0.0044   0.0085   5.00    2.3
2023/08/18 08:29:45.000   31.027997361  121.441527943    15.0899   1  16   0.0091   0.0058   0.0184   0.0021   0.0036   0.0087   4.00    5.6
2023/08/18 08:29:46.000   31.028023061  121.441533081    15.1119   1  16   0.0107   0.0057   0.0206  -0.0036  -0.0055   0.0104   5.00    6.4
2023/08/18 08:29:47.000   31.028048965  121.441537990    15.1421   1  16   0.0079   0.0043   0.0156  -0.0028  -0.0042   0.0078   2.00    4.1