%  GPST                  latitude(deg) longitude(deg)  height(m)   Q  ns   sdn(m)   sde(m)   sdu(m)  sdne(m)  sdeu(m)  sdun(m) age(s)  ratio
2023/08/18 08:29:48.000   31.028074668  121.441542834    15.1007   1  17   0.0079   0.0042   0.0156  -0.0015  -0.0027   0.0070   3.00    6.7
2023/08/18 08:29:49.000   31.028100953  121.441547096    15.1173   1  17   0.0079   0.0042   0.0156  -0.0015  -0.0027   0.0070   3.00    4.4
2023/08/18 08:29:50.000   31.028126969  121.441551333    15.1170   1  17   0.0065   0.0045   0.0153  -0.0026  -0.0035   0.0065   2.00    4.2
2023/08/18 08:29:51.000   31.028153002  121.441555211    15.1124   1  17   0.0071   0.0049   0.0167  -0.0028  -0.0038   0.0071   3.00    4.7
2023/08/18 08:29:52.000   31.028178972  121.441559280    15.1237   1  17   0.0071   0.0049   0.0167  -0.0028  -0.0038   0.0071   3.00    4.5
2023/08/18 08:29:53.000   31.028204900  121.441562915    15.1251   1  17   0.0079   0.0054   0.0184  -0.0030  -0.0042   0.0078   4.00    5.5
2023/08/18 08:29:54.000   31.028231019  121.441565215    15.1321   1  18   0.0085   0.0050   0.0187  -0.0028  -0.0037   0.0076   5.00    7.2
2023/08/18 08:29:55.000   31.028257397  121.441566520    15.1342   1  18   0.0069   0.0041   0.0153  -0.0024  -0.0031   0.0062   3.00    6.3
2023/08/18 08:29:56.000   31.028283754  121.441567197    15.1386   1  18   0.0069   0.0041   0.0153  -0.0024  -0.0031   0.0062   3.00    9.5
2023/08/18 08:29:57.000   31.028310461  121.441567599    15.1191   1  18   0.0069   0.0041   0.0153  -0.0024  -0.0031   0.0062   3.00    6.8
2023/08/18 08:29:58.000   31.028337122  121.441568276    15.1191   1  18   0.0063   0.0038   0.0141  -0.0022  -0.0029   0.0057   2.00    9.6
2023/08/18 08:29:59.000   31.028363574  121.441569319    15.1115   1  18   0.0060   0.0041   0.0150  -0.0025  -0.0032   0.0053   3.00    6.1
2023/08/18 08:30:00.000   31.028390248  121.441570545    15.1091   1  18   0.0052   0.0037   0.0131  -0.0023  -0.0025   0.0044   1.00    3.3
2023/08/18 08:30:01.000   31.028410372  121.441576455    15.1630   2  18   0.4635   0.3434   1.2629  -0.1874  -0.2710   0.4415   2.00    0.0
2023/08/18 08:30:02.000   31.028444416  121.441572421    15.1358   1  18   0.0057   0.0044   0.0169  -0.0025  -0.0047   0.0058   3.00    2.3
2023/08/18 08:30:03.000   31.028471488  121.441572440    15.0958   1  18   0.0060   0.0041   0.0150  -0.0025  -0.0032   0.0053   3.00    6.1
2023/08/18 08:30:04.000   31.028498972  121.441571916    15.0861   1  18   0.0066   0.0045   0.0165  -0.0027  -0.0034   0.0058   4.00    6.4
2023/08/18 08:30:05.000   31.028526217  121.441570869    15.0705   1  19   0.0068   0.0049   0.0181  -0.0023  -0.0033   0.0058   5.00    3.0
2023/08/18 08:30:06.000   31.028553793  121.441569375    15.0626   1  19   0.0068   0.0049   0.0181  -0.0023  -0.0033   0.0058   5.00    3.0
2023/08/18 08:30:07.000   31.028581034  121.441567769    15.0492   1  19   0.0068   0.0049   0.0181  -0.0023  -0.0033   0.0058   5.00    3.1
2023/08/18 08:30:08.000   31.028607955  121.441566186    15.0856   1  19   0.0050   0.0037   0.0136  -0.0019  -0.0026   0.0043   2.00    2.3
2023/08/18 08:30:09.000   31.028634618  121.441564234    15.0819   1  18   0.0054   0.0039   0.0133  -0.0025  -0.0028   0.0041   2.00   10.5
2023/08/18 08:30:10.000   31.028660818  121.441561852    15.0838   1  19   0.0044   0.0039   0.0125  -0.0020  -0.0025  -0.0009   2.00    3.0
2023/08/18 08:30:11.000   31.028687158  121.441558450    15.0602   1  19   0.0042   0.0042   0.0129  -0.0019  -0.0034  -0.0003   2.00    4.5
2023/08/18 08:30:12.000   31.028713399  121.441554346    15.1007   1  19   0.0048   0.0045   0.0152  -0.0026  -0.0044   0.0031   3.00    2.8
2023/08/18 08:30:13.000   31.028739595  121.441550055    15.0995   1  20   0.0053   0.0048   0.0170  -0.0027  -0.0052   0.0039   4.00    2.0
2023/08/18 08:30:14.000   31.028765864  121.441545784    15.0898   1  20   0.0058   0.0053   0.0183  -0.0030  -0.0058   0.0038   5.00    2.6
2023/08/18 08:30:15.000   31.028792098  121.441541307    15.0945   1  20   0.0045   0.0042   0.0131  -0.0026  -0.0039   0.0028   2.00    2.7
2023/08/18 08:30:16.000   31.028818311  121.441536572    15.0748   1  18   0.0043   0.0046   0.0139  -0.0029  -0.0050   0.0031   1.00    4.1
2023/08/18 08:30:17.000   31.028844376  121.441531634    15.0952   1  19   0.0042   0.0044   0.0138  -0.0027  -0.0052   0.0032   1.00    3.2
2023/08/18 08:30:18.000   31.028870340  121.441526305    15.0958   1  19   0.0045   0.0047   0.0148  -0.0029  -0.0055   0.0035   2.00    3.1
2023/08/18 08:30:19.000   31.028895974  121.441520782    15.0841   1  20   0.0044   0.0041   0.0130  -0.0025  -0.0041   0.0029   2.00    3.8
2023/08/18 08:30:20.000   31.028919553  121.441517016    16.3259   2  21   0.3561   0.3363   1.0861  -0.1582  -0.2778   0.1292   1.00    0.0
2023/08/18 08:30:21.000   31.028944612  121.441513889    15.5126   2  22   0.3758   0.3124   1.0573  -0.1317  -0.2099   0.1141   2.00    1.8
2023/08/18 08:30:22.000   31.028972052  121.441502195    15.2530   1  22   0.0047   0.0035   0.0117  -0.0012  -0.0019   0.0016   2.00    2.0
2023/08/18 08:30:23.000   31.028998737  121.441495892    16.5936   2  22   0.3544   0.3113   1.0566  -0.1434  -0.2123   0.0881   3.00    0.0
2023/08/18 08:30:24.000   31.029022361  121.441485147    16.5994   2  22   0.3544   0.3113   1.0566  -0.1434  -0.2123   0.0881   4.00    1.3
2023/08/18 08:30:25.000   31.029051533  121.441477249    15.2451   1  21   0.0047   0.0040   0.0161  -0.0024  -0.0042   0.0029   3.00    2.5
2023/08/18 08:30:26.000   31.029078349  121.441467820    15.2999   1  21   0.0048   0.0041   0.0137  -0.0025  -0.0032   0.0023   3.00    2.4
2023/08/18 08:30:27.000   31.029104905  121.441458798    15.3074   1  20   0.0042   0.0040   0.0124  -0.0020  -0.0024  -0.0022   2.00    2.3
2023/08/18 08:30:28.000   31.029128683  121.441450527    17.0944   2  21   0.3628   0.3369   1.0761  -0.1746  -0.1439  -0.0853   1.00    0.0
2023/08/18 08:30:29.000   31.029158200  121.441441180    15.3854   1  20   0.0045   0.0040   0.0126  -0.0026  -0.0027   0.0019   2.00    2.4
2023/08/18 08:30:30.000   31.029178263  121.441435985    15.6378   2  21   0.3981   0.3291   1.1346  -0.1760  -0.2940   0.2587   2.00    0.0
2023/08/18 08:30:31.000   31.029207482  121.441423980    15.4947   2  21   0.3981   0.3290   1.1347  -0.1760  -0.2939   0.2587   2.00    1.9
2023/08/18 08:30:32.000   31.029237418  121.441413640    15.4772   1  21   0.0047   0.0037   0.0148  -0.0022  -0.0039   0.0029   2.00    3.1
2023/08/18 08:30:33.000   31.029263182  121.441403361    15.5316   1  19   0.0060   0.0043   0.0159  -0.0027  -0.0050   0.0053   3.00    3.0
2023/08/18 08:30:34.000   31.029282608  121.441393377    14.3025   2  19   0.4591   0.3574   1.3281  -0.1999  -0.4069   0.4350   4.00    0.0
2023/08/18 08:30:35.000   31.029313502  121.441380241    15.5670   1  21   0.0062   0.0048   0.0167  -0.0028  -0.0041   0.0036   5.00    2.1
2023/08/18 08:30:36.000   31.029338525  121.441367697    15.6072   1  20   0.0041   0.0038   0.0128  -0.0022  -0.0041   0.0026   1.00    2.4
2023/08/18 08:30:37.000   31.029355914  121.441356283    15.5159   2  20   0.3994   0.3567   1.2415  -0.1878  -0.3946   0.2872   2.00    0.0
2023/08/18 08:30:38.000   31.029388038  121.441341567    15.6176   1  20   0.0046   0.0035   0.0117  -0.0022  -0.0030   0.0024   1.00    3.5
2023/08/18 08:30:39.000   31.029412548  121.441328323    15.6175   1  19   0.0047   0.0046   0.0148  -0.0027  -0.0056   0.0038   2.00    3.5
2023/08/18 08:30:40.000   31.029436900  121.441315109    15.6909   1  20   0.0047   0.0040   0.0144  -0.0024  -0.0040   0.0023   2.00    2.1
2023/08/18 08:30:41.000   31.029453829  121.441303730    16.0522   2  18   0.4529   0.3818   1.2882  -0.2540  -0.2898   0.0912   2.00    0.0
2023/08/18 08:30:42.000   31.029483121  121.441285559    12.8790   2  18   0.4359   0.4261   1.3573  -0.2642  -0.5313   0.3956   2.00    1.3
2023/08/18 08:30:43.000   31.029511836  121.441263751    15.2602   2  20   0.3754   0.3562   1.2394  -0.1940  -0.3960   0.2683   3.00    1.1
2023/08/18 08:30:44.000   31.029533974  121.441252108    16.3114   2  20   0.3754   0.3562   1.2395  -0.1940  -0.3960   0.2683   4.00    1.2
2023/08/18 08:30:45.000   31.029553058  121.441249847    16.0875   1  17   0.0074   0.0060   0.0187  -0.0043  -0.0071   0.0049   4.00    3.7
2023/08/18 08:30:46.000   31.029574346  121.441237137    16.2255   1  17   0.0048   0.0046   0.0143  -0.0032  -0.0053   0.0032   1.00    4.8
2023/08/18 08:30:47.000   31.029596545  121.441223486    16.2919   1  19   0.0044   0.0046   0.0147  -0.0027  -0.0056   0.0036   2.00    3.9
2023/08/18 08:30:48.000   31.029619700  121.441208955    16.2828   1  19   0.0044   0.0046   0.0147  -0.0027  -0.0056   0.0036   2.00    5.0
2023/08/18 08:30:49.000   31.029642745  121.441193467    16.3140   1  19   0.0044   0.0046   0.0147  -0.0027  -0.0056   0.0036   2.00    5.2
2023/08/18 08:30:50.000   31.029665514  121.441177113    16.3422   1  20   0.0044   0.0041   0.0130  -0.0025  -0.0041   0.0029   2.00    3.0
2023/08/18 08:30:51.000   31.029688104  121.441160450    16.3729   1  20   0.0041   0.0038   0.0122  -0.0023  -0.0038   0.0027   1.00    2.9
2023/08/18 08:30:52.000   31.029710901  121.441143416    16.3582   1  20   0.0044   0.0041   0.0130  -0.0025  -0.0041   0.0029   2.00    3.2
2023/08/18 08:30:53.000   31.029733890  121.441126981    16.3252   1  20   0.0048   0.0044   0.0142  -0.0027  -0.0045   0.0032   3.00    3.2
2023/08/18 08:30:54.000   31.029755284  121.441112503    16.3104   1  20   0.0053   0.0049   0.0157  -0.0029  -0.0049   0.0036   4.00    3.2
2023/08/18 08:30:55.000   31.029774986  121.441098997    16.3104   1  21   0.0052   0.0043   0.0150  -0.0026  -0.0037   0.0029   4.00    3.6
2023/08/18 08:30:56.000   31.029794416  121.441085437    16.2988   1  21   0.0041   0.0035   0.0117  -0.0021  -0.0030   0.0022   1.00    3.2
2023/08/18 08:30:57.000   31.029807243  121.441072084    15.8555   2  21   0.3742   0.3284   1.1322  -0.1823  -0.2950   0.2356   1.00    0.0
2023/08/18 08:30:58.000   31.029835259  121.441058180    15.9640   1  19   0.0044   0.0046   0.0147  -0.0027  -0.0056   0.0036   2.00    6.2
2023/08/18 08:30:59.000   31.029856515  121.441042669    15.8955   1  19   0.0044   0.0046   0.0147  -0.0027  -0.0056   0.0036   2.00    6.2
2023/08/18 08:31:00.000   31.029869830  121.441021779    15.8184   1  19   0.0042   0.0043   0.0138  -0.0026  -0.0052   0.0033   1.00    5.9
2023/08/18 08:31:01.000   31.029875964  121.440998406    15.7917   1  19   0.0044   0.0046   0.0147  -0.0027  -0.0056   0.0036   2.00    2.5
2023/08/18 08:31:02.000   31.029878382  121.440973467    15.7796   1  19   0.0041   0.0039   0.0130  -0.0021  -0.0043   0.0025   1.00    6.4
2023/08/18 08:31:03.000   31.029878222  121.440946003    15.7578   1  18   0.0044   0.0049   0.0150  -0.0027  -0.0060   0.0036   2.00    6.4
2023/08/18 08:31:04.000   31.029869948  121.440913436    17.1039   2  17   0.3825   0.5304   1.6420  -0.2309  -0.7588   0.3348   3.00    0.0
2023/08/18 08:31:05.000   31.029870621  121.440888388    15.6039   1  18   0.0053   0.0059   0.0184  -0.0033  -0.0074   0.0044   4.00    3.7
2023/08/18 08:31:06.000   31.029855837  121.440855777    17.8964   2  16   0.3845   0.5929   1.6981  -0.2355  -0.8292   0.3451   4.00    0.0
2023/08/18 08:31:07.000   31.029853320  121.440834988    17.4451   2  16   0.3901   0.6278   1.7207  -0.2481  -0.8542   0.3376   1.00    0.0
2023/08/18 08:31:08.000   31.029846393  121.440805552    18.5823   2  18   0.3816   0.4271   1.3770  -0.1967  -0.5058   0.2426   2.00    1.1
2023/08/18 08:31:09.000   31.029837200  121.440778013    18.6609   2  17   0.3889   0.4604   1.3776  -0.2271  -0.5117   0.2479   2.00    1.4
2023/08/18 08:31:10.000   31.029833033  121.440748713    17.6352   2  17   0.4121   0.4780   1.5020  -0.2612  -0.4889   0.1189   1.00    1.3
2023/08/18 08:31:11.000   31.029829931  121.440714493    17.7585   2  16   0.4141   0.5795   1.7051  -0.2552  -0.6977   0.3035   2.00    0.0
2023/08/18 08:31:12.000   31.029841437  121.440679341    16.6081   2  17   0.3974   0.5702   1.7274  -0.1888  -0.7309   0.2148   2.00    0.0
2023/08/18 08:31:13.000   31.029794780  121.440654296    16.2997   2  14   0.5207   0.6451   1.8593   0.2087  -0.7696  -0.3148   3.00    0.0
2023/08/18 08:31:14.000   31.029761006  121.440584962    31.0035   2  10   0.9933   1.0132   3.3009   0.7113  -1.5610  -1.6081   4.00    0.0
2023/08/18 08:31:15.000   31.029798192  121.440595733    14.8227   2  11   0.5874   0.6090   1.9356  -0.0975  -0.6751  -0.7125   4.00    0.0
2023/08/18 08:31:16.000   31.029793141  121.440566012    15.6638   2  13   0.6661   0.5105   1.8250  -0.3846   0.0931  -0.7624   1.00    0.0
2023/08/18 08:31:17.000   31.029788018  121.440527699    16.8526   2  13   0.5382   0.4472   1.6966  -0.1749  -0.4434  -0.2566   2.00    0.0
2023/08/18 08:31:18.000   31.029765884  121.440509549    15.4331   1  15   0.0050   0.0046   0.0161  -0.0016  -0.0045  -0.0045   1.00    2.4
2023/08/18 08:31:19.000   31.029774805  121.440471148    11.8752   2  14   0.6513   0.4530   1.8816  -0.2414  -0.3295  -0.7947   1.00    0.0
2023/08/18 08:31:20.000   31.029747249  121.440448681    15.3231   1  15   0.0052   0.0048   0.0167  -0.0022  -0.0045  -0.0041   2.00    2.1
2023/08/18 08:31:21.000   31.029738007  121.440407196    15.6413   2  13   0.8272   0.5190   2.1099  -0.3558  -0.2308  -0.8918   2.00    0.0
2023/08/18 08:31:22.000   31.029731872  121.440381509    15.5771   2  14   0.5850   0.4506   1.7849  -0.2674  -0.2851  -0.6792   1.00    0.0
2023/08/18 08:31:23.000   31.029720214  121.440352680    16.3469   2  14   0.5850   0.4506   1.7847  -0.2674  -0.2851  -0.6792   2.00    0.0
2023/08/18 08:31:24.000   31.029708736  121.440317741    16.7825   2  13   0.6661   0.5104   1.8230  -0.3845   0.0893  -0.7615   3.00    0.0
2023/08/18 08:31:25.000   31.029680640  121.440300853    20.1713   2  15   0.4598   0.4758   1.4224  -0.2427  -0.4499  -0.1746   4.00    1.1
2023/08/18 08:31:26.000   31.029681208  121.440261981    16.1248   2  14   0.5810   0.5005   1.7301  -0.2833  -0.4162  -0.3129   1.00    0.0
2023/08/18 08:31:27.000   31.029662927  121.440232880    21.1679   2  14   0.5435   0.4862   1.5455  -0.2564  -0.4212  -0.4502   1.00    1.3
2023/08/18 08:31:28.000   31.029668198  121.440206902    15.2483   1  14   0.0057   0.0055   0.0188  -0.0027  -0.0033  -0.0049   2.00    2.3
2023/08/18 08:31:29.000   31.029650627  121.440171206    19.9992   2  16   0.4339   0.4442   1.4275  -0.1247  -0.4612  -0.2153   2.00    0.0
2023/08/18 08:31:30.000   31.029643487  121.440139470    18.9163   2  16   0.4818   0.4531   1.5875  -0.1499  -0.4624   0.2667   2.00    1.6
2023/08/18 08:31:31.000   31.029637170  121.440104898    16.4404   2  17   0.4555   0.4520   1.5875  -0.1659  -0.4618   0.2712   2.00    1.0
2023/08/18 08:31:32.000   31.029635852  121.440073289    14.5144   2  16   0.4234   0.4337   1.4247  -0.1757  -0.4506  -0.2022   2.00    1.9
2023/08/18 08:31:33.000   31.029616056  121.440046723    16.3595   2  16   0.4170   0.4655   1.3706  -0.2168  -0.4874   0.1773   3.00    1.5
2023/08/18 08:31:34.000   31.029608159  121.440012218    16.3667   2  15   0.5286   0.4503   1.7268  -0.2614  -0.2948  -0.5913   4.00    0.0
2023/08/18 08:31:35.000   31.029595717  121.439989769    15.1386   1  17   0.0054   0.0057   0.0184  -0.0017  -0.0063  -0.0001   4.00    2.8
2023/08/18 08:31:36.000   31.029591533  121.439959233    14.2845   2  16   0.4760   0.4946   1.5976  -0.1828  -0.5063   0.2932   3.00    0.0
2023/08/18 08:31:37.000   31.029576311  121.439927693    15.1376   1  15   0.0049   0.0045   0.0156  -0.0021  -0.0042  -0.0039   1.00    2.2
2023/08/18 08:31:38.000   31.029566773  121.439894125    16.6656   2  15   0.5287   0.4502   1.7261  -0.2615  -0.2948  -0.5913   1.00    0.0
2023/08/18 08:31:39.000   31.029552774  121.439865722    16.7835   2  13   0.7128   0.5181   1.9958  -0.3683  -0.2012  -0.7127   2.00    0.0
2023/08/18 08:31:40.000   31.029549044  121.439833120    15.9484   2  13   0.5100   0.5275   1.6817  -0.2487  -0.4910  -0.4430   1.00    0.0
2023/08/18 08:31:41.000   31.029543099  121.439807032    14.8178   2  16   0.3996   0.5660   1.4872  -0.1711  -0.6568   0.1439   2.00    1.3
2023/08/18 08:31:42.000   31.029529551  121.439774760    15.7352   2  12   0.5106   0.7843   1.8445   0.2293  -0.9325  -0.4717   2.00    0.0
2023/08/18 08:31:43.000   31.029520850  121.439734771    18.5668   2  13   0.4930   0.5823   1.6024   0.1015  -0.6621  -0.5209   2.00    0.0
2023/08/18 08:31:44.000   31.029504447  121.439707358    17.5225   2  12   0.7387   0.5897   2.2035  -0.1756  -0.5703  -1.0504   3.00    0.0
2023/08/18 08:31:45.000   31.029483898  121.439668463    20.0079   2  11   2.5881   2.0140   8.3554   2.1708  -3.9501  -4.5725   2.00    0.0
2023/08/18 08:31:46.000   31.029486305  121.439655935    13.4091   2  12   0.4865   0.7176   1.7996   0.1375  -0.7847  -0.5847   3.00    0.0
2023/08/18 08:31:47.000   31.029462996  121.439613749    18.6919   2  12   0.7384   0.5896   2.2016  -0.1756  -0.5700  -1.0495   3.00    0.0
2023/08/18 08:31:48.000   31.029456885  121.439585163    19.4992   2  12   0.6638   0.6117   2.1935  -0.1811  -0.5860  -0.8894   1.00    0.0
2023/08/18 08:31:49.000   31.029459135  121.439556262    15.1185   1  16   0.0041   0.0062   0.0166  -0.0014  -0.0069  -0.0034   2.00    4.7
2023/08/18 08:31:50.000   31.029448084  121.439528331    14.5718   2  16   0.4492   0.6030   1.7589  -0.1388  -0.6274  -0.4123   2.00    0.0
2023/08/18 08:31:51.000   31.029437603  121.439492485    15.3202   2  16   0.4492   0.6030   1.7590  -0.1387  -0.6273  -0.4124   2.00    0.0
2023/08/18 08:31:52.000   31.029421922  121.439462550    17.0094   2  13   0.4519   0.5628   1.5470  -0.1364  -0.6132  -0.4357   2.00    1.8
2023/08/18 08:31:53.000   31.029425023  121.439432278    13.1163   2  15   0.4598   0.5815   1.5764   0.1209  -0.6662  -0.4703   3.00    0.0
2023/08/18 08:31:54.000   31.029409798  121.439404616    15.1945   1  17   0.0048   0.0076   0.0195  -0.0016  -0.0087  -0.0027   4.00    3.0
2023/08/18 08:31:55.000   31.029395813  121.439367378    15.5662   2  17   0.3838   0.5634   1.4757  -0.1577  -0.5980  -0.2902   4.00    0.0
2023/08/18 08:31:56.000   31.029371547  121.439343714     0.8664   2  13   0.5689   0.6091   1.9273  -0.2227  -0.5508  -0.7731   1.00    0.0
2023/08/18 08:31:57.000   31.029382875  121.439303961    13.8591   2  14   0.4208   0.5598   1.5237  -0.1664  -0.6006  -0.3824   2.00    1.0
2023/08/18 08:31:58.000   31.029367015  121.439274571    17.4754   2  14   0.4237   0.5689   1.4948  -0.1550  -0.5984  -0.3568   2.00    1.0
2023/08/18 08:31:59.000   31.029360963  121.439243168    16.1258   2  14   0.4745   0.5613   1.6615  -0.1291  -0.6087  -0.5400   2.00    0.0
2023/08/18 08:32:00.000   31.029343604  121.439217800    17.1188   2  15   0.4897   0.6075   1.7875  -0.0616  -0.6464  -0.4822   2.00    0.0
2023/08/18 08:32:01.000   31.029335518  121.439181791    16.6543   2  14   0.5467   0.5722   1.8569  -0.2169  -0.5266  -0.7189   1.00    0.0
2023/08/18 08:32:02.000   31.029328551  121.439146422    17.2449   2  12   0.7370   0.5890   2.1920  -0.1752  -0.5685  -1.0450   2.00    0.0
2023/08/18 08:32:03.000   31.029320751  121.439121065    14.8220   2  15   0.4898   0.6074   1.7877  -0.0607  -0.6463  -0.4826   2.00    0.0
2023/08/18 08:32:04.000   31.029308693  121.439089452    14.6149   2  12   0.6590   0.6109   2.0712  -0.1792  -0.5855  -0.9225   3.00    0.0
2023/08/18 08:32:05.000   31.029284995  121.439058430    19.9492   2  13   0.4330   0.5615   1.5189  -0.1208  -0.6196  -0.3897   3.00    1.5
2023/08/18 08:32:06.000   31.029288560  121.439027931    13.9062   2  14   0.6831   0.6394   2.2393   0.2441  -0.7490  -0.9307   4.00    0.0
2023/08/18 08:32:07.000   31.029283482  121.438994067    13.6090   2  15   0.5772   0.6264   2.0891   0.1135  -0.6766  -0.7562   2.00    0.0
2023/08/18 08:32:08.000   31.029266499  121.438960181    16.1467   2  15   0.4100   0.5599   1.5058  -0.0949  -0.6256  -0.3530   1.00    1.6
2023/08/18 08:32:09.000   31.029256468  121.438939382    15.1671   1  16   0.0047   0.0060   0.0163   0.0013  -0.0069  -0.0049   1.00    6.7
2023/08/18 08:32:10.000   31.029244611  121.438897305    15.5351   2  17   0.3674   0.5553   1.4294  -0.1208  -0.6233  -0.2114   1.00    0.0
2023/08/18 08:32:11.000   31.029230442  121.438870983    14.9772   2  16   0.4499   0.6018   1.7599  -0.1367  -0.6267  -0.4152   2.00    0.0
2023/08/18 08:32:12.000   31.029226172  121.438834954    15.1881   2  17   0.3675   0.5552   1.4294  -0.1206  -0.6231  -0.2117   2.00    1.7
2023/08/18 08:32:13.000   31.029220781  121.438796761    14.9126   2  14   0.4750   0.5605   1.6604  -0.1282  -0.6073  -0.5411   3.00    0.0
2023/08/18 08:32:14.000   31.029207202  121.438781893    15.1087   1  16   0.0050   0.0077   0.0195  -0.0010  -0.0088  -0.0031   4.00    2.0
2023/08/18 08:32:15.000   31.029201568  121.438739181    14.1318   2  16   0.4089   0.5805   1.4631   0.1225  -0.6641  -0.3154   5.00    0.0
2023/08/18 08:32:16.000   31.029187736  121.438719531    15.0628   1  17   0.0053   0.0085   0.0218  -0.0017  -0.0098  -0.0030   5.00    3.1
2023/08/18 08:32:17.000   31.029174092  121.438683836    14.8303   2  17   0.4073   0.5995   1.6248  -0.0958  -0.6523  -0.2084   2.00    0.0
2023/08/18 08:32:18.000   31.029171553  121.438649686    14.8187   2  15   0.4388   0.5573   1.6227  -0.1636  -0.5901  -0.4790   1.00    0.0
2023/08/18 08:32:19.000   31.029157829  121.438627182    15.0987   1  16   0.0041   0.0057   0.0156  -0.0015  -0.0063  -0.0036   1.00    2.2
2023/08/18 08:32:20.000   31.029147333  121.438596536    15.1268   1  16   0.0042   0.0062   0.0159  -0.0009  -0.0070  -0.0027   2.00    5.4
2023/08/18 08:32:21.000   31.029167129  121.438566212    26.1542   2  16   0.3876   0.6057   1.4473   0.0756  -0.6634  -0.2646   3.00    0.0
2023/08/18 08:32:22.000   31.029126894  121.438535543    15.1043   1  17   0.0048   0.0073   0.0181  -0.0010  -0.0081   0.0011   3.00    2.1
2023/08/18 08:32:23.000   31.029114045  121.438503689    14.0338   2  17   0.4074   0.5992   1.6251  -0.0951  -0.6520  -0.2097   3.00    0.0
2023/08/18 08:32:24.000   31.029093379  121.438476034     9.0575   2  16   0.4137   0.6057   1.5168   0.0637  -0.6591  -0.3686   4.00    1.6
2023/08/18 08:32:25.000   31.029089072  121.438442056    14.3884   2  13   0.5019   0.6074   1.7694  -0.0835  -0.6444  -0.4784   5.00    0.0
2023/08/18 08:32:26.000   31.029087618  121.438405736    15.1305   1  15   0.0042   0.0062   0.0159  -0.0015  -0.0069  -0.0026   2.00    7.6
2023/08/18 08:32:27.000   31.029073877  121.438370772    15.3621   2  16   0.4707   0.6377   1.6632   0.2033  -0.7085  -0.3538   3.00    0.0
2023/08/18 08:32:28.000   31.029067867  121.438342058    15.0960   1  13   0.0047   0.0062   0.0168  -0.0013  -0.0069  -0.0043   2.00    2.4
2023/08/18 08:32:29.000   31.029058328  121.438305308    14.8850   2  15   0.4967   0.5798   1.8288  -0.2423  -0.4605  -0.6433   2.00    0.0
2023/08/18 08:32:30.000   31.029051497  121.438279772    12.6792   2  15   0.5785   0.6255   2.0879   0.1172  -0.6761  -0.7580   2.00    0.0
2023/08/18 08:32:31.000   31.029037639  121.438246746    15.1996   2  13   0.4713   0.6375   1.6647   0.2038  -0.7084  -0.3544   1.00    0.0
2023/08/18 08:32:32.000   31.029021950  121.438212371    15.3508   2  13   0.5021   0.6070   1.7691  -0.0827  -0.6440  -0.4789   2.00    0.0
2023/08/18 08:32:33.000   31.029013483  121.438184797    14.7233   2  15   0.4281   0.6005   1.6328  -0.1225  -0.6458  -0.2550   2.00    0.0
2023/08/18 08:32:34.000   31.029003527  121.438157391    13.7128   2  15   0.4281   0.6005   1.6329  -0.1224  -0.6458  -0.2551   3.00    0.0
2023/08/18 08:32:35.000   31.028994544  121.438124708    14.8579   2  14   0.4673   0.6015   1.7513  -0.1472  -0.6280  -0.4285   4.00    0.0
2023/08/18 08:32:36.000   31.028979688  121.438087197    16.2518   2  12   0.6239   0.5773   1.9591  -0.2704  -0.4651  -0.8425   5.00    0.0
2023/08/18 08:32:37.000   31.028966456  121.438053668    16.6222   2  16   0.3842   0.5630   1.4723  -0.1070  -0.6079  -0.2939   1.00    1.9
2023/08/18 08:32:38.000   31.028964346  121.438027251    15.3379   1  16   0.0047   0.0064   0.0172   0.0015  -0.0074  -0.0047   2.00    3.2
2023/08/18 08:32:39.000   31.028953050  121.437990863    20.2856   2  17   0.3765   0.5967   1.4955  -0.0500  -0.6498  -0.3070   2.00    0.0
2023/08/18 08:32:40.000   31.028944249  121.437964338    15.3430   1  17   0.0040   0.0061   0.0158  -0.0013  -0.0069  -0.0024   2.00    2.2
2023/08/18 08:32:41.000   31.028934101  121.437932837    15.3730   1  16   0.0041   0.0057   0.0156  -0.0015  -0.0063  -0.0036   1.00    5.2
2023/08/18 08:32:42.000   31.028920478  121.437895664    17.7675   2  16   0.4388   0.5988   1.7316  -0.1142  -0.6384  -0.3770   1.00    0.0
2023/08/18 08:32:43.000   31.028913831  121.437869836    15.4125   1  13   0.0049   0.0062   0.0171  -0.0014  -0.0068  -0.0048   2.00    3.8
2023/08/18 08:32:44.000   31.028903911  121.437836292    16.3808   2  17   0.4079   0.5981   1.6261  -0.0927  -0.6508  -0.2142   3.00    0.0
2023/08/18 08:32:45.000   31.028892552  121.437800247    17.3170   2  15   0.4590   0.6041   1.7646   0.0693  -0.6545  -0.4310   3.00    0.0
2023/08/18 08:32:46.000   31.028883370  121.437775833    15.4668   1  15   0.0046   0.0062   0.0169  -0.0011  -0.0069  -0.0044   2.00    2.1
2023/08/18 08:32:47.000   31.028876546  121.437742297    14.2953   2  15   0.5163   0.6018   1.9827  -0.1728  -0.5891  -0.6365   1.00    0.0
2023/08/18 08:32:48.000   31.028864339  121.437708711    17.1157   2  12   0.6658   0.6088   2.1837  -0.1747  -0.5858  -0.8887   2.00    0.0
2023/08/18 08:32:49.000   31.028850945  121.437682683    16.7954   2  13   0.5336   0.6069   1.8243  -0.1075  -0.6326  -0.5584   1.00    0.0
2023/08/18 08:32:50.000   31.028832055  121.437653460    19.3640   2  15   0.5199   0.6374   1.8007   0.2163  -0.7177  -0.5275   2.00    0.0
2023/08/18 08:32:51.000   31.028834190  121.437620279    15.6515   1  14   0.0050   0.0065   0.0169   0.0000  -0.0071  -0.0047   2.00    4.5
2023/08/18 08:32:52.000   31.028816444  121.437595818    16.8406   2  13   0.4891   0.6165   1.6754  -0.0708  -0.6157  -0.5492   2.00    0.0
2023/08/18 08:32:53.000   31.028815094  121.437570552    16.2152   2  12   0.6235   0.5766   1.9522  -0.2701  -0.4636  -0.8401   2.00    0.0
2023/08/18 08:32:54.000   31.028810446  121.437544924    14.1049   2  12   0.5461   0.6235   1.8407  -0.1671  -0.6597  -0.5330   3.00    0.0
2023/08/18 08:32:55.000   31.028820903  121.437528876    10.6566   2  14   0.5178   0.6304   1.9995  -0.1891  -0.6293  -0.6306   2.00    0.0
2023/08/18 08:32:56.000   31.028793777  121.437503253    14.8671   2  15   0.4761   0.5837   1.6285   0.0581  -0.6318  -0.5264   1.00    0.0
2023/08/18 08:32:57.000   31.028794625  121.437483318    15.3755   2  15   0.4199   0.5764   1.5893  -0.1922  -0.6038  -0.4006   2.00    0.0
2023/08/18 08:32:58.000   31.028773817  121.437455401    17.5481   2  11   0.6891   0.7044   2.3233   0.2145  -0.8520  -1.0370   2.00    0.0
2023/08/18 08:32:59.000   31.028759699  121.437439200    16.0180   2  13   0.5152   0.5848   1.6630  -0.0646  -0.6211  -0.5864   2.00    0.0
2023/08/18 08:33:00.000   31.028719080  121.437418924    22.4064   2  13   0.5012   0.5696   1.6522  -0.2015  -0.5518  -0.5663   2.00    0.0
2023/08/18 08:33:01.000   31.028712731  121.437397557    15.9873   2  13   0.4719   0.5679   1.6012  -0.1818  -0.5683  -0.5012   2.00    0.0
2023/08/18 08:33:02.000   31.028670763  121.437357569    22.6823   2  13   0.6796   0.8359   2.5886   0.4394  -1.1364  -1.0525   2.00    0.0
2023/08/18 08:33:03.000   31.028652866  121.437370656    18.9824   2  15   0.4919   0.6045   1.7904  -0.0368  -0.6452  -0.4900   2.00    0.0
2023/08/18 08:33:04.000   31.028625085  121.437337463    22.3121   2  14   0.5431   0.8196   2.1234   0.3550  -1.0238  -0.7091   3.00    0.0
2023/08/18 08:33:05.000   31.028618149  121.437344884    16.6929   2  16   0.4000   0.7603   1.7836   0.1909  -0.8827  -0.3069   4.00    0.0
2023/08/18 08:33:06.000   31.028583544  121.437321604    19.8733   2  17   0.3912   0.5954   1.6215  -0.0557  -0.6540  -0.1793   2.00    0.0
2023/08/18 08:33:07.000   31.028555104  121.437321273    19.1384   2  15   0.4085   0.5969   1.6271  -0.0902  -0.6495  -0.2193   1.00    0.0
2023/08/18 08:33:08.000   31.028527904  121.437321257    19.2842   2  15   0.4288   0.5987   1.6340  -0.1197  -0.6440  -0.2601   1.00    0.0
2023/08/18 08:33:09.000   31.028498329  121.437324671    19.0165   2  15   0.4289   0.5987   1.6340  -0.1196  -0.6439  -0.2602   2.00    0.0
2023/08/18 08:33:10.000   31.028479403  121.437319670    16.8020   2  16   0.4519   0.5985   1.7625  -0.1306  -0.6246  -0.4233   2.00    0.0
2023/08/18 08:33:11.000   31.028453907  121.437319721    16.2927   1  19   0.0039   0.0049   0.0142   0.0009  -0.0041  -0.0032   1.00    2.1
2023/08/18 08:33:12.000   31.028430000  121.437308274    15.5291   2  19   0.3794   0.4712   1.3769   0.0905  -0.3932  -0.3054   2.00    0.0
2023/08/18 08:33:13.000   31.028402778  121.437307799    16.1752   2  19   0.3503   0.4479   1.2650  -0.0965  -0.3715  -0.3149   2.00    1.0
2023/08/18 08:33:14.000   31.028372959  121.437312446    16.9355   2  19   0.3744   0.4635   1.3966  -0.1846  -0.3940   0.1840   3.00    1.5
2023/08/18 08:33:15.000   31.028346446  121.437311479    18.1479   2  19   0.3744   0.4635   1.3965  -0.1846  -0.3938   0.1839   2.00    1.0
2023/08/18 08:33:16.000   31.028318512  121.437311084    17.0567   2  19   0.3744   0.4635   1.3965  -0.1846  -0.3937   0.1838   2.00    1.4
2023/08/18 08:33:17.000   31.028290363  121.437302789    16.9390   2  19   0.3745   0.4634   1.3965  -0.1846  -0.3936   0.1837   2.00    1.1
2023/08/18 08:33:18.000   31.028260440  121.437304363    18.6885   2  18   0.3774   0.5466   1.5939  -0.1432  -0.6144  -0.0466   3.00    1.7
2023/08/18 08:33:19.000   31.028231479  121.437307387    17.1411   2  19   0.3745   0.4634   1.3964  -0.1845  -0.3933   0.1836   1.00    1.8
2023/08/18 08:33:20.000   31.028200683  121.437322171    16.7725   2  17   0.3901   0.4670   1.3992  -0.2010  -0.3866   0.1551   2.00    1.8
2023/08/18 08:33:21.000   31.028164870  121.437328252    14.0383   2  17   0.3924   0.4713   1.2847  -0.2181  -0.3751  -0.2252   1.00    1.1
2023/08/18 08:33:22.000   31.028143119  121.437327203    15.7593   2  16   0.4607   0.5031   1.5930  -0.2756  -0.2641   0.1512   1.00    0.0
2023/08/18 08:33:23.000   31.028116530  121.437337685    14.8214   2  15   0.4615   0.5194   1.6052  -0.2686   0.1921   0.1965   2.00    0.0
2023/08/18 08:33:24.000   31.028091579  121.437333397    15.7778   1  15   0.0055   0.0060   0.0167  -0.0034  -0.0039  -0.0041   3.00    4.0
2023/08/18 08:33:25.000   31.028063751  121.437336901    15.7608   1  14   0.0051   0.0064   0.0177  -0.0026  -0.0065  -0.0047   2.00    3.3
2023/08/18 08:33:26.000   31.028036008  121.437340541    15.7220   1  14   0.0050   0.0069   0.0189  -0.0021  -0.0071  -0.0051   3.00    2.1
2023/08/18 08:33:27.000   31.027999079  121.437339379    19.5702   2  15   0.3961   0.5904   1.6025  -0.1257  -0.6306  -0.1441   1.00    0.0
2023/08/18 08:33:28.000   31.027980893  121.437348004    15.7661   1  19   0.0038   0.0044   0.0126  -0.0013  -0.0031  -0.0020   2.00    2.3
2023/08/18 08:33:29.000   31.027950113  121.437344771    17.8445   2  17   0.3500   0.4677   1.2364   0.0375  -0.4225  -0.2308   2.00    0.0
2023/08/18 08:33:30.000   31.027924129  121.437345245    18.1227   2  12   0.4283   0.5016   1.5899  -0.2279  -0.1589  -0.3901   2.00    1.3
2023/08/18 08:33:31.000   31.027883463  121.437373059    15.9730   2   7   0.5795   0.7283   1.6938  -0.4623  -0.3198   0.2725   1.00    0.0
2023/08/18 08:33:32.000   31.027874176  121.437355573    14.2799   2  15   0.5241   0.4761   1.4726  -0.3406   0.5284  -0.6332   1.00    1.7
2023/08/18 08:33:33.000   31.027842956  121.437367166    15.5252   1  14   0.0065   0.0057   0.0169  -0.0044   0.0051  -0.0076   2.00    2.9
2023/08/18 08:33:34.000   31.027815860  121.437375237    15.5309   1  17   0.0063   0.0055   0.0176  -0.0042   0.0062  -0.0081   3.00    3.0
2023/08/18 08:33:35.000   31.027784574  121.437394484    16.8857   2  17   0.4870   0.4445   1.3464  -0.3224   0.4227  -0.5874   2.00    0.0
2023/08/18 08:33:36.000   31.027761943  121.437391562    15.4277   1  18   0.0055   0.0050   0.0160  -0.0040   0.0054  -0.0073   2.00    2.5
2023/08/18 08:33:37.000   31.027735093  121.437400296    15.3857   1  17   0.0052   0.0047   0.0149  -0.0037   0.0050  -0.0068   1.00    4.0
2023/08/18 08:33:38.000   31.027706992  121.437431612    17.3979   2  20   0.3868   0.3723   1.2071  -0.2262   0.1941  -0.4192   2.00    0.0
2023/08/18 08:33:39.000   31.027696336  121.437437587    18.9531   2  17   0.3703   0.3744   1.1706  -0.2049   0.1769  -0.4053   1.00    1.1
2023/08/18 08:33:40.000   31.027675522  121.437415590    10.4577   2  17   0.4051   0.4229   1.2500  -0.2123  -0.0775  -0.3181   1.00    1.5
2023/08/18 08:33:41.000   31.027642787  121.437461043    15.9953   2  15   0.4503   0.5474   1.4523  -0.3505  -0.1576  -0.3400   1.00    1.1
2023/08/18 08:33:42.000   31.027614412  121.437472535    17.5852   2  19   0.3857   0.3962   1.1409  -0.2300  -0.0305  -0.3082   1.00    1.2
2023/08/18 08:33:43.000   31.027592954  121.437466629    17.3646   2  20   0.3843   0.3870   1.1390  -0.2239   0.0678  -0.3116   2.00    1.4
2023/08/18 08:33:44.000   31.027558680  121.437488004    15.3007   2  16   0.4339   0.5347   1.5182  -0.2802   0.4018  -0.3939   3.00    1.1
2023/08/18 08:33:45.000   31.027531558  121.437493062    14.8027   2  16   0.4340   0.5347   1.5182  -0.2803   0.4018  -0.3939   4.00    1.3
2023/08/18 08:33:46.000   31.027500737  121.437502964    15.9103   2  17   0.4721   0.4790   1.4208  -0.3097   0.2028  -0.4554   3.00    1.4
2023/08/18 08:33:47.000   31.027475582  121.437514909    16.0577   2  17   0.4720   0.5120   1.5686  -0.3153   0.4362  -0.4849   1.00    1.6
2023/08/18 08:33:48.000   31.027447479  121.437522597    15.1053   1  18   0.0052   0.0049   0.0158  -0.0031   0.0034  -0.0052   1.00    2.7
2023/08/18 08:33:49.000   31.027423821  121.437532611    14.2390   2  18   0.4525   0.4603   1.4644  -0.2899   0.2934  -0.4882   2.00    0.0
2023/08/18 08:33:50.000   31.027407936  121.437534868    11.8550   2  19   0.4029   0.4140   1.3311  -0.2137  -0.1887  -0.3592   1.00    1.2
2023/08/18 08:33:51.000   31.027383612  121.437546405    11.0583   2  19   0.4029   0.4140   1.3310  -0.2137  -0.1886  -0.3592   1.00    2.0
2023/08/18 08:33:52.000   31.027346361  121.437577715    15.1649   1  19   0.0043   0.0044   0.0172  -0.0022  -0.0021  -0.0044   1.00    2.3
2023/08/18 08:33:53.000   31.027322057  121.437592828    15.1528   1  18   0.0047   0.0048   0.0166  -0.0019  -0.0033  -0.0053   2.00    2.0
2023/08/18 08:33:54.000   31.027299270  121.437593161    14.3198   2  18   0.4153   0.4525   1.4736  -0.1858  -0.2781  -0.4320   3.00    0.0
2023/08/18 08:33:55.000   31.027272978  121.437610447    15.9775   2  18   0.4153   0.4524   1.4736  -0.1858  -0.2780  -0.4320   4.00    1.0
2023/08/18 08:33:56.000   31.027247477  121.437634482    16.4895   2  17   0.4449   0.4571   1.4771  -0.1553  -0.2896  -0.4505   4.00    1.0
2023/08/18 08:33:57.000   31.027235476  121.437643527    11.3492   2  17   0.4173   0.4289   1.4926  -0.1500  -0.4211  -0.4395   1.00    1.0
2023/08/18 08:33:58.000   31.027202472  121.437678878    16.4333   2  18   0.4091   0.4467   1.4117  -0.2742   0.2033  -0.4290   2.00    1.2
2023/08/18 08:33:59.000   31.027184641  121.437696677    15.2275   1  16   0.0051   0.0051   0.0166  -0.0022   0.0044  -0.0026   1.00    2.7
2023/08/18 08:34:00.000   31.027157173  121.437726184    13.9234   2  12   0.4881   0.6963   1.8998  -0.2567  -0.5317  -0.4677   1.00    0.0
2023/08/18 08:34:01.000   31.027139009  121.437734340    15.2067   1  16   0.0048   0.0048   0.0152  -0.0023   0.0027  -0.0039   1.00    2.9
2023/08/18 08:34:02.000   31.027111928  121.437758892    17.5702   2  17   0.4077   0.5557   1.6712  -0.2316  -0.6632  -0.2168   2.00    0.0
2023/08/18 08:34:03.000   31.027093286  121.437771729    15.1987   1  19   0.0048   0.0053   0.0165  -0.0024  -0.0050  -0.0025   3.00    2.6
2023/08/18 08:34:04.000   31.027068697  121.437802677    15.2020   2  18   0.3997   0.5328   1.6665  -0.2024  -0.6778  -0.1924   4.00    0.0
2023/08/18 08:34:05.000   31.027043424  121.437818746    16.7052   2  17   0.4077   0.5556   1.6712  -0.2316  -0.6629  -0.2172   4.00    0.0
2023/08/18 08:34:06.000   31.027025478  121.437817546    23.7011   2  17   0.4073   0.5280   1.5692  -0.2388  -0.5831  -0.1896   1.00    1.1
2023/08/18 08:34:07.000   31.027001470  121.437847745    17.4565   2  15   0.4079   0.5556   1.6711  -0.2313  -0.6627  -0.2176   1.00    0.0
2023/08/18 08:34:08.000   31.027000819  121.437899220     6.8664   2  15   0.5144   0.5374   1.7014  -0.1963   0.3257   0.3445   2.00    0.0
2023/08/18 08:34:09.000   31.026962112  121.437887145    15.1576   1  16   0.0048   0.0057   0.0157  -0.0013   0.0029  -0.0045   1.00    2.1
2023/08/18 08:34:10.000   31.026942271  121.437908675    15.1640   1  17   0.0050   0.0057   0.0155  -0.0020   0.0046  -0.0041   2.00    2.5
2023/08/18 08:34:11.000   31.026922687  121.437930409    15.1493   1  19   0.0044   0.0044   0.0126  -0.0007   0.0010  -0.0035   1.00    2.3
2023/08/18 08:34:12.000   31.026908236  121.437987848    -0.9931   2  19   0.4264   0.4353   1.2006   0.0103   0.2654  -0.3083   2.00    0.0
2023/08/18 08:34:13.000   31.026881647  121.437977341    16.7336   2  18   0.4676   0.4497   1.2339   0.1560   0.1803  -0.2884   2.00    1.8
2023/08/18 08:34:14.000   31.026864441  121.437997681    15.1832   1  17   0.0055   0.0061   0.0164  -0.0027   0.0040  -0.0041   3.00    3.5
2023/08/18 08:34:15.000   31.026848510  121.438037728    11.0883   2  17   0.4681   0.4651   1.1558   0.1709   0.3867  -0.1678   3.00    0.0
2023/08/18 08:34:16.000   31.026821599  121.438050657    15.9443   2  17   0.4890   0.5208   1.3487   0.2481   0.4170  -0.0743   2.00    1.0
2023/08/18 08:34:17.000   31.026793423  121.438052038    14.4468   2  15   0.4834   0.5639   1.5209  -0.0946   0.6040  -0.2363   1.00    1.1
2023/08/18 08:34:18.000   31.026779670  121.438086446     9.5917   2  19   0.4019   0.4054   1.1716  -0.1629   0.3504  -0.2859   1.00    1.2
2023/08/18 08:34:19.000   31.026766971  121.438114705    15.1146   1  16   0.0058   0.0055   0.0166  -0.0040   0.0066  -0.0070   1.00    2.4
2023/08/18 08:34:20.000   31.026748581  121.438138894    15.0924   1  18   0.0058   0.0048   0.0160  -0.0040   0.0053  -0.0069   2.00    2.3
2023/08/18 08:34:21.000   31.026727914  121.438157324    10.1987   2  19   0.4274   0.3812   1.3010  -0.2550   0.2913  -0.4407   1.00    0.0
2023/08/18 08:34:22.000   31.026705014  121.438189396    12.6103   2  19   0.3786   0.3696   1.1877  -0.2064   0.1483  -0.2974   1.00    1.7
2023/08/18 08:34:23.000   31.026686684  121.438217516    12.9272   2  20   0.3783   0.3625   1.1878  -0.2039   0.1492  -0.2975   2.00    1.3
2023/08/18 08:34:24.000   31.026681416  121.438240261    15.1399   1  18   0.0065   0.0055   0.0182  -0.0046   0.0062  -0.0081   3.00    2.1
2023/08/18 08:34:25.000   31.026665131  121.438266412    15.1598   1  19   0.0054   0.0045   0.0154  -0.0031   0.0043  -0.0050   3.00    3.0
2023/08/18 08:34:26.000   31.026628226  121.438278001    16.8836   2  17   0.4959   0.4940   1.3786  -0.3366   0.5474  -0.4978   3.00    0.0
2023/08/18 08:34:27.000   31.026618670  121.438326273    16.9022   2  17   0.4533   0.4852   1.4136  -0.3033   0.4526  -0.3639   2.00    1.7
2023/08/18 08:34:28.000   31.026606182  121.438331580    11.4901   2  18   0.4947   0.4992   1.4931  -0.3243   0.5980  -0.5077   1.00    1.1
2023/08/18 08:34:29.000   31.026593866  121.438366054    13.7684   2  15   0.5425   0.4999   1.5665  -0.3833   0.5461  -0.4245   1.00    1.2
2023/08/18 08:34:30.000   31.026575165  121.438404853    16.0422   2  15   0.5141   0.5697   1.6915  -0.3903   0.7589  -0.5817   1.00    0.0
2023/08/18 08:34:31.000   31.026560884  121.438429976    16.0454   2  13   0.5225   0.6065   1.8556  -0.4095   0.7440  -0.6106   1.00    0.0
2023/08/18 08:34:32.000   31.026542246  121.438468473    18.9711   2  16   0.4764   0.4504   1.4717  -0.2222   0.3649  -0.2440   2.00    1.7
2023/08/18 08:34:33.000   31.026541088  121.438483793    14.2275   2  15   0.5236   0.5358   1.6583  -0.3414   0.6231  -0.4775   2.00    0.0
2023/08/18 08:34:34.000   31.026525710  121.438529711    21.4290   2  15   0.5065   0.4409   1.4595  -0.3287  -0.1335   0.1075   3.00    1.1
2023/08/18 08:34:35.000   31.026509193  121.438552701    18.2632   2  16   0.5195   0.4498   1.4233  -0.2613   0.3872   0.0759   4.00    1.4
2023/08/18 08:34:36.000   31.026505099  121.438569826    15.1338   1  16   0.0053   0.0046   0.0170  -0.0026   0.0034  -0.0052   2.00    2.1
2023/08/18 08:34:37.000   31.026487394  121.438606907    18.4377   2  15   0.5100   0.4893   1.6231  -0.3562   0.5841  -0.5516   1.00    0.0
2023/08/18 08:34:38.000   31.026478033  121.438625885    16.0395   2  14   0.5212   0.5794   1.6811  -0.3492   0.7055  -0.5555   1.00    0.0
2023/08/18 08:34:39.000   31.026455362  121.438659571    23.1896   2  15   0.5152   0.5781   1.5505  -0.3526   0.7150  -0.5103   1.00    0.0
2023/08/18 08:34:40.000   31.026448375  121.438695812    17.9927   2  15   0.5177   0.5793   1.5661  -0.3500   0.7093  -0.5210   1.00    0.0
2023/08/18 08:34:41.000   31.026445489  121.438716483    15.0974   1  15   0.0056   0.0060   0.0165  -0.0038   0.0075  -0.0059   1.00    4.0
2023/08/18 08:34:42.000   31.026446562  121.438713297     9.5090   2  16   0.4460   0.4395   1.3251  -0.1577   0.4338  -0.2359   1.00    0.0
2023/08/18 08:34:43.000   31.026422608  121.438776704    15.0928   1  15   0.0060   0.0064   0.0175  -0.0041   0.0080  -0.0064   2.00    3.4
2023/08/18 08:34:44.000   31.026420768  121.438779631     9.7685   2  16   0.4460   0.4395   1.3251  -0.1578   0.4338  -0.2357   3.00    0.0
2023/08/18 08:34:45.000   31.026394102  121.438835810    15.4207   2  15   0.4757   0.5242   1.4689  -0.2686   0.6076  -0.4002   3.00    1.4
2023/08/18 08:34:46.000   31.026392652  121.438846201    11.1354   2  13   0.4943   0.5170   1.4049   0.1547   0.5140   0.1935   2.00    1.5
2023/08/18 08:34:47.000   31.026379514  121.438876803    10.7631   2  12   0.5817   0.5338   1.6056  -0.0602   0.4792   0.5413   1.00    0.0
2023/08/18 08:34:48.000   31.026377241  121.438930440    15.1100   1  13   0.0056   0.0056   0.0152  -0.0007   0.0057   0.0016   1.00    3.0
2023/08/18 08:34:49.000   31.026369758  121.438961341    15.1022   1  14   0.0055   0.0048   0.0139  -0.0018   0.0040  -0.0018   1.00    5.5
2023/08/18 08:34:50.000   31.026355880  121.438984681    13.4828   2  14   0.5375   0.5670   1.5679   0.3325   0.6394   0.5867   1.00    0.0
2023/08/18 08:34:51.000   31.026355291  121.439027427    16.3610   2  13   0.5285   0.5859   1.6606   0.2505   0.6811   0.4498   2.00    0.0
2023/08/18 08:34:52.000   31.026341940  121.439054170    14.1847   2  12   0.6624   0.6468   2.0775   0.3328   0.8165   0.8323   2.00    0.0
2023/08/18 08:34:53.000   31.026339427  121.439096323    16.0055   2  14   0.4930   0.4621   1.3496  -0.0712   0.3424   0.1339   3.00    1.1
2023/08/18 08:34:54.000   31.026327931  121.439133790    18.0493   2  13   0.5055   0.4767   1.3647   0.1650   0.3764   0.2950   4.00    1.1
2023/08/18 08:34:55.000   31.026320871  121.439176422    20.9835   2  13   0.5032   0.4667   1.3580   0.1501   0.3585   0.2837   4.00    1.1
2023/08/18 08:34:56.000   31.026320711  121.439205533    21.6867   2  13   0.5601   0.4535   1.4776   0.1321   0.1001   0.5811   2.00    1.1
2023/08/18 08:34:57.000   31.026314576  121.439233252    21.0621   2  17   0.3986   0.4044   1.2191  -0.1016  -0.0752   0.1446   2.00    1.8
2023/08/18 08:34:58.000   31.026307093  121.439261538    20.1271   2  17   0.3757   0.3877   1.2027  -0.1602  -0.1689  -0.0753   2.00    1.9
2023/08/18 08:34:59.000   31.026307676  121.439272903    15.2052   1  18   0.0051   0.0050   0.0147  -0.0012   0.0007  -0.0014   3.00    2.6
2023/08/18 08:35:00.000   31.026300068  121.439314651    20.6328   2  17   0.4023   0.4159   1.2079  -0.0592   0.1758   0.2559   3.00    0.0
2023/08/18 08:35:01.000   31.026301982  121.439326235    15.1909   1  14   0.0053   0.0058   0.0162   0.0019   0.0047   0.0037   2.00    4.7
2023/08/18 08:35:02.000   31.026299878  121.439347464    15.1911   1  15   0.0057   0.0060   0.0177   0.0018   0.0049   0.0038   3.00    5.6
2023/08/18 08:35:03.000   31.026298077  121.439366980    15.1543   1  17   0.0051   0.0054   0.0159  -0.0016   0.0044   0.0008   3.00    4.2
2023/08/18 08:35:04.000   31.026295206  121.439389019    15.1684   1  15   0.0064   0.0068   0.0187   0.0025   0.0066   0.0043   4.00    3.3
2023/08/18 08:35:05.000   31.026291973  121.439407987    15.1673   1  15   0.0064   0.0068   0.0187   0.0025   0.0066   0.0043   4.00    2.2
2023/08/18 08:35:06.000   31.026285395  121.439429026    15.5147   2  14   0.4786   0.5805   1.5934   0.1570   0.6429   0.2866   1.00    0.0
2023/08/18 08:35:07.000   31.026281953  121.439440088    17.8224   2  14   0.4772   0.5785   1.5812   0.1508   0.6553   0.3034   2.00    0.0
2023/08/18 08:35:08.000   31.026277220  121.439459553    19.9538   2  14   0.4714   0.5371   1.5176   0.0832   0.5823   0.2506   2.00    1.2
2023/08/18 08:35:09.000   31.026275173  121.439448932    15.4359   2  14   0.5421   0.4851   1.3822  -0.2950   0.1373   0.3652   2.00    1.0
2023/08/18 08:35:10.000   31.026259925  121.439446472    16.5532   2  16   0.4595   0.4482   1.3587  -0.1765   0.1835  -0.1219   2.00    1.3
2023/08/18 08:35:11.000   31.026255350  121.439439513    13.8223   2  15   0.4948   0.5040   1.3459  -0.2491   0.4666  -0.3064   2.00    1.0
2023/08/18 08:21:57.000   31.025725768  121.438112647    15.2610   1  15   0.0057   0.0057   0.0172  -0.0034   0.0036  -0.0033   2.00    2.1
2023/08/18 08:21:58.000   31.025707278  121.438066000    14.6597   2  12   0.6728   0.5682   1.7826  -0.3985   0.5370  -0.5077   2.00    0.0
2023/08/18 08:21:59.000   31.025688223  121.438029458    17.5220   2  13   0.5425   0.5849   1.7754  -0.2889  -0.3327  -0.4038   2.00    0.0
2023/08/18 08:22:00.000   31.025685609  121.437997904    16.6710   2  13   0.5848   0.5381   1.6349  -0.3461   0.3951  -0.4743   3.00    0.0
2023/08/18 08:22:01.000   31.025669084  121.437959290    17.7166   2  15   0.4800   0.5404   1.7122  -0.2505  -0.3364  -0.2439   3.00    0.0
2023/08/18 08:22:02.000   31.025663478  121.437931738    15.8194   2  13   0.5374   0.5607   1.7985  -0.3423  -0.0520  -0.4409   2.00    0.0
2023/08/18 08:22:03.000   31.025660685  121.437890046    17.3338   2  16   0.4308   0.4440   1.2957  -0.2354  -0.2290  -0.0928   3.00    1.0
2023/08/18 08:22:04.000   31.025654868  121.437872974    18.9319   2  17   0.3969   0.4550   1.2916  -0.2254  -0.2042   0.1105   2.00    1.5
