%  GPST                  latitude(deg) longitude(deg)  height(m)   Q  ns   sdn(m)   sde(m)   sdu(m)  sdne(m)  sdeu(m)  sdun(m) age(s)  ratio
2023/07/15 02:57:18.000   38.347677591   92.966697110  2698.1869   5  34   1.4966   1.1381   3.1457   0.3184   0.6496  -0.7405   0.00    0.0
2023/07/15 02:57:19.000   38.347676797   92.966701264  2699.0330   5  17   2.2524   1.5671   4.1171   0.4090   0.7270  -1.7562   0.00    0.0
2023/07/15 02:57:20.000   38.347671329   92.966699356  2698.6659   5  33   1.6360   1.2064   3.7203  -0.4039   1.1034  -1.3641   0.00    0.0
2023/07/15 02:57:21.000   38.347670628   92.966712114  2698.3211   5  32   1.6473   1.2185   3.7501  -0.3614   1.0666  -1.3968   0.00    0.0
2023/07/15 02:57:22.000   38.347665095   92.966722578  2698.5322   5  32   1.6473   1.2186   3.7502  -0.3616   1.0669  -1.3969   0.00    0.0
2023/07/15 02:57:23.000   38.347655273   92.966735745  2699.1997   5  33   1.6447   1.1612   3.6422  -0.4069   0.8989  -1.4266   0.00    0.0
2023/07/15 02:57:24.000   38.347652812   92.966752740  2698.1549   5  33   1.6447   1.1612   3.6423  -0.4070   0.8991  -1.4266   0.00    0.0
2023/07/15 02:57:25.000   38.347644316   92.966763998  2698.9064   5  32   1.6474   1.2188   3.7506  -0.3622   1.0676  -1.3970   0.00    0.0
2023/07/15 02:57:26.000   38.347655589   92.966762646  2693.1799   5  34   1.4928   1.1098   3.1076   0.2652   0.3988  -0.8507   0.00    0.0
2023/07/15 02:57:27.000   38.347627584   92.966788225  2699.8425   5  17   2.2528   1.5676   4.1181   0.4068   0.7283  -1.7573   0.00    0.0
2023/07/15 02:57:28.000   38.347636655   92.966791529  2695.2181   5  34   1.4929   1.1098   3.1078   0.2650   0.3994  -0.8508   0.00    0.0
2023/07/15 02:57:29.000   38.347618483   92.966814287  2699.2270   5  21   2.0026   1.4219   3.9578  -0.4201   0.5705  -1.6168   0.00    0.0
2023/07/15 02:57:30.000   38.347616967   92.966821939  2696.7842   5  33   1.5051   1.1545   3.1685   0.3615   0.5963  -0.7789   0.00    0.0
2023/07/15 02:57:31.000   38.347600545   92.966843717  2697.5389   5  17   3.0863   2.7857   6.8835  -1.8319   3.4643  -3.1897   0.00    0.0
2023/07/15 02:57:32.000   38.347599155   92.966858189  2698.5060   5  19   2.4322   1.6891   5.4807   0.3349   0.8915  -1.0959   0.00    0.0
2023/07/15 02:57:33.000   38.347592824   92.966869198  2695.6821   5  22   1.8657   1.4352   4.2270   0.6703   0.6452   0.5709   0.00    0.0
2023/07/15 02:57:34.000   38.347584424   92.966885437  2697.2878   5  31   1.5124   1.1635   3.3630   0.3810   0.5774  -0.8619   0.00    0.0
2023/07/15 02:57:35.000   38.347576944   92.966899611  2697.4799   5  34   1.4931   1.1100   3.1087   0.2643   0.4015  -0.8513   0.00    0.0
2023/07/15 02:57:36.000   38.347570379   92.966915312  2698.0411   5  34   1.4931   1.1101   3.1089   0.2642   0.4018  -0.8514   0.00    0.0
2023/07/15 02:57:37.000   38.347555226   92.966926123  2694.9210   5  17   2.9681   2.6524   7.4675  -2.0223   3.4444  -3.2704   0.00    0.0
2023/07/15 02:57:38.000   38.347557506   92.966941498  2697.9313   5  25   1.9405   1.3302   3.7792   0.2822   0.1969  -0.9106   0.00    0.0
2023/07/15 02:57:39.000   38.347551884   92.966958732  2697.4305   5  24   1.8419   1.3310   3.7317   0.5666   0.4269  -0.4980   0.00    0.0
2023/07/15 02:57:40.000   38.347542511   92.966970637  2697.4478   5  26   1.8567   1.3969   3.9266  -0.2101   0.9007  -1.4129   0.00    0.0
2023/07/15 02:57:41.000   38.347540994   92.966982111  2697.8749   5  33   1.5053   1.1548   3.1701   0.3607   0.5989  -0.7797   0.00    0.0
2023/07/15 02:57:43.000   38.347515610   92.967007512  2696.7048   5  18   2.7512   2.7739   6.8895  -1.9371   3.4647  -3.2145   0.00    0.0
2023/07/15 02:57:44.000   38.347515640   92.967020928  2695.2605   5  28   1.8508   1.2894   3.9268   0.1872   0.8852  -1.4106   0.00    0.0
2023/07/15 02:57:45.000   38.347508627   92.967038910  2698.5462   5  23   1.8941   1.3343   3.7642   0.5307   0.8609   0.5735   0.00    0.0
2023/07/15 02:57:47.000   38.347491410   92.967066131  2698.7862   5  19   2.0534   1.8679   5.2308   0.6550   1.8924   1.2044   0.00    0.0
2023/07/15 02:57:48.000   38.347481920   92.967085869  2699.1974   5  17   2.1413   1.8424   5.9861   0.3402   1.0829   1.6583   0.00    0.0
2023/07/15 02:57:50.000   38.347462989   92.967105737  2700.0425   5  12   3.4250   2.2534   6.3236   1.4799  -1.1586  -2.7661   0.00    0.0
2023/07/15 02:57:51.000   38.347463304   92.967123929  2700.9005   5  29   1.5755   1.2055   3.3764   0.3347   0.3186  -0.8325   0.00    0.0
2023/07/15 02:57:52.000   38.347455001   92.967139752  2700.7424   5  17   2.1784   1.7693   4.5832   0.3447   1.2978   0.3172   0.00    0.0
2023/07/15 02:57:54.000   38.347442516   92.967157653  2699.0999   5  30   1.5756   1.1792   3.2301   0.3312   0.5914  -0.8276   0.00    0.0
2023/07/15 02:57:55.000   38.347432987   92.967167460  2699.3666   5  30   1.5756   1.1792   3.2302   0.3311   0.5918  -0.8277   0.00    0.0
2023/07/15 02:57:56.000   38.347426877   92.967180510  2698.9956   5  30   1.5756   1.1793   3.2303   0.3310   0.5921  -0.8278   0.00    0.0
2023/07/15 02:57:57.000   38.347422609   92.967196129  2698.6040   5  33   1.5056   1.1554   3.1724   0.3594   0.6027  -0.7809   0.00    0.0
2023/07/15 02:57:58.000   38.347408307   92.967212492  2698.7299   5  32   1.5212   1.1774   3.1878   0.4222   0.5412  -0.8231   0.00    0.0
2023/07/15 02:57:59.000   38.347399775   92.967221293  2698.5422   5  32   1.5212   1.1775   3.1880   0.4222   0.5414  -0.8232   0.00    0.0
2023/07/15 02:58:00.000   38.347388833   92.967233157  2698.2591   5  33   1.5057   1.1555   3.1728   0.3592   0.6034  -0.7811   0.00    0.0
2023/07/15 02:58:01.000   38.347379092   92.967246263  2698.3765   5  33   1.5057   1.1555   3.1730   0.3591   0.6037  -0.7812   0.00    0.0
2023/07/15 02:58:02.000   38.347370109   92.967254820  2698.8099   5  32   1.5213   1.1775   3.1884   0.4220   0.5422  -0.8235   0.00    0.0
2023/07/15 02:58:03.000   38.347365061   92.967269559  2699.4502   5  32   1.5213   1.1776   3.1886   0.4219   0.5425  -0.8236   0.00    0.0
2023/07/15 02:58:04.000   38.347357029   92.967282325  2699.7660   5  33   1.5081   1.1307   3.1313   0.3346   0.3101  -0.8940   0.00    0.0
2023/07/15 02:58:05.000   38.347348986   92.967296326  2699.8865   5  32   1.5214   1.1776   3.1889   0.4218   0.5430  -0.8238   0.00    0.0
2023/07/15 02:58:06.000   38.347343630   92.967305866  2699.8248   5  32   1.5214   1.1777   3.1890   0.4217   0.5432  -0.8239   0.00    0.0
2023/07/15 02:58:07.000   38.347336540   92.967320271  2699.5814   5  33   1.5082   1.1307   3.1317   0.3344   0.3112  -0.8943   0.00    0.0
2023/07/15 02:58:08.000   38.347328329   92.967335322  2699.1402   5  33   1.5082   1.1308   3.1318   0.3343   0.3116  -0.8944   0.00    0.0
2023/07/15 02:58:09.000   38.347319738   92.967349928  2699.2292   5  34   1.4938   1.1110   3.1131   0.2607   0.4116  -0.8537   0.00    0.0
2023/07/15 02:58:10.000   38.347314488   92.967363755  2699.3407   5  34   1.4939   1.1111   3.1133   0.2606   0.4119  -0.8538   0.00    0.0
2023/07/15 02:58:11.000   38.347310186   92.967382197  2700.2017   5  33   1.6462   1.1639   3.6465  -0.4146   0.9101  -1.4289   0.00    0.0
2023/07/15 02:58:12.000   38.347305402   92.967395400  2699.1749   5  34   1.4939   1.1111   3.1135   0.2604   0.4125  -0.8539   0.00    0.0
2023/07/15 02:58:13.000   38.347298789   92.967411953  2698.9106   5  34   1.4939   1.1112   3.1136   0.2603   0.4128  -0.8540   0.00    0.0
2023/07/15 02:58:14.000   38.347291706   92.967427097  2699.4535   5  33   1.6462   1.1641   3.6468  -0.4151   0.9107  -1.4290   0.00    0.0
2023/07/15 02:58:15.000   38.347283044   92.967444827  2699.2767   5  34   1.4940   1.1112   3.1139   0.2600   0.4134  -0.8541   0.00    0.0
2023/07/15 02:58:16.000   38.347276400   92.967457772  2698.7251   5  34   1.4940   1.1112   3.1140   0.2599   0.4137  -0.8542   0.00    0.0
2023/07/15 02:58:17.000   38.347271661   92.967472421  2699.1670   5  18   2.2377   1.4704   4.0427  -0.0517   0.3040  -1.8289   0.00    0.0
2023/07/15 02:58:18.000   38.347263008   92.967486150  2698.6641   5  34   1.4941   1.1113   3.1143   0.2597   0.4143  -0.8543   0.00    0.0
2023/07/15 02:58:19.000   38.347252140   92.967499567  2698.6623   5  27   1.8492   1.3240   3.8296  -0.3576   0.6464  -1.4698   0.00    0.0
2023/07/15 02:58:21.000   38.347236215   92.967529252  2698.8457   5  27   1.8493   1.3241   3.8299  -0.3581   0.6467  -1.4701   0.00    0.0
2023/07/15 02:58:22.000   38.347228614   92.967540529  2698.2719   5  27   1.8493   1.3242   3.8300  -0.3584   0.6468  -1.4702   0.00    0.0
2023/07/15 02:58:23.000   38.347219413   92.967551298  2698.8925   5  27   1.8493   1.3242   3.8301  -0.3586   0.6469  -1.4703   0.00    0.0
2023/07/15 02:58:31.000   38.347157203   92.967651828  2698.1412   5  26   1.8984   1.3636   3.8312  -0.5184   0.6538  -1.4745   0.00    0.0
2023/07/15 02:58:40.000   38.347069090   92.967757683  2699.9800   5  32   1.5257   1.1602   3.1407   0.2296   0.2473  -0.8757   0.00    0.0
2023/07/15 02:58:42.000   38.347055079   92.967786848  2699.0047   5  33   1.5176   1.1309   3.1187   0.1091   0.3980  -0.8417   0.00    0.0
2023/07/15 02:58:43.000   38.347049308   92.967801920  2699.0130   5  32   1.5288   1.1762   3.1799   0.2674   0.5994  -0.7708   0.00    0.0
2023/07/15 02:58:44.000   38.347040222   92.967811842  2699.1405   5  32   1.5258   1.1603   3.1412   0.2292   0.2496  -0.8762   0.00    0.0
2023/07/15 02:58:45.000   38.347034105   92.967822233  2698.7661   5  30   1.5685   1.3331   3.3543  -0.2355   0.9137  -0.9810   0.00    0.0
2023/07/15 02:58:46.000   38.347027021   92.967837015  2698.8096   5  29   1.5688   1.3552   3.4813  -0.2507   0.7803  -0.9666   0.00    0.0
2023/07/15 02:58:49.000   38.346996534   92.967868529  2698.8080   5  28   1.6966   1.3312   4.1776  -0.3925   0.6823  -1.4907   0.00    0.0
2023/07/15 02:58:51.000   38.346975584   92.967910325  2702.4121   5  17   2.2047   1.9864   5.3176  -1.0057   1.3704  -2.2129   0.00    0.0
2023/07/15 02:58:52.000   38.346972366   92.967917506  2699.3989   5  29   1.5619   1.3436   3.6609  -0.3327   0.6376  -0.9409   0.00    0.0
2023/07/15 02:58:53.000   38.346965832   92.967938032  2699.0941   5  28   1.5619   1.3591   3.6700  -0.3316   0.6777  -0.9405   0.00    0.0
2023/07/15 02:58:54.000   38.346963108   92.967949506  2698.8084   5  28   1.5946   1.3492   3.5091  -0.1753   0.9020  -0.9179   0.00    0.0
2023/07/15 02:58:55.000   38.346958097   92.967962323  2699.4047   5  29   1.5613   1.3326   3.4989  -0.3149   0.8702  -0.9644   0.00    0.0
2023/07/15 02:58:56.000   38.346951783   92.967976292  2699.5128   5  30   1.5293   1.2135   3.3254   0.2722   0.3978  -0.7666   0.00    0.0
2023/07/15 02:58:57.000   38.346945840   92.967991024  2700.3535   5  30   1.5293   1.2135   3.3255   0.2721   0.3982  -0.7667   0.00    0.0
2023/07/15 02:58:58.000   38.346936321   92.968009979  2700.2632   5  30   1.5293   1.2136   3.3256   0.2720   0.3987  -0.7668   0.00    0.0
2023/07/15 02:58:59.000   38.346926687   92.968024103  2699.2312   5  29   1.5700   1.2231   3.3294   0.3578   0.4277  -0.7303   0.00    0.0
2023/07/15 02:59:00.000   38.346920710   92.968038340  2700.0456   5  30   1.5294   1.2136   3.3259   0.2717   0.3996  -0.7671   0.00    0.0
2023/07/15 02:59:01.000   38.346910769   92.968048384  2700.7752   5  31   1.5291   1.2028   3.3207   0.2635   0.3601  -0.7705   0.00    0.0
2023/07/15 02:59:02.000   38.346902970   92.968063810  2700.8875   5  31   1.5292   1.2029   3.3208   0.2634   0.3606  -0.7706   0.00    0.0
2023/07/15 02:59:03.000   38.346892463   92.968078888  2701.5290   5  30   1.5696   1.2121   3.3244   0.3493   0.3909  -0.7353   0.00    0.0
2023/07/15 02:59:04.000   38.346884993   92.968094756  2700.8949   5  30   1.5697   1.2121   3.3245   0.3492   0.3914  -0.7355   0.00    0.0
2023/07/15 02:59:05.000   38.346883764   92.968102461  2699.6950   5  29   1.5945   1.3338   3.5006  -0.1847   0.8738  -0.9210   0.00    0.0
2023/07/15 02:59:06.000   38.346874007   92.968121661  2701.2314   5  30   1.5697   1.2122   3.3247   0.3490   0.3923  -0.7357   0.00    0.0
2023/07/15 02:59:07.000   38.346866157   92.968134480  2701.4007   5  30   1.5697   1.2122   3.3248   0.3489   0.3928  -0.7358   0.00    0.0
2023/07/15 02:59:08.000   38.346862879   92.968145499  2701.4374   5  30   1.5697   1.2122   3.3250   0.3488   0.3932  -0.7359   0.00    0.0
2023/07/15 02:59:10.000   38.346843712   92.968179396  2704.0523   5  29   1.7268   1.2781   3.9359  -0.4118   1.0038  -1.4343   0.00    0.0
2023/07/15 02:59:11.000   38.346845923   92.968190732  2701.9669   5  30   1.5698   1.2123   3.3253   0.3486   0.3946  -0.7363   0.00    0.0
2023/07/15 02:59:12.000   38.346833917   92.968213073  2703.8696   5  29   1.7269   1.2782   3.9361  -0.4123   1.0045  -1.4344   0.00    0.0
2023/07/15 02:59:13.000   38.346831150   92.968230480  2703.7170   5  29   1.7269   1.2783   3.9362  -0.4125   1.0048  -1.4345   0.00    0.0
2023/07/15 02:59:14.000   38.346822846   92.968244758  2703.6311   5  29   1.7269   1.2784   3.9363  -0.4127   1.0051  -1.4346   0.00    0.0
2023/07/15 02:59:15.000   38.346828185   92.968245630  2700.6797   5  28   1.8425   1.5095   4.5041  -0.8281   1.6636  -1.8611   0.00    0.0
2023/07/15 02:59:16.000   38.346814401   92.968272094  2703.7944   5  29   1.7270   1.2785   3.9365  -0.4131   1.0058  -1.4347   0.00    0.0
2023/07/15 02:59:17.000   38.346807873   92.968287471  2703.5258   5  29   1.7270   1.2786   3.9365  -0.4133   1.0061  -1.4348   0.00    0.0
2023/07/15 02:59:18.000   38.346805921   92.968309437  2703.8729   5  18   2.0962   1.5909   4.3413   0.2640   0.4422  -1.6262   0.00    0.0
2023/07/15 02:59:20.000   38.346800510   92.968333438  2701.9940   5  29   1.7271   1.2789   3.9368  -0.4140   1.0070  -1.4351   0.00    0.0
2023/07/15 02:59:21.000   38.346796784   92.968350655  2702.1053   5  29   1.7271   1.2789   3.9369  -0.4142   1.0074  -1.4351   0.00    0.0
2023/07/15 02:59:22.000   38.346793514   92.968365106  2701.8061   5  29   1.7271   1.2790   3.9370  -0.4144   1.0077  -1.4352   0.00    0.0
2023/07/15 02:59:23.000   38.346792367   92.968381050  2701.3206   5  29   1.7272   1.2791   3.9370  -0.4146   1.0080  -1.4353   0.00    0.0
2023/07/15 02:59:24.000   38.346789821   92.968394830  2701.2245   5  29   1.7272   1.2792   3.9371  -0.4148   1.0083  -1.4354   0.00    0.0
2023/07/15 02:59:25.000   38.346787856   92.968409476  2701.2050   5  28   1.7702   1.2863   3.9375  -0.4738   1.0058  -1.4296   0.00    0.0
2023/07/15 02:59:26.000   38.346784705   92.968432046  2702.0679   5  17   2.1706   1.6040   4.3436  -0.2137   0.4174  -1.6061   0.00    0.0
2023/07/15 02:59:27.000   38.346783730   92.968441592  2701.2375   5  28   1.7703   1.2865   3.9376  -0.4742   1.0064  -1.4298   0.00    0.0
2023/07/15 02:59:28.000   38.346783697   92.968456284  2701.4901   5  26   1.7824   1.3244   4.1367  -0.4935   0.9178  -1.4419   0.00    0.0
2023/07/15 02:59:29.000   38.346782647   92.968466267  2700.6492   5  28   1.8427   1.5118   4.5082  -0.8305   1.6697  -1.8629   0.00    0.0
2023/07/15 02:59:30.000   38.346778776   92.968481990  2701.2548   5  28   1.8427   1.5120   4.5085  -0.8306   1.6701  -1.8630   0.00    0.0
2023/07/15 02:59:31.000   38.346777016   92.968494434  2699.6849   5  26   1.9308   1.6977   5.2944  -0.8198   2.2053  -1.9520   0.00    0.0
2023/07/15 02:59:32.000   38.346774517   92.968515789  2701.3808   5  27   1.9304   1.5125   4.5748  -0.8383   1.6759  -1.9788   0.00    0.0
2023/07/15 02:59:33.000   38.346767041   92.968534593  2702.1514   5  22   2.0819   1.5066   4.2331  -0.1459   0.5407  -1.5936   0.00    0.0
2023/07/15 02:59:34.000   38.346767131   92.968547788  2701.3843   5  28   1.8017   1.2811   3.9776  -0.3815   0.9962  -1.5327   0.00    0.0
2023/07/15 02:59:35.000   38.346772604   92.968559342  2696.2652   5  28   1.9257   1.5079   4.3619  -0.8488   1.7274  -1.9311   0.00    0.0
2023/07/15 02:59:36.000   38.346766729   92.968584113  2697.9966   5  29   1.8005   1.2649   3.8033  -0.3997   1.1097  -1.5068   0.00    0.0
2023/07/15 02:59:37.000   38.346761075   92.968596668  2700.3222   5  28   1.8018   1.2813   3.9777  -0.3822   0.9972  -1.5328   0.00    0.0
2023/07/15 02:59:38.000   38.346758757   92.968615199  2700.0720   5  28   1.8018   1.2814   3.9778  -0.3825   0.9975  -1.5328   0.00    0.0
2023/07/15 02:59:39.000   38.346756378   92.968628885  2699.7656   5  28   1.8019   1.2815   3.9778  -0.3827   0.9978  -1.5329   0.00    0.0
2023/07/15 02:59:40.000   38.346755805   92.968640617  2698.9622   5  27   1.9306   1.5138   4.5767  -0.8396   1.6793  -1.9794   0.00    0.0
2023/07/15 02:59:41.000   38.346747509   92.968657691  2700.6029   5  21   2.3295   1.5565   4.3119   0.5991  -0.0614  -1.8624   0.00    0.0
2023/07/15 02:59:42.000   38.346751518   92.968653532  2690.0475   5  12   2.8171   3.2796  13.8564  -0.3768   5.5683  -2.8770   0.00    0.0
2023/07/15 02:59:44.000   38.346740154   92.968697929  2699.8893   5  27   1.9307   1.5145   4.5776  -0.8402   1.6810  -1.9797   0.00    0.0
2023/07/15 02:59:45.000   38.346738449   92.968714769  2700.5984   5  23   2.1798   1.5726   5.0770  -0.5556   1.6175  -2.1958   0.00    0.0
2023/07/15 02:59:46.000   38.346725717   92.968730386  2698.9966   5  18   1.9954   1.6738   5.6243  -0.7091   1.1747  -1.6866   0.00    0.0
2023/07/15 02:59:47.000   38.346720407   92.968743629  2700.9626   5  28   1.8022   1.2821   3.9781  -0.3845   1.0005  -1.5332   0.00    0.0
2023/07/15 02:59:48.000   38.346712161   92.968756499  2700.9232   5  27   1.8687   1.2939   3.9845  -0.2497   1.0200  -1.4967   0.00    0.0
2023/07/15 02:59:51.000   38.346691947   92.968791144  2701.5809   5  27   1.8024   1.3057   4.1791  -0.3841   0.8304  -1.5350   0.00    0.0
2023/07/15 02:59:52.000   38.346682127   92.968799423  2701.1175   5  25   2.0418   1.5436   4.8910  -0.7328   1.5472  -2.1368   0.00    0.0
2023/07/15 02:59:53.000   38.346677908   92.968813626  2700.3973   5  24   2.0547   1.5438   5.1392  -0.7319   1.5441  -2.2200   0.00    0.0
2023/07/15 02:59:54.000   38.346669869   92.968824609  2700.4584   5  26   1.9323   1.5250   4.8247  -0.8346   1.6096  -2.0088   0.00    0.0
2023/07/15 02:59:55.000   38.346662198   92.968838260  2700.3677   5  27   1.8438   1.5251   4.7525  -0.8300   1.6065  -1.8852   0.00    0.0
2023/07/15 02:59:57.000   38.346643622   92.968869431  2701.0760   5  21   2.1102   1.8705   5.0613  -0.9482   1.4064  -1.9399   0.00    0.0
2023/07/15 02:59:58.000   38.346638028   92.968874844  2700.7813   5  26   1.9441   1.5389   4.7551  -0.7520   1.5996  -1.9072   0.00    0.0
2023/07/15 02:59:59.000   38.346635421   92.968882798  2699.8668   5  26   2.3910   1.7924   4.9048  -1.3744   2.1486  -2.4825   0.00    0.0
2023/07/15 03:00:01.000   38.346607015   92.968911056  2700.2576   5  28   1.8199   1.3039   3.9418  -0.2071   1.0335  -1.4153   0.00    0.0
2023/07/15 03:00:02.000   38.346599513   92.968923383  2701.1815   5  26   1.9417   1.5751   4.6463  -0.7630   1.5562  -1.8713   0.00    0.0
2023/07/15 03:00:03.000   38.346583424   92.968934090  2701.5093   5  26   1.8457   1.5911   4.6809  -0.8551   1.6129  -1.8785   0.00    0.0
2023/07/15 03:00:04.000   38.346575288   92.968947547  2700.8199   5  27   1.8457   1.5451   4.5573  -0.8525   1.7349  -1.8822   0.00    0.0
2023/07/15 03:00:05.000   38.346562966   92.968955662  2700.8643   5  27   1.8457   1.5453   4.5575  -0.8527   1.7354  -1.8823   0.00    0.0
2023/07/15 03:00:07.000   38.346548332   92.968979786  2701.0704   5  27   1.8458   1.5456   4.5581  -0.8530   1.7362  -1.8825   0.00    0.0
2023/07/15 03:00:08.000   38.346533523   92.968990422  2702.3065   5  28   1.8427   1.5410   4.3547  -0.8608   1.7832  -1.8439   0.00    0.0
2023/07/15 03:00:09.000   38.346527470   92.968999262  2701.5209   5  26   1.9649   1.5893   4.4364  -0.8602   1.8665  -1.9029   0.00    0.0
2023/07/15 03:00:10.000   38.346517157   92.969011399  2701.5078   5  24   1.9720   1.6888   4.6537  -0.8686   1.8725  -1.9635   0.00    0.0
2023/07/15 03:00:12.000   38.346494541   92.969032753  2701.9903   5  27   1.8383   1.3470   3.9071  -0.1703   1.0528  -1.6458   0.00    0.0
2023/07/15 03:00:13.000   38.346486586   92.969040299  2702.0707   5  26   1.8323   1.3359   4.0220  -0.2963   1.0382  -1.5784   0.00    0.0
2023/07/15 03:00:14.000   38.346476411   92.969048997  2701.9424   5  26   1.9559   1.5948   4.4638  -0.8522   1.8353  -1.9879   0.00    0.0
2023/07/15 03:00:15.000   38.346466810   92.969059221  2702.4376   5  26   1.9200   1.5976   4.5020  -0.8654   1.8153  -2.0007   0.00    0.0
2023/07/15 03:00:16.000   38.346460609   92.969069195  2702.0147   5  26   1.9200   1.5978   4.5022  -0.8656   1.8157  -2.0008   0.00    0.0
2023/07/15 03:00:17.000   38.346453302   92.969082190  2701.9163   5  26   1.8738   1.5843   4.6419  -0.9165   1.8228  -1.9562   0.00    0.0
2023/07/15 03:00:18.000   38.346437733   92.969091325  2702.4660   5  26   1.8738   1.5845   4.6421  -0.9167   1.8232  -1.9563   0.00    0.0
2023/07/15 03:00:19.000   38.346434289   92.969096531  2700.1967   5  27   1.7421   1.3135   3.9855  -0.4783   1.1023  -1.4779   0.00    0.0
2023/07/15 03:00:20.000   38.346423959   92.969110848  2701.2584   5  27   1.7421   1.3136   3.9855  -0.4785   1.1026  -1.4780   0.00    0.0
2023/07/15 03:00:21.000   38.346416637   92.969121811  2700.7771   5  27   1.7421   1.3137   3.9856  -0.4787   1.1028  -1.4780   0.00    0.0
2023/07/15 03:00:22.000   38.346407269   92.969135068  2701.4526   5  26   1.7879   1.3555   4.0671  -0.3084   0.9728  -1.5845   0.00    0.0
2023/07/15 03:00:23.000   38.346396865   92.969148235  2701.9707   5  21   1.9708   1.6188   4.4760   0.4956  -0.7093  -1.8406   0.00    0.0
2023/07/15 03:00:25.000   38.346380332   92.969164734  2701.3356   5  26   1.8738   1.5857   4.6439  -0.9178   1.8259  -1.9569   0.00    0.0
2023/07/15 03:00:27.000   38.346365985   92.969181991  2700.1186   5  27   1.7508   1.3660   4.2986  -0.2654   1.3545  -1.2721   0.00    0.0
2023/07/15 03:00:29.000   38.346345935   92.969212411  2702.0353   5  28   1.7291   1.2987   3.9560  -0.4330   1.0595  -1.4428   0.00    0.0
2023/07/15 03:00:30.000   38.346332167   92.969223818  2702.6954   5  27   1.8191   1.3225   3.9922  -0.2169   0.9949  -1.5443   0.00    0.0
2023/07/15 03:00:31.000   38.346329729   92.969234319  2699.9411   5  28   1.8432   1.5450   4.3616  -0.8647   1.7920  -1.8471   0.00    0.0
2023/07/15 03:00:32.000   38.346317698   92.969253074  2701.0613   5  27   1.8192   1.3226   3.9923  -0.2178   0.9955  -1.5445   0.00    0.0
2023/07/15 03:00:33.000   38.346314746   92.969258886  2700.9715   5  21   3.0244   1.8705   5.4283  -1.1979   2.1676  -2.9360   0.00    0.0
2023/07/15 03:00:34.000   38.346294843   92.969277789  2702.1970   5  27   1.7756   1.3413   4.0380  -0.2324   0.9252  -1.5520   0.00    0.0
2023/07/15 03:00:35.000   38.346285350   92.969289470  2701.4908   5  27   1.7339   1.2992   4.1669  -0.4335   1.0578  -1.4994   0.00    0.0
2023/07/15 03:00:36.000   38.346276068   92.969297584  2702.4016   5  28   1.7293   1.2993   3.9564  -0.4346   1.0616  -1.4434   0.00    0.0
2023/07/15 03:00:37.000   38.346267665   92.969305698  2701.4545   5  27   1.8464   1.5508   4.5665  -0.8582   1.7487  -1.8865   0.00    0.0
2023/07/15 03:00:38.000   38.346255619   92.969322017  2703.1587   5  28   1.7294   1.2994   3.9565  -0.4350   1.0622  -1.4436   0.00    0.0
2023/07/15 03:00:39.000   38.346251805   92.969325099  2701.7483   5  27   1.8464   1.5511   4.5671  -0.8586   1.7495  -1.8867   0.00    0.0
2023/07/15 03:00:40.000   38.346242568   92.969338002  2701.8045   5  27   1.8464   1.5513   4.5674  -0.8588   1.7499  -1.8868   0.00    0.0
2023/07/15 03:00:41.000   38.346234864   92.969348156  2701.8694   5  27   1.8464   1.5514   4.5676  -0.8589   1.7503  -1.8870   0.00    0.0
2023/07/15 03:00:42.000   38.346223442   92.969359906  2701.9604   5  27   1.8465   1.5516   4.5679  -0.8591   1.7507  -1.8871   0.00    0.0
2023/07/15 03:00:43.000   38.346215401   92.969375177  2701.6409   5  27   1.8465   1.5518   4.5682  -0.8593   1.7511  -1.8872   0.00    0.0
2023/07/15 03:00:44.000   38.346205404   92.969386296  2701.1487   5  27   1.8465   1.5520   4.5685  -0.8595   1.7516  -1.8874   0.00    0.0
2023/07/15 03:00:45.000   38.346200112   92.969398944  2702.1855   5  27   1.8436   1.5532   4.5216  -0.8651   1.7532  -1.8571   0.00    0.0
2023/07/15 03:00:46.000   38.346189948   92.969411766  2701.8575   5  27   1.8436   1.5534   4.5219  -0.8653   1.7536  -1.8572   0.00    0.0
2023/07/15 03:00:47.000   38.346178780   92.969423670  2702.0911   5  26   1.8740   1.5897   4.6492  -0.9213   1.8346  -1.9590   0.00    0.0
2023/07/15 03:00:48.000   38.346171317   92.969431678  2701.4989   5  27   1.8466   1.5527   4.5696  -0.8602   1.7532  -1.8879   0.00    0.0
2023/07/15 03:00:50.000   38.346146391   92.969460808  2704.0326   5  17   2.2530   1.9753   4.9895  -0.9542   1.7553  -2.1685   0.00    0.0
2023/07/15 03:00:52.000   38.346135534   92.969481718  2702.5960   5  27   1.8467   1.5533   4.5707  -0.8609   1.7549  -1.8884   0.00    0.0
2023/07/15 03:00:53.000   38.346126279   92.969494676  2702.6129   5  27   1.8467   1.5535   4.5710  -0.8610   1.7553  -1.8885   0.00    0.0
2023/07/15 03:00:54.000   38.346119887   92.969508912  2701.6267   5  27   1.8467   1.5537   4.5712  -0.8612   1.7557  -1.8887   0.00    0.0
2023/07/15 03:00:55.000   38.346110870   92.969522942  2702.1976   5  27   1.8467   1.5539   4.5715  -0.8614   1.7561  -1.8888   0.00    0.0
2023/07/15 03:00:56.000   38.346099632   92.969541699  2703.8961   5  28   1.7299   1.3008   3.9576  -0.4389   1.0675  -1.4451   0.00    0.0
2023/07/15 03:00:57.000   38.346092609   92.969545997  2703.1366   5  27   1.8468   1.5542   4.5721  -0.8617   1.7569  -1.8891   0.00    0.0
2023/07/15 03:00:58.000   38.346085498   92.969556707  2703.4181   5  27   1.8468   1.5544   4.5723  -0.8619   1.7574  -1.8892   0.00    0.0
2023/07/15 03:00:59.000   38.346079810   92.969571022  2702.6708   5  28   1.7300   1.3011   3.9578  -0.4395   1.0683  -1.4453   0.00    0.0
2023/07/15 03:01:00.000   38.346067350   92.969586262  2702.9145   5  28   1.7300   1.3012   3.9578  -0.4398   1.0686  -1.4454   0.00    0.0
2023/07/15 03:01:01.000   38.346059912   92.969594762  2702.4289   5  28   1.7300   1.3012   3.9579  -0.4400   1.0689  -1.4455   0.00    0.0
2023/07/15 03:01:02.000   38.346050719   92.969602112  2702.0054   5  28   1.7300   1.3013   3.9579  -0.4402   1.0692  -1.4456   0.00    0.0
2023/07/15 03:01:03.000   38.346035535   92.969620706  2703.8701   5  27   1.8469   1.5552   4.5737  -0.8628   1.7594  -1.8898   0.00    0.0
2023/07/15 03:01:04.000   38.346029494   92.969629215  2703.4435   5  27   1.8469   1.5554   4.5740  -0.8630   1.7598  -1.8900   0.00    0.0
2023/07/15 03:01:05.000   38.346022290   92.969644364  2702.7357   5  28   1.7301   1.3016   3.9581  -0.4408   1.0701  -1.4458   0.00    0.0
2023/07/15 03:01:06.000   38.346011519   92.969662779  2702.8793   5  27   1.8470   1.5558   4.5745  -0.8633   1.7607  -1.8902   0.00    0.0
2023/07/15 03:01:07.000   38.346003892   92.969674174  2702.5206   5  27   1.8470   1.5559   4.5748  -0.8635   1.7611  -1.8904   0.00    0.0
2023/07/15 03:01:08.000   38.345991921   92.969681550  2703.2975   5  27   1.8470   1.5561   4.5751  -0.8637   1.7615  -1.8905   0.00    0.0
2023/07/15 03:01:09.000   38.345979304   92.969695101  2704.2371   5  27   1.8470   1.5563   4.5753  -0.8638   1.7619  -1.8906   0.00    0.0
2023/07/15 03:01:10.000   38.345972678   92.969707418  2704.2164   5  27   1.8470   1.5565   4.5756  -0.8640   1.7623  -1.8907   0.00    0.0
2023/07/15 03:01:11.000   38.345962507   92.969723458  2704.0909   5  28   1.7303   1.3020   3.9585  -0.4421   1.0718  -1.4463   0.00    0.0
2023/07/15 03:01:12.000   38.345953634   92.969732089  2701.6375   5  29   1.7297   1.2866   3.7932  -0.4524   1.1732  -1.4287   0.00    0.0
2023/07/15 03:01:13.000   38.345940002   92.969742431  2702.5388   5  28   1.7304   1.3022   3.9586  -0.4426   1.0724  -1.4465   0.00    0.0
2023/07/15 03:01:14.000   38.345932574   92.969750587  2702.0182   5  28   1.7304   1.3023   3.9586  -0.4428   1.0727  -1.4466   0.00    0.0
2023/07/15 03:01:15.000   38.345922250   92.969767555  2702.6089   5  27   1.8471   1.5573   4.5770  -0.8649   1.7644  -1.8914   0.00    0.0
2023/07/15 03:01:16.000   38.345919889   92.969780105  2701.5033   5  28   1.7304   1.3024   3.9587  -0.4432   1.0733  -1.4467   0.00    0.0
2023/07/15 03:01:17.000   38.345908164   92.969796652  2702.1737   5  27   1.8472   1.5577   4.5775  -0.8652   1.7652  -1.8917   0.00    0.0
2023/07/15 03:01:18.000   38.345896029   92.969808495  2702.7399   5  28   1.7305   1.3026   3.9588  -0.4436   1.0739  -1.4469   0.00    0.0
2023/07/15 03:01:19.000   38.345889695   92.969815573  2701.7094   5  28   1.7305   1.3027   3.9589  -0.4438   1.0742  -1.4470   0.00    0.0
2023/07/15 03:01:20.000   38.345884109   92.969821269  2700.1912   5  28   1.7306   1.3027   3.9589  -0.4441   1.0744  -1.4471   0.00    0.0
2023/07/15 03:01:23.000   38.345863047   92.969852576  2698.4336   5  27   1.8101   1.3078   3.9857  -0.3722   1.0512  -1.5293   0.00    0.0
2023/07/15 03:01:24.000   38.345842432   92.969876289  2702.6455   5  27   1.8473   1.5589   4.5794  -0.8665   1.7681  -1.8926   0.00    0.0
2023/07/15 03:01:27.000   38.345816411   92.969913961  2702.4815   5  27   1.8474   1.5594   4.5802  -0.8670   1.7693  -1.8929   0.00    0.0
2023/07/15 03:01:28.000   38.345808981   92.969926572  2702.2517   5  27   1.8474   1.5596   4.5805  -0.8672   1.7697  -1.8931   0.00    0.0
2023/07/15 03:01:29.000   38.345801604   92.969937488  2701.8768   5  27   1.8474   1.5598   4.5808  -0.8673   1.7702  -1.8932   0.00    0.0
2023/07/15 03:01:30.000   38.345793923   92.969948835  2702.0376   5  27   1.8474   1.5599   4.5810  -0.8675   1.7706  -1.8933   0.00    0.0
2023/07/15 03:01:31.000   38.345783993   92.969960761  2701.3575   5  27   1.8475   1.5601   4.5813  -0.8677   1.7710  -1.8935   0.00    0.0
2023/07/15 03:01:32.000   38.345774523   92.969969292  2701.4227   5  27   1.8475   1.5603   4.5816  -0.8679   1.7714  -1.8936   0.00    0.0
2023/07/15 03:01:33.000   38.345763941   92.969979739  2702.3687   5  27   1.8475   1.5605   4.5819  -0.8680   1.7718  -1.8937   0.00    0.0
2023/07/15 03:01:35.000   38.345742521   92.970004766  2701.8933   5  27   1.8475   1.5608   4.5824  -0.8684   1.7726  -1.8940   0.00    0.0
2023/07/15 03:01:36.000   38.345731881   92.970019774  2701.8695   5  27   1.8476   1.5610   4.5827  -0.8686   1.7730  -1.8941   0.00    0.0
2023/07/15 03:01:37.000   38.345721599   92.970031872  2703.0081   5  28   1.8233   1.5433   4.5691  -0.9083   1.7496  -1.9221   0.00    0.0
2023/07/15 03:01:38.000   38.345711653   92.970043528  2703.2837   5  27   1.8476   1.5613   4.5832  -0.8689   1.7739  -1.8944   0.00    0.0
2023/07/15 03:01:39.000   38.345705921   92.970057053  2703.3586   5  28   1.8234   1.5437   4.5696  -0.9086   1.7504  -1.9224   0.00    0.0
2023/07/15 03:01:40.000   38.345701199   92.970065721  2701.3132   5  18   2.2026   1.9492   4.9931  -1.0480   1.7435  -2.2065   0.00    0.0
2023/07/15 03:01:41.000   38.345709119   92.970061814  2700.6823   5  29   1.8194   1.5386   4.3730  -0.9176   1.7996  -1.8802   0.00    0.0
2023/07/15 03:01:42.000   38.345706462   92.970061198  2700.3564   5  28   1.8446   1.5577   4.3828  -0.8767   1.8192  -1.8569   0.00    0.0
2023/07/15 03:01:43.000   38.345708209   92.970062442  2700.4960   5  28   1.8447   1.5579   4.3831  -0.8769   1.8196  -1.8571   0.00    0.0
2023/07/15 03:01:44.000   38.345703613   92.970068510  2701.0826   5  27   1.9068   1.6954   4.4631  -1.0449   1.9682  -1.9633   0.00    0.0
2023/07/15 03:01:45.000   38.345713289   92.970052843  2698.5739   5  15   4.6354   2.8265   6.9902  -1.0417   3.5097  -3.8284   0.00    0.0
2023/07/15 03:01:46.000   38.345708762   92.970066773  2706.8092   5   8   6.0233   3.5144  15.7442  -1.4347   5.8740  -6.5341   0.00    0.0
