%  GPST                  latitude(deg) longitude(deg)  height(m)   Q  ns   sdn(m)   sde(m)   sdu(m)  sdne(m)  sdeu(m)  sdun(m) age(s)  ratio
2023/07/15 03:03:51.000   38.345706935   92.970062659  2699.6003   5  20   2.0815   1.5446   4.0254   0.8748   1.1199  -0.8165   0.00    0.0
2023/07/15 03:03:52.000   38.345720923   92.970070683  2700.7009   5  21   1.9250   1.5078   3.9976   0.7067   1.0469  -1.0209   0.00    0.0
2023/07/15 03:03:54.000   38.345688372   92.970068362  2699.4407   5  10   2.3473   2.4942   5.8324   0.7764   0.3775  -0.6544   0.00    0.0
2023/07/15 03:03:55.000   38.345709664   92.970081540  2702.6673   5  20   1.8720   1.5329   4.1080   0.6216   0.5971  -1.2429   0.00    0.0
2023/07/15 03:03:56.000   38.345713865   92.970071226  2701.7035   5  23   1.7806   1.2900   3.7310   0.5746  -0.1137  -1.0879   0.00    0.0
2023/07/15 03:03:57.000   38.345717350   92.970071575  2700.6709   5  19   1.7911   1.4806   4.0605   0.5978  -1.0476  -1.3895   0.00    0.0
2023/07/15 03:03:58.000   38.345728771   92.970062436  2699.2228   5  20   1.8320   1.3772   4.2004   0.5279  -0.9670  -1.0379   0.00    0.0
2023/07/15 03:03:59.000   38.345731268   92.970050741  2701.9000   5  20   1.7129   1.4893   4.2240   0.4424  -1.3303  -1.3408   0.00    0.0
2023/07/15 03:04:00.000   38.345742795   92.970044134  2700.1428   5  20   1.7130   1.4893   4.2242   0.4421  -1.3301  -1.3406   0.00    0.0
2023/07/15 03:04:01.000   38.345753810   92.970035455  2701.2548   5  23   1.6387   1.4047   4.0958   0.2256  -1.1458  -1.1585   0.00    0.0
2023/07/15 03:04:02.000   38.345765330   92.970029493  2699.8621   5  24   1.6381   1.3069   3.9531   0.2719  -0.8719  -1.1792   0.00    0.0
2023/07/15 03:04:03.000   38.345772758   92.970020351  2700.1061   5  24   1.6983   1.3243   3.9168   0.4120  -0.9127  -1.2360   0.00    0.0
2023/07/15 03:04:04.000   38.345784173   92.970006539  2700.5123   5  25   1.6350   1.3055   3.9131   0.2594  -0.8908  -1.2031   0.00    0.0
2023/07/15 03:04:05.000   38.345796759   92.969996627  2700.2648   5  25   1.7005   1.3001   3.6313   0.4057  -0.5974  -1.1306   0.00    0.0
2023/07/15 03:04:06.000   38.345804358   92.969983300  2700.9420   5  26   1.6321   1.2733   3.6311   0.1974  -0.6096  -1.1427   0.00    0.0
2023/07/15 03:04:07.000   38.345809702   92.969972844  2700.8864   5  26   1.6322   1.2733   3.6313   0.1971  -0.6092  -1.1428   0.00    0.0
2023/07/15 03:04:08.000   38.345815851   92.969967069  2701.3952   5  28   1.6139   1.2306   3.4178  -0.2017  -0.6628  -1.1527   0.00    0.0
2023/07/15 03:04:09.000   38.345834955   92.969957347  2699.9176   5  28   1.6140   1.2306   3.4179  -0.2019  -0.6625  -1.1528   0.00    0.0
2023/07/15 03:04:10.000   38.345844602   92.969943745  2700.2739   5  28   1.6140   1.2307   3.4181  -0.2022  -0.6622  -1.1529   0.00    0.0
2023/07/15 03:04:11.000   38.345850167   92.969929958  2700.7018   5  29   1.5814   1.2204   3.4162   0.1016  -0.6475  -1.1695   0.00    0.0
2023/07/15 03:04:12.000   38.345862493   92.969920530  2701.0949   5  30   1.6022   1.1825   3.1951  -0.2208  -0.1992  -1.1126   0.00    0.0
2023/07/15 03:04:13.000   38.345870639   92.969913967  2701.3389   5  29   1.6038   1.2524   3.2692  -0.2784  -0.5696  -1.0909   0.00    0.0
2023/07/15 03:04:14.000   38.345867346   92.969899342  2700.2483   5  22   2.1453   1.5202   4.3975  -0.5322  -0.8622  -1.6278   0.00    0.0
2023/07/15 03:04:16.000   38.345894702   92.969880904  2701.6581   5  29   1.5737   1.2948   3.4329  -0.1974  -0.8305  -1.0925   0.00    0.0
2023/07/15 03:04:17.000   38.345903874   92.969872244  2700.9723   5  29   1.5738   1.2948   3.4330  -0.1977  -0.8303  -1.0926   0.00    0.0
2023/07/15 03:04:18.000   38.345910935   92.969864012  2699.6933   5  31   1.5727   1.1751   3.1953  -0.0901  -0.1690  -1.1222   0.00    0.0
2023/07/15 03:04:19.000   38.345921014   92.969852518  2700.0059   5  31   1.5728   1.1751   3.1955  -0.0906  -0.1678  -1.1223   0.00    0.0
2023/07/15 03:04:23.000   38.345959509   92.969795516  2697.0261   5  21   1.9314   2.1597   6.4263  -0.6096   2.6032  -1.8000   0.00    0.0
2023/07/15 03:04:24.000   38.345969650   92.969795032  2699.7271   5  22   1.7223   1.5911   4.0853   0.2670   0.9495  -0.9361   0.00    0.0
2023/07/15 03:04:25.000   38.345973930   92.969789034  2700.2823   5  30   1.5020   1.2881   3.3165   0.0736  -0.3220  -1.0364   0.00    0.0
2023/07/15 03:04:26.000   38.345987997   92.969774622  2700.5417   5  30   1.5020   1.2881   3.3167   0.0728  -0.3214  -1.0365   0.00    0.0
2023/07/15 03:04:27.000   38.345993846   92.969772649  2698.9665   5  31   1.5015   1.2188   3.2495   0.1493   0.4176  -1.0498   0.00    0.0
2023/07/15 03:04:28.000   38.346002461   92.969765105  2699.6645   5  30   1.5017   1.2506   3.3903   0.1222  -0.3091  -1.0379   0.00    0.0
2023/07/15 03:04:30.000   38.346018928   92.969739982  2699.9061   5  30   1.5018   1.2506   3.3907   0.1212  -0.3076  -1.0381   0.00    0.0
2023/07/15 03:04:31.000   38.346027037   92.969733022  2699.9601   5  31   1.4940   1.2121   3.3273  -0.1803  -0.5436  -1.0852   0.00    0.0
2023/07/15 03:04:32.000   38.346034782   92.969721706  2700.1125   5  28   1.5373   1.3494   3.4903   0.2415  -0.6826  -1.0109   0.00    0.0
2023/07/15 03:04:33.000   38.346046301   92.969721953  2699.4191   5  15   2.2051   1.7430   5.0907   0.5159  -1.0386  -1.7941   0.00    0.0
2023/07/15 03:04:34.000   38.346051639   92.969703593  2700.1288   5  27   1.5391   1.3580   3.6389   0.2632  -0.7884  -1.0478   0.00    0.0
2023/07/15 03:04:35.000   38.346066629   92.969699861  2698.8854   5  28   1.5374   1.3495   3.4908   0.2407  -0.6816  -1.0112   0.00    0.0
2023/07/15 03:04:36.000   38.346074542   92.969685752  2700.0561   5  27   1.5392   1.3581   3.6393   0.2626  -0.7879  -1.0479   0.00    0.0
2023/07/15 03:04:37.000   38.346085429   92.969673686  2699.1891   5  28   1.5374   1.3495   3.4912   0.2402  -0.6809  -1.0115   0.00    0.0
2023/07/15 03:04:38.000   38.346096298   92.969661512  2699.1364   5  28   1.5375   1.3495   3.4914   0.2399  -0.6806  -1.0116   0.00    0.0
2023/07/15 03:04:39.000   38.346106190   92.969650551  2698.2931   5  28   1.5375   1.3495   3.4916   0.2396  -0.6803  -1.0117   0.00    0.0
2023/07/15 03:04:40.000   38.346116925   92.969641137  2699.2661   5  28   1.5375   1.3496   3.4918   0.2393  -0.6799  -1.0118   0.00    0.0
2023/07/15 03:04:41.000   38.346130608   92.969625843  2698.8795   5  28   1.5375   1.3496   3.4920   0.2391  -0.6796  -1.0119   0.00    0.0
2023/07/15 03:04:42.000   38.346138170   92.969615061  2699.3318   5  28   1.5376   1.3496   3.4922   0.2388  -0.6792  -1.0120   0.00    0.0
2023/07/15 03:04:43.000   38.346147327   92.969602421  2698.3990   5  29   1.5252   1.3038   3.4352  -0.1048  -0.8248  -1.0709   0.00    0.0
2023/07/15 03:04:44.000   38.346155646   92.969590792  2699.0089   5  29   1.5252   1.3038   3.4354  -0.1054  -0.8245  -1.0710   0.00    0.0
2023/07/15 03:04:45.000   38.346161664   92.969580414  2700.1062   5  29   1.5029   1.3347   3.4923  -0.0923  -0.6867  -1.0215   0.00    0.0
2023/07/15 03:04:46.000   38.346171686   92.969568000  2700.2499   5  29   1.5029   1.3347   3.4924  -0.0930  -0.6864  -1.0216   0.00    0.0
2023/07/15 03:04:47.000   38.346176652   92.969556192  2700.5826   5  30   1.4954   1.2948   3.4358  -0.2399  -0.8209  -1.0670   0.00    0.0
2023/07/15 03:04:48.000   38.346187288   92.969548016  2699.7556   5  30   1.4954   1.2948   3.4359  -0.2401  -0.8207  -1.0671   0.00    0.0
2023/07/15 03:04:49.000   38.346199411   92.969539582  2699.9852   5  29   1.5030   1.3347   3.4930  -0.0951  -0.6854  -1.0220   0.00    0.0
2023/07/15 03:04:50.000   38.346210814   92.969526010  2699.8593   5  29   1.5030   1.3347   3.4932  -0.0958  -0.6851  -1.0221   0.00    0.0
2023/07/15 03:04:51.000   38.346220050   92.969516571  2700.3263   5  29   1.5254   1.3039   3.4366  -0.1094  -0.8229  -1.0717   0.00    0.0
2023/07/15 03:04:52.000   38.346228828   92.969506050  2700.0301   5  28   1.5379   1.3548   3.5039   0.2445  -0.9633  -1.1323   0.00    0.0
2023/07/15 03:04:53.000   38.346238041   92.969497048  2700.0176   5  29   1.5063   1.3439   3.5034   0.0795  -0.9572  -1.1234   0.00    0.0
2023/07/15 03:04:54.000   38.346245280   92.969484845  2700.3735   5  24   1.6127   1.5565   3.9042   0.3382  -1.3668  -1.2795   0.00    0.0
2023/07/15 03:04:55.000   38.346255228   92.969473106  2699.5222   5  28   1.5237   1.3856   3.6098  -0.2669  -1.0993  -1.0312   0.00    0.0
2023/07/15 03:04:56.000   38.346267131   92.969461996  2699.9902   5  27   1.5429   1.4002   3.5676   0.0621  -0.8778  -1.0379   0.00    0.0
2023/07/15 03:04:58.000   38.346282468   92.969442637  2700.1994   5  28   1.5149   1.3868   3.5546   0.2455  -0.8426  -1.0809   0.00    0.0
2023/07/15 03:04:59.000   38.346292756   92.969433594  2700.4054   5  27   1.5518   1.4046   3.5548   0.3677  -0.8397  -1.0780   0.00    0.0
2023/07/15 03:05:01.000   38.346288893   92.969434758  2698.5806   5   7   4.4686   3.2183  13.6666  -2.8627  -2.1176  -3.6164   0.00    0.0
2023/07/15 03:05:02.000   38.346318313   92.969406775  2700.8369   5  28   1.5383   1.3548   3.5056   0.2421  -0.9611  -1.1334   0.00    0.0
2023/07/15 03:05:03.000   38.346330264   92.969398270  2700.5094   5  27   1.5677   1.4656   3.6248  -0.3321  -0.6388  -1.2503   0.00    0.0
2023/07/15 03:05:05.000   38.346354897   92.969374854  2700.5348   5  26   1.5766   1.4212   3.5256  -0.2459  -1.0371  -1.0797   0.00    0.0
2023/07/15 03:05:06.000   38.346363486   92.969365538  2692.2650   5  13   2.6305   2.7972   8.4678   1.4328  -2.3009  -2.9556   0.00    0.0
2023/07/15 03:05:07.000   38.346364505   92.969349860  2701.2132   5  16   2.5213   2.3978   5.2764   1.4102  -2.0930  -2.3680   0.00    0.0
2023/07/15 03:05:08.000   38.346382507   92.969340664  2699.6856   5  23   1.6170   1.5780   4.1011   0.3951  -1.2768  -0.8551   0.00    0.0
2023/07/15 03:05:09.000   38.346392780   92.969328322  2700.2085   5  24   1.6303   1.4458   3.8238   0.5354  -0.8303  -1.0834   0.00    0.0
2023/07/15 03:05:10.000   38.346400583   92.969318594  2701.1677   5  21   2.0884   1.4957   4.5978  -0.1462   0.2064  -1.9819   0.00    0.0
2023/07/15 03:05:11.000   38.346407504   92.969312210  2700.4170   5  25   1.9027   1.4383   4.1649  -0.2991  -0.2732  -1.8094   0.00    0.0
2023/07/15 03:05:12.000   38.346422832   92.969301247  2698.6254   5  27   1.5522   1.4046   3.5573   0.3655  -0.8359  -1.0795   0.00    0.0
2023/07/15 03:05:13.000   38.346433965   92.969292877  2698.5508   5  26   1.5993   1.4057   3.5643   0.3933  -0.8429  -1.1182   0.00    0.0
2023/07/15 03:05:14.000   38.346439990   92.969281163  2699.8547   5  26   1.5993   1.4057   3.5645   0.3932  -0.8426  -1.1183   0.00    0.0
2023/07/15 03:05:15.000   38.346449071   92.969270981  2699.7855   5  27   1.5588   1.3874   3.5647   0.2715  -0.8434  -1.1196   0.00    0.0
2023/07/15 03:05:16.000   38.346458067   92.969259147  2699.3613   5  27   1.5589   1.3874   3.5649   0.2713  -0.8431  -1.1197   0.00    0.0
2023/07/15 03:05:18.000   38.346483922   92.969232117  2698.4934   5  28   1.5549   1.3403   3.5153   0.1816  -0.7047  -1.0896   0.00    0.0
2023/07/15 03:05:19.000   38.346493784   92.969220853  2697.8953   5  29   1.5462   1.2993   3.4607  -0.1459  -0.8363  -1.1355   0.00    0.0
2023/07/15 03:05:20.000   38.346504383   92.969215747  2697.0431   5  30   1.4964   1.2952   3.4412  -0.2481  -0.8130  -1.0705   0.00    0.0
2023/07/15 03:05:21.000   38.346511959   92.969204006  2698.9180   5  30   1.4964   1.2952   3.4413  -0.2483  -0.8128  -1.0706   0.00    0.0
2023/07/15 03:05:22.000   38.346522952   92.969191936  2699.6449   5  30   1.4965   1.2953   3.4415  -0.2486  -0.8126  -1.0707   0.00    0.0
2023/07/15 03:05:23.000   38.346534140   92.969177930  2699.8433   5  30   1.4965   1.2953   3.4417  -0.2488  -0.8123  -1.0708   0.00    0.0
2023/07/15 03:05:24.000   38.346540803   92.969168846  2699.0089   5  30   1.4965   1.2953   3.4418  -0.2491  -0.8121  -1.0709   0.00    0.0
2023/07/15 03:05:26.000   38.346568688   92.969148061  2698.2101   5  29   1.5465   1.2994   3.4617  -0.1490  -0.8345  -1.1360   0.00    0.0
2023/07/15 03:05:27.000   38.346580868   92.969137634  2698.9585   5  29   1.5465   1.2994   3.4618  -0.1495  -0.8343  -1.1360   0.00    0.0
2023/07/15 03:05:28.000   38.346588013   92.969133381  2698.2921   5  15   2.3816   1.7075   4.7947   0.4511  -1.3630  -2.0606   0.00    0.0
2023/07/15 03:05:30.000   38.346608040   92.969104894  2698.3044   5  29   1.5466   1.2994   3.4623  -0.1508  -0.8335  -1.1363   0.00    0.0
2023/07/15 03:05:31.000   38.346620619   92.969097900  2698.6800   5  28   1.5554   1.3405   3.5174   0.1767  -0.7002  -1.0906   0.00    0.0
2023/07/15 03:05:32.000   38.346627278   92.969090277  2698.1366   5  29   1.5467   1.2994   3.4625  -0.1516  -0.8330  -1.1364   0.00    0.0
2023/07/15 03:05:33.000   38.346634165   92.969081916  2696.9461   5  29   1.5468   1.2995   3.4627  -0.1521  -0.8327  -1.1365   0.00    0.0
2023/07/15 03:05:34.000   38.346639291   92.969068892  2697.5625   5  29   1.5468   1.2995   3.4628  -0.1525  -0.8325  -1.1366   0.00    0.0
2023/07/15 03:05:35.000   38.346647814   92.969057686  2697.7066   5  30   1.4969   1.2954   3.4436  -0.2518  -0.8094  -1.0721   0.00    0.0
2023/07/15 03:05:36.000   38.346654045   92.969043134  2698.1429   5  30   1.4969   1.2954   3.4438  -0.2520  -0.8091  -1.0722   0.00    0.0
2023/07/15 03:05:37.000   38.346662981   92.969033250  2696.6788   5  30   1.4969   1.2954   3.4439  -0.2522  -0.8089  -1.0723   0.00    0.0
2023/07/15 03:05:38.000   38.346673500   92.969023996  2697.4333   5  30   1.4969   1.2955   3.4441  -0.2525  -0.8086  -1.0724   0.00    0.0
2023/07/15 03:05:39.000   38.346679730   92.969011495  2696.9415   5  30   1.4970   1.2955   3.4443  -0.2527  -0.8084  -1.0725   0.00    0.0
2023/07/15 03:05:40.000   38.346689711   92.968999575  2697.3353   5  30   1.4970   1.2955   3.4444  -0.2530  -0.8082  -1.0726   0.00    0.0
2023/07/15 03:05:41.000   38.346700379   92.968989121  2696.8303   5  30   1.4970   1.2955   3.4446  -0.2532  -0.8079  -1.0727   0.00    0.0
2023/07/15 03:05:42.000   38.346708013   92.968979179  2694.8704   5  18   2.0872   1.6166   4.5899  -0.3729  -1.0564  -1.7508   0.00    0.0
2023/07/15 03:05:43.000   38.346715283   92.968965100  2697.6911   5  30   1.4971   1.2955   3.4449  -0.2537  -0.8074  -1.0729   0.00    0.0
2023/07/15 03:05:44.000   38.346724007   92.968949089  2698.6914   5  31   1.4969   1.2440   3.2809  -0.2348  -0.5207  -1.0856   0.00    0.0
2023/07/15 03:05:45.000   38.346729739   92.968940651  2698.3658   5  32   1.4961   1.1778   3.2052  -0.1885   0.0996  -1.1015   0.00    0.0
2023/07/15 03:05:46.000   38.346738739   92.968929846  2697.8612   5  32   1.4962   1.1779   3.2053  -0.1888   0.1016  -1.1016   0.00    0.0
2023/07/15 03:05:47.000   38.346747136   92.968920372  2697.3296   5  19   2.0872   1.5214   4.2539  -0.3856  -0.4127  -1.7437   0.00    0.0
2023/07/15 03:05:48.000   38.346759245   92.968908397  2696.7106   5  31   1.6264   1.1787   3.2499  -0.0928  -0.1084  -1.2470   0.00    0.0
2023/07/15 03:05:49.000   38.346765167   92.968897567  2697.7386   5  32   1.4962   1.1780   3.2058  -0.1897   0.1071  -1.1020   0.00    0.0
2023/07/15 03:05:50.000   38.346770493   92.968886075  2698.5747   5  32   1.4963   1.1780   3.2059  -0.1900   0.1089  -1.1021   0.00    0.0
2023/07/15 03:05:51.000   38.346779268   92.968875292  2698.7525   5  32   1.4963   1.1781   3.2061  -0.1903   0.1107  -1.1022   0.00    0.0
2023/07/15 03:05:52.000   38.346791554   92.968859128  2698.5373   5  31   1.4972   1.2442   3.2823  -0.2369  -0.5180  -1.0864   0.00    0.0
2023/07/15 03:05:53.000   38.346800865   92.968847123  2698.1168   5  33   1.4684   1.1738   3.2063  -0.2559   0.1169  -1.1016   0.00    0.0
2023/07/15 03:05:54.000   38.346808390   92.968831672  2697.8711   5  32   1.4964   1.1782   3.2065  -0.1911   0.1158  -1.1026   0.00    0.0
2023/07/15 03:05:55.000   38.346819258   92.968820830  2697.9834   5  32   1.4964   1.1782   3.2066  -0.1914   0.1175  -1.1027   0.00    0.0
2023/07/15 03:05:56.000   38.346827994   92.968809858  2698.0640   5  30   1.6320   1.2443   3.3136  -0.2507  -0.5124  -1.2138   0.00    0.0
2023/07/15 03:05:57.000   38.346834098   92.968800050  2698.1046   5  32   1.4965   1.1783   3.2069  -0.1920   0.1208  -1.1029   0.00    0.0
2023/07/15 03:05:58.000   38.346845004   92.968794207  2697.3059   5  24   1.9609   1.4492   4.1021  -0.5320   0.2118  -1.5744   0.00    0.0
2023/07/15 03:05:59.000   38.346853221   92.968781882  2698.2100   5  32   1.4965   1.1784   3.2072  -0.1926   0.1240  -1.1032   0.00    0.0
2023/07/15 03:06:00.000   38.346863425   92.968772429  2697.6721   5  31   1.4974   1.2443   3.2836  -0.2389  -0.5153  -1.0873   0.00    0.0
2023/07/15 03:06:01.000   38.346872424   92.968760083  2697.2632   5  32   1.4966   1.1784   3.2075  -0.1932   0.1271  -1.1034   0.00    0.0
2023/07/15 03:06:02.000   38.346883642   92.968756070  2697.4359   5  32   1.4966   1.1785   3.2076  -0.1935   0.1286  -1.1035   0.00    0.0
2023/07/15 03:06:03.000   38.346895236   92.968748261  2697.9997   5  30   1.5692   1.2170   3.4582  -0.0916  -0.4367  -0.8819   0.00    0.0
2023/07/15 03:06:04.000   38.346907202   92.968748838  2696.4902   5  29   1.5757   1.2959   3.6124  -0.2685  -0.8092  -0.7930   0.00    0.0
2023/07/15 03:06:06.000   38.346928203   92.968745352  2699.1337   5  28   1.6624   1.2312   3.4766  -0.1504  -0.5021  -0.9022   0.00    0.0
2023/07/15 03:06:07.000   38.346937583   92.968751313  2698.5626   5  28   1.6398   1.2860   3.8370   0.3939   0.6429  -0.5072   0.00    0.0
2023/07/15 03:06:08.000   38.346953932   92.968755793  2699.5158   5  29   1.5563   1.2584   3.4194   0.2082  -0.2796  -1.1077   0.00    0.0
2023/07/15 03:06:09.000   38.346962270   92.968760682  2699.7910   5  29   1.5564   1.2584   3.4195   0.2079  -0.2787  -1.1078   0.00    0.0
2023/07/15 03:06:10.000   38.346971756   92.968767229  2699.2359   5  29   1.5564   1.2584   3.4196   0.2076  -0.2778  -1.1079   0.00    0.0
2023/07/15 03:06:11.000   38.346984213   92.968770649  2698.8712   5  29   1.5413   1.2750   3.6254   0.2449   0.4506  -0.9816   0.00    0.0
2023/07/15 03:06:12.000   38.346994610   92.968776869  2699.0838   5  29   1.5565   1.2585   3.4199   0.2070  -0.2759  -1.1080   0.00    0.0
2023/07/15 03:06:13.000   38.347005323   92.968784838  2698.9862   5  30   1.5218   1.2519   3.4186   0.0209  -0.2970  -1.1224   0.00    0.0
2023/07/15 03:06:14.000   38.347010886   92.968787171  2699.6049   5  30   1.5218   1.2519   3.4187   0.0177  -0.2962  -1.1225   0.00    0.0
2023/07/15 03:06:15.000   38.347021678   92.968789424  2700.0931   5  29   1.5566   1.2586   3.4203   0.2061  -0.2731  -1.1083   0.00    0.0
2023/07/15 03:06:16.000   38.347033599   92.968796732  2701.3075   5  29   1.7359   1.3161   3.9443  -0.5820   0.8434  -1.7037   0.00    0.0
2023/07/15 03:06:17.000   38.347043856   92.968801723  2700.0703   5  30   1.5219   1.2520   3.4191  -0.0074  -0.2936  -1.1228   0.00    0.0
2023/07/15 03:06:18.000   38.347053983   92.968809578  2699.8861   5  30   1.5220   1.2521   3.4193  -0.0133  -0.2927  -1.1229   0.00    0.0
2023/07/15 03:06:19.000   38.347068393   92.968815278  2699.8511   5  30   1.5220   1.2521   3.4194  -0.0173  -0.2919  -1.1230   0.00    0.0
2023/07/15 03:06:20.000   38.347078644   92.968823220  2700.7309   5  30   1.5220   1.2521   3.4195  -0.0206  -0.2910  -1.1231   0.00    0.0
2023/07/15 03:06:21.000   38.347090120   92.968833951  2700.9125   5  30   1.5221   1.2522   3.4196  -0.0234  -0.2901  -1.1232   0.00    0.0
2023/07/15 03:06:22.000   38.347093684   92.968846663  2702.7860   5  15   2.2907   1.7828   4.8806   0.4413  -1.1346  -1.9623   0.00    0.0
2023/07/15 03:06:23.000   38.347106812   92.968853419  2702.9368   5  30   1.5221   1.2523   3.4199  -0.0282  -0.2884  -1.1234   0.00    0.0
2023/07/15 03:06:25.000   38.347126066   92.968867592  2702.5489   5  30   1.5222   1.2523   3.4201  -0.0322  -0.2866  -1.1235   0.00    0.0
2023/07/15 03:06:26.000   38.347135461   92.968878248  2703.0242   5  30   1.5223   1.2524   3.4202  -0.0341  -0.2857  -1.1236   0.00    0.0
2023/07/15 03:06:27.000   38.347142143   92.968890106  2702.6329   5  30   1.5223   1.2524   3.4204  -0.0359  -0.2848  -1.1237   0.00    0.0
2023/07/15 03:06:29.000   38.347154295   92.968923438  2702.2181   5  15   2.2910   1.7832   4.8807   0.4392  -1.1333  -1.9629   0.00    0.0
2023/07/15 03:06:30.000   38.347168307   92.968926149  2702.6907   5  31   1.5218   1.2178   3.2592  -0.1186   0.4738  -1.1043   0.00    0.0
2023/07/15 03:06:31.000   38.347177536   92.968935554  2703.1298   5  31   1.5219   1.2179   3.2594  -0.1191   0.4743  -1.1044   0.00    0.0
2023/07/15 03:06:32.000   38.347184926   92.968947735  2703.1504   5  31   1.5219   1.2179   3.2595  -0.1196   0.4748  -1.1045   0.00    0.0
2023/07/15 03:06:33.000   38.347193902   92.968959928  2702.8266   5  31   1.5219   1.2180   3.2597  -0.1201   0.4753  -1.1046   0.00    0.0
2023/07/15 03:06:34.000   38.347204836   92.968972501  2702.4370   5  31   1.5220   1.2180   3.2598  -0.1206   0.4758  -1.1047   0.00    0.0
2023/07/15 03:06:36.000   38.347217766   92.969002008  2702.7203   5  31   1.5220   1.2181   3.2601  -0.1215   0.4767  -1.1049   0.00    0.0
2023/07/15 03:06:37.000   38.347223342   92.969013547  2702.4831   5  31   1.5221   1.2182   3.2602  -0.1220   0.4772  -1.1050   0.00    0.0
2023/07/15 03:06:38.000   38.347230526   92.969027443  2701.6682   5  30   1.5250   1.2320   3.2608   0.0471   0.4879  -1.1028   0.00    0.0
2023/07/15 03:06:39.000   38.347238138   92.969037303  2701.3404   5  16   2.2823   1.6671   4.4073   0.2463   0.2263  -1.8516   0.00    0.0
2023/07/15 03:06:40.000   38.347241844   92.969053715  2702.5307   5  32   1.4739   1.2018   3.1541  -0.2126   0.6783  -1.0635   0.00    0.0
2023/07/15 03:06:41.000   38.347253390   92.969067060  2702.2624   5  32   1.4739   1.2018   3.1542  -0.2129   0.6786  -1.0637   0.00    0.0
2023/07/15 03:06:42.000   38.347258411   92.969078681  2701.8061   5  31   1.5049   1.2112   3.1546   0.0102   0.6828  -1.0588   0.00    0.0
2023/07/15 03:06:43.000   38.347266555   92.969090265  2701.6100   5  31   1.5049   1.2112   3.1548  -0.0049   0.6831  -1.0589   0.00    0.0
2023/07/15 03:06:44.000   38.347271984   92.969104443  2701.4644   5  31   1.5049   1.2113   3.1549  -0.0123   0.6834  -1.0590   0.00    0.0
2023/07/15 03:06:45.000   38.347281585   92.969123050  2702.4983   5  31   1.5121   1.3419   3.3579  -0.4969   1.0714  -1.2330   0.00    0.0
2023/07/15 03:06:46.000   38.347292291   92.969138430  2701.6606   5  20   2.0221   1.5501   4.1076  -0.4537   0.9939  -1.6429   0.00    0.0
2023/07/15 03:06:47.000   38.347293746   92.969153878  2701.8108   5  24   1.9088   1.4965   3.9999  -0.5714   1.0426  -1.5188   0.00    0.0
2023/07/15 03:06:48.000   38.347301500   92.969163209  2702.4762   5  32   1.4741   1.2022   3.1554  -0.2149   0.6807  -1.0646   0.00    0.0
2023/07/15 03:06:49.000   38.347307778   92.969179717  2701.9171   5  24   1.9088   1.4967   4.0001  -0.5719   1.0430  -1.5192   0.00    0.0
2023/07/15 03:06:50.000   38.347318019   92.969191792  2701.6818   5  24   1.9088   1.4967   4.0002  -0.5721   1.0431  -1.5194   0.00    0.0
2023/07/15 03:06:52.000   38.347332319   92.969212455  2701.9633   5  24   1.9088   1.4969   4.0003  -0.5725   1.0435  -1.5197   0.00    0.0
2023/07/15 03:06:55.000   38.347348910   92.969250926  2703.0140   5  24   1.9089   1.4971   4.0006  -0.5732   1.0440  -1.5202   0.00    0.0
2023/07/15 03:06:57.000   38.347373385   92.969276695  2701.0376   5  24   1.9089   1.4973   4.0008  -0.5737   1.0443  -1.5206   0.00    0.0
2023/07/15 03:06:58.000   38.347375549   92.969290027  2701.8257   5  24   1.9089   1.4974   4.0009  -0.5739   1.0445  -1.5208   0.00    0.0
2023/07/15 03:06:59.000   38.347382962   92.969300812  2702.2458   5  24   1.9089   1.4974   4.0010  -0.5741   1.0446  -1.5210   0.00    0.0
2023/07/15 03:07:02.000   38.347408745   92.969338705  2702.5086   5  24   1.9089   1.4977   4.0012  -0.5748   1.0452  -1.5215   0.00    0.0
2023/07/15 03:07:03.000   38.347418210   92.969351750  2703.2664   5  24   1.9090   1.4978   4.0013  -0.5750   1.0453  -1.5217   0.00    0.0
2023/07/15 03:07:05.000   38.347439200   92.969373921  2703.2798   5  24   1.9090   1.4979   4.0015  -0.5754   1.0457  -1.5220   0.00    0.0
2023/07/15 03:07:06.000   38.347448163   92.969386577  2703.8625   5  24   1.9090   1.4980   4.0016  -0.5757   1.0458  -1.5222   0.00    0.0
2023/07/15 03:07:07.000   38.347456305   92.969397278  2703.9663   5  24   1.9090   1.4981   4.0017  -0.5759   1.0460  -1.5224   0.00    0.0
2023/07/15 03:07:08.000   38.347466225   92.969409268  2703.6140   5  24   1.9090   1.4981   4.0017  -0.5761   1.0462  -1.5226   0.00    0.0
2023/07/15 03:07:09.000   38.347480272   92.969419110  2704.2217   5  23   1.9094   1.5407   4.1814  -0.5880   0.8121  -1.5077   0.00    0.0
2023/07/15 03:07:10.000   38.347492691   92.969428254  2705.6196   5  20   2.0246   1.7179   4.7263  -0.8486  -0.9670  -1.2375   0.00    0.0
2023/07/15 03:07:11.000   38.347501070   92.969442527  2704.6084   5  24   1.9091   1.4984   4.0020  -0.5768   1.0467  -1.5231   0.00    0.0
2023/07/15 03:07:12.000   38.347510683   92.969451334  2705.3097   5  22   2.0782   1.5172   4.0258  -0.5744   1.0233  -1.6245   0.00    0.0
2023/07/15 03:07:13.000   38.347520188   92.969462888  2705.6088   5  22   2.0783   1.5172   4.0258  -0.5747   1.0235  -1.6246   0.00    0.0
2023/07/15 03:07:14.000   38.347530380   92.969467343  2705.7151   5  22   2.0783   1.5173   4.0259  -0.5749   1.0237  -1.6248   0.00    0.0
2023/07/15 03:07:16.000   38.347544864   92.969483715  2702.6916   5  20   2.2426   1.6246   4.3840   0.3187   1.4096  -1.2966   0.00    0.0
2023/07/15 03:07:17.000   38.347560029   92.969499294  2704.6334   5  22   2.0931   1.5220   4.0254  -0.3401   1.0142  -1.6180   0.00    0.0
2023/07/15 03:07:18.000   38.347565680   92.969510810  2704.1934   5  22   2.0784   1.5176   4.0262  -0.5759   1.0245  -1.6253   0.00    0.0
2023/07/15 03:07:20.000   38.347581975   92.969531275  2705.3497   5  21   2.1699   1.5307   4.0265  -0.4566   1.0213  -1.6328   0.00    0.0
2023/07/15 03:07:21.000   38.347591620   92.969546403  2705.2161   5  22   2.0784   1.5179   4.0264  -0.5766   1.0251  -1.6258   0.00    0.0
2023/07/15 03:07:22.000   38.347603227   92.969551445  2704.6650   5  29   1.6359   1.2247   3.2706   0.2246   0.7575  -0.8980   0.00    0.0
2023/07/15 03:07:23.000   38.347615353   92.969564340  2705.2294   5  31   1.5486   1.2017   3.1684  -0.2167   0.6600  -1.1105   0.00    0.0
2023/07/15 03:07:24.000   38.347623402   92.969575694  2705.0996   5  31   1.5487   1.2017   3.1685  -0.2170   0.6603  -1.1106   0.00    0.0
2023/07/15 03:07:25.000   38.347628840   92.969590348  2706.5730   5  16   2.3656   1.6187   4.1851  -0.2975   0.8498  -1.8582   0.00    0.0
2023/07/15 03:07:26.000   38.347642907   92.969598160  2706.2013   5  31   1.5339   1.2075   3.1590  -0.1760   0.6787  -1.0597   0.00    0.0
2023/07/15 03:07:27.000   38.347650071   92.969604025  2705.2308   5  30   1.5629   1.3510   3.3662  -0.4610   1.0795  -1.2130   0.00    0.0
2023/07/15 03:07:28.000   38.347664286   92.969618597  2704.3848   5  23   2.1265   1.8667   4.6240  -1.1533   1.9124  -2.0605   0.00    0.0
2023/07/15 03:07:29.000   38.347670910   92.969633620  2705.0882   5  32   1.4982   1.1997   3.1593  -0.2774   0.6760  -1.0658   0.00    0.0
2023/07/15 03:07:30.000   38.347679572   92.969644397  2704.5227   5  31   1.5347   1.3362   3.3633  -0.5221   1.0656  -1.2327   0.00    0.0
2023/07/15 03:07:31.000   38.347686301   92.969663406  2705.4895   5  19   2.0833   1.5658   4.1116  -0.5599   1.0101  -1.6608   0.00    0.0
2023/07/15 03:07:32.000   38.347694940   92.969666864  2705.2150   5  33   1.4956   1.1787   3.1317  -0.3120   0.7434  -1.0485   0.00    0.0
2023/07/15 03:07:33.000   38.347696117   92.969676410  2704.8733   5  31   1.7369   1.2737   3.6053  -0.6598   1.1783  -1.5963   0.00    0.0
2023/07/15 03:07:34.000   38.347695304   92.969652387  2696.7369   5  12   3.9114   3.3790  11.9742  -2.8328   3.8523  -4.4658   0.00    0.0
2023/07/15 03:07:35.000   38.347704094   92.969673861  2704.9961   5  12   3.1875   2.2239   5.6619  -1.1801  -1.2490  -2.0321   0.00    0.0
2023/07/15 03:07:36.000   38.347299397   92.969761189  2701.3177   5   6  43.8334  10.1348  21.4484 -19.7054  10.2984 -20.4595   0.00    0.0
