%  GPST                  latitude(deg) longitude(deg)  height(m)   Q  ns   sdn(m)   sde(m)   sdu(m)  sdne(m)  sdeu(m)  sdun(m) age(s)  ratio
2023/07/15 03:13:20.000   38.347234123   92.969049670  2701.7486   5  28   1.6661   1.4852   4.3765  -0.1892   1.5437  -0.8792   0.00    0.0
2023/07/15 03:13:21.000   38.347232381   92.969050930  2701.2288   5  28   1.6661   1.4854   4.3769  -0.1895   1.5442  -0.8794   0.00    0.0
2023/07/15 03:13:23.000   38.347240297   92.969065934  2698.2512   5  10   9.4902   5.4750  12.6418  -5.5462   6.3192   2.1099   0.00    0.0
2023/07/15 03:13:26.000   38.347231103   92.969189237  2731.3182   5   6  12.7845  16.9381  69.8306 -14.2381  33.7517 -28.6289   0.00    0.0
2023/07/15 03:13:27.000   38.347323585   92.969140000  2709.7720   5   9   9.9113   7.8359  29.4323  -7.4014  14.5010 -14.5888   0.00    0.0
2023/07/15 03:13:28.000   38.347285858   92.969132386  2701.2207   5  19   2.1552   1.9180   5.0728   1.0019   2.0882   1.3588   0.00    0.0
2023/07/15 03:13:29.000   38.347283204   92.969137739  2700.0355   5  22   1.8819   1.7259   4.6934   0.4966   1.7895   0.1697   0.00    0.0
2023/07/15 03:13:30.000   38.347289602   92.969153617  2699.1947   5  22   1.8820   1.7261   4.6939   0.4965   1.7901   0.1701   0.00    0.0
2023/07/15 03:13:31.000   38.347289579   92.969167224  2700.1699   5  25   1.7767   1.5679   4.5523   0.3710   1.6509  -0.3424   0.00    0.0
2023/07/15 03:13:32.000   38.347292923   92.969184700  2700.7180   5  26   1.7741   1.5653   4.2537   0.3831   1.6966  -0.5258   0.00    0.0
2023/07/15 03:13:33.000   38.347303999   92.969195859  2700.7393   5  27   1.7149   1.5177   4.1741  -0.1667   1.6014  -0.8063   0.00    0.0
2023/07/15 03:13:34.000   38.347312530   92.969206689  2700.5724   5  27   1.7150   1.5178   4.1745  -0.1670   1.6018  -0.8065   0.00    0.0
2023/07/15 03:13:35.000   38.347323179   92.969224433  2702.6219   5  28   1.6175   1.4790   3.9326  -0.4719   1.4451  -1.2039   0.00    0.0
2023/07/15 03:13:36.000   38.347320910   92.969237611  2701.7943   5  21   2.2829   2.2932   5.8635  -1.2648   2.9013  -2.2917   0.00    0.0
2023/07/15 03:13:37.000   38.347333324   92.969245644  2701.0521   5  21   2.2829   2.2935   5.8642  -1.2651   2.9019  -2.2920   0.00    0.0
2023/07/15 03:13:38.000   38.347343318   92.969258256  2700.9528   5  22   2.0852   2.2938   5.8623  -1.2651   2.9024  -2.2564   0.00    0.0
2023/07/15 03:13:39.000   38.347351520   92.969269553  2700.9031   5  23   2.0754   2.2323   5.7889  -1.2226   2.8171  -2.2149   0.00    0.0
2023/07/15 03:13:40.000   38.347358403   92.969276467  2700.6709   5  23   2.0755   2.2326   5.7896  -1.2229   2.8177  -2.2154   0.00    0.0
2023/07/15 03:13:41.000   38.347366952   92.969288600  2700.5725   5  23   2.0755   2.2329   5.7904  -1.2232   2.8183  -2.2158   0.00    0.0
2023/07/15 03:13:42.000   38.347379221   92.969307147  2700.9687   5  22   2.0790   2.2342   6.1893  -1.2203   2.7929  -2.2744   0.00    0.0
2023/07/15 03:13:43.000   38.347388023   92.969316830  2701.9454   5  23   2.0756   2.2336   5.7919  -1.2238   2.8195  -2.2166   0.00    0.0
2023/07/15 03:13:44.000   38.347393674   92.969338743  2702.7995   5  15   2.4827   2.5413   6.1795  -1.1302   3.0894  -2.4428   0.00    0.0
2023/07/15 03:13:45.000   38.347404672   92.969345077  2702.0527   5  22   2.0757   2.2365   6.1043  -1.2237   2.7859  -2.2249   0.00    0.0
2023/07/15 03:13:46.000   38.347415231   92.969358243  2701.8616   5  21   2.0798   2.2390   6.7448  -1.2187   2.7347  -2.3079   0.00    0.0
2023/07/15 03:13:47.000   38.347428044   92.969368559  2703.9666   5  30   1.5281   1.4633   3.9568  -0.4933   1.4246  -1.2355   0.00    0.0
2023/07/15 03:13:48.000   38.347439209   92.969380133  2702.9579   5  23   2.0757   2.2351   5.7957  -1.2253   2.8225  -2.2187   0.00    0.0
2023/07/15 03:13:49.000   38.347451992   92.969394338  2702.7663   5  30   1.5281   1.4636   3.9577  -0.4937   1.4255  -1.2358   0.00    0.0
2023/07/15 03:13:50.000   38.347459731   92.969403333  2702.9014   5  23   2.0758   2.2357   5.7973  -1.2259   2.8237  -2.2195   0.00    0.0
2023/07/15 03:13:51.000   38.347469240   92.969414228  2703.3642   5  23   2.0758   2.2360   5.7980  -1.2262   2.8243  -2.2200   0.00    0.0
2023/07/15 03:13:52.000   38.347480731   92.969430791  2704.3607   5  15   2.4827   2.5440   6.1865  -1.1324   3.0947  -2.4450   0.00    0.0
2023/07/15 03:13:53.000   38.347497682   92.969434857  2703.8622   5  29   1.5310   1.5248   3.9878  -0.5408   1.3296  -1.1875   0.00    0.0
2023/07/15 03:13:54.000   38.347505013   92.969442314  2702.4868   5  21   2.0802   2.2413   6.7516  -1.2211   2.7404  -2.3118   0.00    0.0
2023/07/15 03:13:55.000   38.347509659   92.969448493  2702.3398   5  20   2.1346   2.2517   6.7967  -1.2624   2.7109  -2.2306   0.00    0.0
2023/07/15 03:13:56.000   38.347515212   92.969464928  2702.8416   5  21   2.0802   2.2419   6.7533  -1.2217   2.7419  -2.3127   0.00    0.0
2023/07/15 03:13:57.000   38.347524566   92.969472178  2702.7627   5  21   2.0803   2.2422   6.7541  -1.2220   2.7426  -2.3132   0.00    0.0
2023/07/15 03:13:58.000   38.347537673   92.969475371  2702.6238   5  21   2.0803   2.2425   6.7550  -1.2223   2.7433  -2.3137   0.00    0.0
2023/07/15 03:13:59.000   38.347545460   92.969487250  2702.3273   5  21   2.0804   2.2428   6.7558  -1.2226   2.7440  -2.3142   0.00    0.0
2023/07/15 03:14:00.000   38.347560154   92.969491465  2701.8137   5  21   2.0804   2.2431   6.7567  -1.2229   2.7448  -2.3147   0.00    0.0
2023/07/15 03:14:01.000   38.347569205   92.969503378  2703.0820   5  22   2.0797   2.2399   6.2046  -1.2260   2.8052  -2.2828   0.00    0.0
2023/07/15 03:14:03.000   38.347587240   92.969532745  2704.8720   5  21   2.0805   2.2439   6.7592  -1.2238   2.7469  -2.3161   0.00    0.0
2023/07/15 03:14:04.000   38.347599303   92.969543294  2703.5138   5  22   2.0798   2.2408   6.2070  -1.2270   2.8072  -2.2841   0.00    0.0
2023/07/15 03:14:05.000   38.347608198   92.969557730  2703.8364   5  31   1.5282   1.4589   3.7995  -0.5016   1.4874  -1.2237   0.00    0.0
2023/07/15 03:14:06.000   38.347616979   92.969571203  2705.3926   5  31   1.5282   1.4590   3.8000  -0.5018   1.4878  -1.2239   0.00    0.0
2023/07/15 03:14:07.000   38.347639354   92.969552192  2696.3464   5  12   4.0281   4.6855  17.6008  -3.7424   7.2931  -5.4220   0.00    0.0
2023/07/15 03:14:08.000   38.347635798   92.969588971  2703.3814   5  21   2.0961   2.3936   6.4284  -1.1362   3.0474  -2.1897   0.00    0.0
2023/07/15 03:14:09.000   38.347642183   92.969604374  2705.4995   5  24   1.7632   1.6489   4.3270  -0.7922   1.6422  -1.4786   0.00    0.0
2023/07/15 03:14:10.000   38.347650661   92.969613451  2704.3622   5  24   1.7633   1.6491   4.3275  -0.7923   1.6427  -1.4788   0.00    0.0
2023/07/15 03:14:11.000   38.347661286   92.969628909  2703.3223   5  24   2.0765   2.2420   5.8133  -1.2322   2.8363  -2.2283   0.00    0.0
2023/07/15 03:14:12.000   38.347672022   92.969632307  2698.4821   5  13   3.9912   3.8912  10.3550  -3.1144   5.0154  -3.8026   0.00    0.0
2023/07/15 03:14:13.000   38.347687811   92.969631955  2701.4745   5  14   3.9590   3.4773   8.3793  -2.9079   4.2949  -3.8199   0.00    0.0
2023/07/15 03:14:14.000   38.347685652   92.969658413  2704.8215   5  26   1.9293   1.5895   4.3421  -0.5538   1.4365  -1.4493   0.00    0.0
2023/07/15 03:14:15.000   38.347697482   92.969664422  2705.0402   5  23   1.8589   1.5383   4.1494  -0.6808   1.3007  -1.4331   0.00    0.0
2023/07/15 03:14:16.000   38.347704984   92.969686679  2706.3972   5  29   1.5439   1.2661   3.6402   0.1133   0.6301  -1.2956   0.00    0.0
2023/07/15 03:14:17.000   38.347714631   92.969700651  2707.9368   5  33   1.4878   1.2200   3.2199  -0.3188   0.7983  -1.1204   0.00    0.0
2023/07/15 03:14:18.000   38.347725294   92.969709431  2707.5970   5  20   2.0291   1.5446   4.2092  -0.6140   0.3683  -1.7401   0.00    0.0
2023/07/15 03:14:19.000   38.347734469   92.969720495  2707.1611   5  33   1.4879   1.2201   3.2202  -0.3192   0.7988  -1.1206   0.00    0.0
2023/07/15 03:14:20.000   38.347747167   92.969712259  2703.2303   5  15   3.8410   3.3440   8.9424  -2.7146   4.1762  -3.3499   0.00    0.0
2023/07/15 03:14:21.000   38.347758382   92.969739944  2706.7138   5  25   2.0930   1.4479   3.6706  -0.4485   1.1006  -1.3258   0.00    0.0
2023/07/15 03:14:22.000   38.347759815   92.969747110  2706.1463   5  16   2.7297   2.3164   7.9530  -0.3988   3.2836  -1.3350   0.00    0.0
2023/07/15 03:14:23.000   38.347779358   92.969761976  2705.9764   5  22   2.8884   2.5697   6.9161  -2.1813   3.4858  -3.7439   0.00    0.0
2023/07/15 03:14:24.000   38.347780396   92.969782330  2706.8134   5  33   1.4881   1.2205   3.2208  -0.3203   0.8002  -1.1212   0.00    0.0
2023/07/15 03:14:25.000   38.347793454   92.969793129  2706.9523   5  33   1.4881   1.2205   3.2210  -0.3205   0.8005  -1.1214   0.00    0.0
2023/07/15 03:14:26.000   38.347800755   92.969799078  2706.7230   5  31   1.7178   1.2313   3.3434   0.0333   0.8574  -1.1279   0.00    0.0
2023/07/15 03:14:27.000   38.347818621   92.969805382  2705.7199   5  33   1.4882   1.2207   3.2212  -0.3209   0.8010  -1.1216   0.00    0.0
2023/07/15 03:14:28.000   38.347828275   92.969815413  2705.6139   5  33   1.4882   1.2207   3.2214  -0.3211   0.8013  -1.1217   0.00    0.0
2023/07/15 03:14:29.000   38.347836800   92.969828470  2706.2289   5  32   1.6776   1.3187   3.6679  -0.6996   1.2317  -1.6175   0.00    0.0
2023/07/15 03:14:30.000   38.347848979   92.969832982  2705.6173   5  33   1.4883   1.2209   3.2216  -0.3216   0.8019  -1.1220   0.00    0.0
2023/07/15 03:14:31.000   38.347864307   92.969814088  2699.7949   5  17   3.6094   3.5730   8.4092  -2.6379   4.6703  -4.0375   0.00    0.0
2023/07/15 03:14:32.000   38.347876857   92.969831692  2698.4182   5  13   3.9227   3.5987  15.8700  -2.8160   5.2118  -4.6433   0.00    0.0
2023/07/15 03:14:33.000   38.347879953   92.969858251  2705.8787   5  33   1.4884   1.2211   3.2220  -0.3222   0.8027  -1.1224   0.00    0.0
2023/07/15 03:14:34.000   38.347893639   92.969865185  2705.4066   5  33   1.4884   1.2211   3.2221  -0.3224   0.8030  -1.1225   0.00    0.0
2023/07/15 03:14:35.000   38.347897278   92.969880175  2706.3373   5  25   1.9139   1.5182   4.0297  -0.6553   1.1044  -1.5947   0.00    0.0
2023/07/15 03:14:36.000   38.347912940   92.969885563  2705.5712   5  33   1.4858   1.1978   3.2691  -0.3589   0.4732  -1.1615   0.00    0.0
2023/07/15 03:14:37.000   38.347924432   92.969891676  2703.9805   5  28   1.8462   1.8001   5.4620  -1.1469   2.3430  -2.2753   0.00    0.0
2023/07/15 03:14:38.000   38.347935554   92.969908180  2705.7519   5  32   1.4888   1.2434   3.3358  -0.3123   0.6677  -1.1344   0.00    0.0
2023/07/15 03:14:39.000   38.347940135   92.969923102  2707.6727   5  16   2.3086   1.7102   4.5002  -0.0405   0.3266  -1.9553   0.00    0.0
2023/07/15 03:14:40.000   38.347955801   92.969923601  2704.7008   5  26   1.9023   1.6609   5.0182  -1.1336   1.9312  -2.3008   0.00    0.0
2023/07/15 03:14:42.000   38.347982607   92.969931538  2703.5041   5  31   1.5019   1.2752   3.5651  -0.2065   0.8953  -1.0201   0.00    0.0
2023/07/15 03:14:43.000   38.347983154   92.969926747  2702.3140   5  13   2.5739   3.7303  14.2590  -1.8137   6.3387  -4.0864   0.00    0.0
2023/07/15 03:14:44.000   38.347998546   92.969932808  2702.7973   5  29   1.6402   1.2812   3.4361   0.3238   0.7866  -0.9016   0.00    0.0
2023/07/15 03:14:45.000   38.348014296   92.969922081  2701.1646   5  17   2.4043   2.9126  11.8817  -1.4307   5.0996  -3.3972   0.00    0.0
2023/07/15 03:14:46.000   38.348029267   92.969913441  2700.6952   5  13   2.4425   2.3134   7.2718  -1.2451   2.8229  -2.7903   0.00    0.0
2023/07/15 03:14:47.000   38.348034810   92.969918039  2704.5337   5  32   1.5524   1.2027   3.3461  -0.2903   0.5487  -1.0168   0.00    0.0
2023/07/15 03:14:48.000   38.348047720   92.969914221  2705.1804   5  31   1.5595   1.2522   3.4296  -0.1813   0.7506  -0.9607   0.00    0.0
2023/07/15 03:14:49.000   38.348070835   92.969910889  2706.1136   5  34   1.4858   1.1728   3.1622  -0.3726   0.6597  -1.1507   0.00    0.0
2023/07/15 03:14:50.000   38.348077921   92.969900422  2706.5182   5  34   1.4859   1.1728   3.1623  -0.3728   0.6600  -1.1508   0.00    0.0
2023/07/15 03:14:51.000   38.348090144   92.969887508  2706.9571   5  31   1.5298   1.3567   3.4856  -0.5880   0.8318  -1.3092   0.00    0.0
2023/07/15 03:14:52.000   38.348104660   92.969884568  2707.0315   5  33   1.4875   1.2212   3.2292  -0.4031   0.4630  -1.1315   0.00    0.0
2023/07/15 03:14:56.000   38.348145214   92.969862802  2706.8294   5  30   1.5662   1.3053   3.5464  -0.2931   0.4863  -0.8935   0.00    0.0
2023/07/15 03:14:57.000   38.348149732   92.969858384  2707.2854   5  19   2.0355   1.6420   4.3786  -0.5332   0.7810  -1.7509   0.00    0.0
2023/07/15 03:14:58.000   38.348165685   92.969844683  2707.6740   5  31   1.4908   1.3030   3.4227  -0.3525   0.4046  -1.1160   0.00    0.0
2023/07/15 03:14:59.000   38.348177902   92.969836456  2706.5492   5  31   1.4908   1.3031   3.4228  -0.3527   0.4052  -1.1161   0.00    0.0
2023/07/15 03:15:00.000   38.348186570   92.969832815  2707.6163   5  32   1.4880   1.2568   3.3617  -0.3953  -0.2397  -1.1425   0.00    0.0
2023/07/15 03:15:01.000   38.348200687   92.969822744  2706.6313   5  32   1.4896   1.2449   3.3384  -0.3174   0.6758  -1.1372   0.00    0.0
2023/07/15 03:15:02.000   38.348209951   92.969812313  2706.5569   5  31   1.5599   1.2531   3.4303  -0.1862   0.7549  -0.9635   0.00    0.0
2023/07/15 03:15:03.000   38.348216258   92.969807452  2707.4483   5  17   2.2990   1.6113   4.4107  -0.3675  -0.6353  -2.0072   0.00    0.0
2023/07/15 03:15:04.000   38.348235008   92.969803160  2706.6414   5  32   1.5139   1.2035   3.2718  -0.3217   0.4852  -1.1648   0.00    0.0
2023/07/15 03:15:05.000   38.348249856   92.969792368  2707.4602   5  33   1.4868   1.1993   3.2719  -0.3641   0.4858  -1.1647   0.00    0.0
2023/07/15 03:15:06.000   38.348262877   92.969784541  2707.1947   5  33   1.4868   1.1994   3.2720  -0.3643   0.4862  -1.1648   0.00    0.0
2023/07/15 03:15:07.000   38.348274243   92.969779590  2707.5602   5  33   1.4868   1.1994   3.2720  -0.3645   0.4866  -1.1649   0.00    0.0
2023/07/15 03:15:08.000   38.348287254   92.969774532  2707.1793   5  32   1.4883   1.2571   3.3626  -0.3966  -0.2327  -1.1433   0.00    0.0
2023/07/15 03:15:09.000   38.348297311   92.969769585  2707.1122   5  33   1.4869   1.1995   3.2722  -0.3648   0.4875  -1.1651   0.00    0.0
2023/07/15 03:15:10.000   38.348308747   92.969760838  2706.7869   5  31   1.4988   1.2717   3.5538  -0.3516   0.4094  -1.0510   0.00    0.0
2023/07/15 03:15:11.000   38.348319635   92.969755438  2707.0550   5  33   1.4870   1.1996   3.2724  -0.3652   0.4883  -1.1653   0.00    0.0
2023/07/15 03:15:12.000   38.348332773   92.969753347  2706.1129   5  26   1.9131   1.4342   3.9180  -0.6897   0.8671  -1.6224   0.00    0.0
2023/07/15 03:15:13.000   38.348346085   92.969737896  2707.0426   5  33   1.4871   1.1997   3.2726  -0.3656   0.4892  -1.1656   0.00    0.0
2023/07/15 03:15:14.000   38.348359516   92.969730786  2707.0899   5  34   1.4867   1.1742   3.1649  -0.3769   0.6670  -1.1536   0.00    0.0
2023/07/15 03:15:15.000   38.348370505   92.969722053  2706.8775   5  33   1.4970   1.1974   3.3265  -0.3181   0.8276  -1.0732   0.00    0.0
2023/07/15 03:15:16.000   38.348385166   92.969716891  2706.7133   5  33   1.4971   1.1974   3.3267  -0.3183   0.8279  -1.0733   0.00    0.0
2023/07/15 03:15:17.000   38.348398911   92.969711964  2707.0474   5  33   1.4884   1.2224   3.2325  -0.4071   0.4729  -1.1342   0.00    0.0
2023/07/15 03:15:18.000   38.348414217   92.969702557  2706.3614   5  33   1.5142   1.1796   3.1655  -0.3334   0.6658  -1.1577   0.00    0.0
2023/07/15 03:15:19.000   38.348423560   92.969693817  2707.3144   5  34   1.4869   1.1745   3.1654  -0.3777   0.6684  -1.1542   0.00    0.0
2023/07/15 03:15:20.000   38.348439535   92.969682069  2706.4929   5  34   1.4869   1.1746   3.1656  -0.3779   0.6687  -1.1543   0.00    0.0
2023/07/15 03:15:22.000   38.348466913   92.969664436  2707.3718   5  33   1.5010   1.1885   3.1754  -0.4242   0.6352  -1.1325   0.00    0.0
2023/07/15 03:15:23.000   38.348476451   92.969654256  2707.0997   5  34   1.4870   1.1748   3.1659  -0.3784   0.6696  -1.1546   0.00    0.0
2023/07/15 03:15:24.000   38.348488499   92.969649000  2706.1818   5  34   1.4871   1.1748   3.1660  -0.3786   0.6699  -1.1547   0.00    0.0
2023/07/15 03:15:25.000   38.348503412   92.969644414  2706.1797   5  33   1.4887   1.2227   3.2335  -0.4084   0.4761  -1.1351   0.00    0.0
2023/07/15 03:15:26.000   38.348518397   92.969636641  2707.6792   5  26   1.7960   1.3855   3.4732  -0.5650  -0.5735  -1.1987   0.00    0.0
2023/07/15 03:15:27.000   38.348516416   92.969637103  2709.1234   5  17   3.3089   3.0772   6.5830  -2.5821   3.1624  -3.5440   0.00    0.0
2023/07/15 03:15:28.000   38.348540668   92.969625468  2706.6058   5  32   1.5540   1.2050   3.3477  -0.2987   0.5637  -1.0239   0.00    0.0
2023/07/15 03:15:29.000   38.348555337   92.969623348  2706.5614   5  30   1.5673   1.3069   3.5487  -0.3003   0.5023  -0.9000   0.00    0.0
2023/07/15 03:15:30.000   38.348569344   92.969614348  2706.9416   5  30   1.5616   1.2811   3.5706  -0.2248   0.5731  -0.9446   0.00    0.0
2023/07/15 03:15:31.000   38.348581329   92.969610441  2705.9825   5  28   1.6016   1.3677   4.1196  -0.1926   0.5444  -0.4087   0.00    0.0
2023/07/15 03:15:32.000   38.348595271   92.969609278  2707.0289   5  31   1.4893   1.3048   3.5176  -0.4089  -0.6317  -1.1372   0.00    0.0
2023/07/15 03:15:33.000   38.348615048   92.969606627  2706.0081   5  31   1.4893   1.3048   3.5177  -0.4091  -0.6313  -1.1373   0.00    0.0
2023/07/15 03:15:34.000   38.348628739   92.969599066  2706.5701   5  30   1.4922   1.3459   3.5862  -0.3704  -0.4101  -1.1089   0.00    0.0
2023/07/15 03:15:35.000   38.348640792   92.969598114  2706.7473   5  29   1.5058   1.3642   3.8739  -0.3041   0.3974  -0.9665   0.00    0.0
2023/07/15 03:15:36.000   38.348652267   92.969597188  2707.2371   5  30   1.4922   1.3460   3.5864  -0.3708  -0.4088  -1.1091   0.00    0.0
2023/07/15 03:15:38.000   38.348669790   92.969597452  2707.3095   5  30   1.4923   1.3460   3.5866  -0.3712  -0.4075  -1.1093   0.00    0.0
2023/07/15 03:15:39.000   38.348679070   92.969587323  2710.7668   5  30   1.6808   1.3654   3.9180  -0.6983   1.0559  -1.6448   0.00    0.0
2023/07/15 03:15:40.000   38.348691609   92.969593885  2708.1766   5  30   1.4924   1.3461   3.5868  -0.3716  -0.4062  -1.1095   0.00    0.0
2023/07/15 03:15:41.000   38.348704784   92.969589109  2708.1575   5  31   1.4910   1.2757   3.4685  -0.3316   0.4778  -1.1364   0.00    0.0
2023/07/15 03:15:42.000   38.348718184   92.969585302  2708.4731   5  31   1.4910   1.2758   3.4686  -0.3318   0.4784  -1.1366   0.00    0.0
2023/07/15 03:15:43.000   38.348731408   92.969581073  2709.2001   5  31   1.4910   1.2758   3.4686  -0.3321   0.4789  -1.1367   0.00    0.0
2023/07/15 03:15:44.000   38.348744337   92.969581376  2707.8706   5  29   1.5060   1.3645   3.8759  -0.3065   0.4043  -0.9677   0.00    0.0
2023/07/15 03:15:45.000   38.348759092   92.969578790  2708.4936   5  31   1.4911   1.2760   3.4688  -0.3325   0.4800  -1.1369   0.00    0.0
2023/07/15 03:15:46.000   38.348769674   92.969570511  2709.0400   5  30   1.5040   1.3006   3.7414  -0.2477   0.7638  -1.0089   0.00    0.0
2023/07/15 03:15:47.000   38.348777034   92.969573283  2709.5119   5  15   2.3128   1.8224   4.8774   0.1886  -1.0076  -2.0039   0.00    0.0
2023/07/15 03:15:48.000   38.348792107   92.969566081  2708.8756   5  30   1.5040   1.3007   3.7417  -0.2483   0.7646  -1.0092   0.00    0.0
2023/07/15 03:15:49.000   38.348805640   92.969562305  2708.9749   5  30   1.4927   1.3464   3.5878  -0.3734  -0.4003  -1.1105   0.00    0.0
2023/07/15 03:15:50.000   38.348816832   92.969557879  2707.6891   5  29   1.5909   1.3135   3.9199   0.1799   0.8935  -0.6433   0.00    0.0
2023/07/15 03:15:51.000   38.348830882   92.969554074  2708.2561   5  30   1.4928   1.3465   3.5880  -0.3738  -0.3990  -1.1107   0.00    0.0
2023/07/15 03:15:52.000   38.348841900   92.969554007  2708.2345   5  29   1.5063   1.3648   3.8776  -0.3085   0.4104  -0.9688   0.00    0.0
2023/07/15 03:15:53.000   38.348848344   92.969554753  2710.1793   5  15   2.3130   1.8228   4.8773   0.1839  -1.0060  -2.0043   0.00    0.0
2023/07/15 03:15:54.000   38.348862515   92.969557577  2708.4214   5  29   1.5063   1.3649   3.8780  -0.3091   0.4119  -0.9691   0.00    0.0
2023/07/15 03:15:55.000   38.348872691   92.969564539  2709.2679   5  30   1.4929   1.3467   3.5884  -0.3746  -0.3964  -1.1112   0.00    0.0
2023/07/15 03:15:56.000   38.348882525   92.969572349  2709.1324   5  30   1.4929   1.3467   3.5885  -0.3748  -0.3957  -1.1113   0.00    0.0
2023/07/15 03:15:57.000   38.348885610   92.969582213  2709.3236   5  28   1.5701   1.3046   3.4966  -0.4049   0.5422  -1.1374   0.00    0.0
2023/07/15 03:15:59.000   38.348870004   92.969607632  2708.3127   5  27   1.7985   1.4664   4.6300  -0.4732   1.4433  -1.5126   0.00    0.0
2023/07/15 03:16:00.000   38.348861829   92.969619467  2708.9607   5  27   1.8544   1.9621   6.2464  -1.1292   2.8030  -2.2151   0.00    0.0
2023/07/15 03:16:01.000   38.348858862   92.969616997  2705.7182   5  20   2.8385   3.0798   6.7190  -2.2701   3.4034  -3.4682   0.00    0.0
2023/07/15 03:16:02.000   38.348842803   92.969637512  2709.1291   5  31   1.4917   1.2769   3.4702  -0.3361   0.4891  -1.1389   0.00    0.0
2023/07/15 03:16:03.000   38.348829628   92.969651418  2708.9997   5  31   1.6800   1.3455   3.7632  -0.7140   1.1829  -1.6233   0.00    0.0
2023/07/15 03:16:04.000   38.348819500   92.969660150  2709.3455   5  31   1.7327   1.3474   3.6741  -0.6445   1.2501  -1.6290   0.00    0.0
2023/07/15 03:16:05.000   38.348813280   92.969666045  2709.0722   5  32   1.7327   1.2805   3.5690  -0.6423   1.0941  -1.6271   0.00    0.0
2023/07/15 03:16:06.000   38.348801580   92.969676027  2710.5267   5  32   1.5275   1.3874   3.4986  -0.5745   1.2449  -1.3139   0.00    0.0
2023/07/15 03:16:07.000   38.348807361   92.969671401  2708.4803   5  32   1.6801   1.3290   3.6740  -0.7148   1.2549  -1.6232   0.00    0.0
2023/07/15 03:16:08.000   38.348802597   92.969674511  2708.9376   5  33   1.4906   1.1841   3.1722  -0.3983   0.6914  -1.1630   0.00    0.0
2023/07/15 03:16:09.000   38.348803804   92.969672094  2708.9171   5  31   1.4947   1.2492   3.2385  -0.3726   0.8522  -1.1414   0.00    0.0
2023/07/15 03:16:10.000   38.348799425   92.969669090  2708.4518   5  22   2.2035   2.3621   6.2762  -0.9341   3.2461  -2.3199   0.00    0.0
2023/07/15 03:16:11.000   38.348800498   92.969672685  2707.7857   5  20   2.5418   1.5568   4.7838   0.1638   1.7510  -1.9194   0.00    0.0
2023/07/15 03:16:12.000   38.348799982   92.969669486  2707.8328   5  16   2.6347   1.6482   5.8388  -0.6537   1.8809  -2.6401   0.00    0.0
2023/07/15 03:16:14.000   38.348798909   92.969663823  2706.3684   5  15   3.6093   2.6531  10.7782  -1.6053   4.4612  -4.8932   0.00    0.0
2023/07/15 03:16:15.000   38.348805720   92.969659520  2703.8890   5  13   4.4158   3.3532  11.8464  -2.6133   5.3702  -6.0276   0.00    0.0
2023/07/15 03:16:16.000   38.348809004   92.969659888  2702.6210   5  14   3.7476   1.7775   7.9422  -0.4354   1.9619  -3.9753   0.00    0.0
2023/07/15 03:16:17.000   38.348819192   92.969661902  2698.5481   5  15   3.4705   1.7276   6.1014  -0.8309   1.6372  -3.0438   0.00    0.0
2023/07/15 03:16:18.000   38.348811114   92.969663479  2700.4154   5  16   3.1942   1.6918   5.9699  -0.4643   1.4966  -2.7489   0.00    0.0
2023/07/15 03:16:19.000   38.348812751   92.969662303  2700.9072   5  14   3.8737   1.7512   6.1577  -0.4489   1.5637  -3.2708   0.00    0.0
2023/07/15 03:16:20.000   38.348818481   92.969656731  2704.3891   5  17   3.2504   1.6493   5.7793   0.9844   1.4522  -2.9217   0.00    0.0
2023/07/15 03:16:21.000   38.348812728   92.969660881  2706.4797   5  19   2.8300   1.5618   5.5806   0.3596   1.6858  -2.5472   0.00    0.0
2023/07/15 03:16:22.000   38.348804532   92.969663965  2706.6349   5  16   3.1776   1.6974   6.2101   0.9865   1.0707  -3.0201   0.00    0.0
2023/07/15 03:16:23.000   38.348792247   92.969661103  2707.1896   5  21   2.3283   2.3338   6.5825  -0.7592   3.3131  -2.2374   0.00    0.0
2023/07/15 03:16:24.000   38.348788644   92.969681962  2708.4255   5  26   2.0120   1.3790   3.6573   0.7119   1.1430  -0.7920   0.00    0.0
2023/07/15 03:16:25.000   38.348773759   92.969705101  2711.1297   5  28   1.7110   1.3611   3.3498   0.1698   0.7949  -1.3701   0.00    0.0
2023/07/15 03:16:26.000   38.348763222   92.969707184  2710.8894   5  30   1.6953   1.2904   3.4115   0.3075   0.6113  -1.4665   0.00    0.0
2023/07/15 03:16:29.000   38.348715571   92.969748589  2708.6966   5  25   1.9158   1.5287   4.0366  -0.6769   1.1265  -1.6138   0.00    0.0
2023/07/15 03:16:30.000   38.348706381   92.969758882  2709.9911   5  33   1.4923   1.2291   3.2366  -0.3465   0.8347  -1.1368   0.00    0.0
2023/07/15 03:16:32.000   38.348685497   92.969781508  2709.8467   5  33   1.4923   1.2292   3.2369  -0.3469   0.8352  -1.1371   0.00    0.0
2023/07/15 03:16:33.000   38.348675762   92.969795963  2710.2687   5  33   1.4924   1.2293   3.2370  -0.3471   0.8355  -1.1372   0.00    0.0
2023/07/15 03:16:34.000   38.348666244   92.969806624  2710.0101   5  32   1.5410   1.2624   3.2777  -0.1020   0.7422  -1.2210   0.00    0.0
2023/07/15 03:16:36.000   38.348645338   92.969837753  2709.6972   5  32   1.5430   1.2535   3.2374  -0.1589   0.8389  -1.1345   0.00    0.0
2023/07/15 03:16:37.000   38.348628105   92.969849825  2709.9195   5  32   1.6809   1.3322   3.6757  -0.7195   1.2619  -1.6249   0.00    0.0
2023/07/15 03:16:38.000   38.348615725   92.969863983  2710.3747   5  32   1.6810   1.3324   3.6758  -0.7196   1.2622  -1.6249   0.00    0.0
2023/07/15 03:16:39.000   38.348609006   92.969875986  2710.2948   5  29   1.8268   1.4114   3.8923  -0.4560   1.0374  -1.8026   0.00    0.0
2023/07/15 03:16:40.000   38.348597837   92.969883981  2710.5391   5  30   1.6184   1.3362   3.4163   0.4210   0.4779  -1.2918   0.00    0.0
2023/07/15 03:16:41.000   38.348585727   92.969896936  2710.7523   5  31   1.6823   1.3487   3.7931  -0.7107   1.1836  -1.6436   0.00    0.0
2023/07/15 03:16:42.000   38.348581240   92.969908320  2709.7103   5  32   1.5431   1.2540   3.2381  -0.1616   0.8404  -1.1353   0.00    0.0
2023/07/15 03:16:43.000   38.348566077   92.969924781  2710.3589   5  33   1.4927   1.2300   3.2382  -0.3491   0.8381  -1.1384   0.00    0.0
2023/07/15 03:16:44.000   38.348555382   92.969941478  2710.7835   5  32   1.6811   1.3330   3.6761  -0.7205   1.2636  -1.6253   0.00    0.0
2023/07/15 03:16:45.000   38.348546952   92.969955958  2711.4009   5  24   2.0106   1.5669   4.0380  -0.5068   1.1207  -1.6276   0.00    0.0
2023/07/15 03:16:46.000   38.348544114   92.969945718  2706.4520   5  18   3.3283   3.6102   9.2136  -2.7459   5.2056  -4.6314   0.00    0.0
2023/07/15 03:16:47.000   38.348531208   92.969975969  2712.2610   5  23   2.0232   1.5615   4.1411  -0.6477   1.0814  -1.6487   0.00    0.0
2023/07/15 03:16:48.000   38.348516036   92.969984755  2711.3835   5  32   1.6823   1.2865   3.6796  -0.7056   1.0147  -1.6378   0.00    0.0
2023/07/15 03:16:49.000   38.348509372   92.970000362  2711.7006   5  31   1.6825   1.3495   3.7933  -0.7120   1.1857  -1.6439   0.00    0.0
2023/07/15 03:16:50.000   38.348504077   92.970012788  2710.9581   5  31   1.6825   1.3496   3.7933  -0.7122   1.1859  -1.6440   0.00    0.0
2023/07/15 03:16:51.000   38.348490448   92.970024411  2711.9938   5  30   1.7464   1.3780   3.8802  -0.6143   1.0864  -1.7564   0.00    0.0
2023/07/15 03:16:52.000   38.348482589   92.970041749  2711.7365   5  30   1.7465   1.3781   3.8802  -0.6145   1.0867  -1.7565   0.00    0.0
2023/07/15 03:16:54.000   38.348465984   92.970068381  2711.8683   5  32   1.6814   1.3341   3.6766  -0.7221   1.2659  -1.6258   0.00    0.0
2023/07/15 03:16:55.000   38.348459078   92.970080224  2712.7776   5  32   1.6814   1.3342   3.6767  -0.7222   1.2661  -1.6259   0.00    0.0
2023/07/15 03:16:56.000   38.348452858   92.970090292  2713.1120   5  31   1.7172   1.3558   3.8087  -0.6618   1.3574  -1.5156   0.00    0.0
2023/07/15 03:16:57.000   38.348448496   92.970102623  2713.0235   5  32   1.6815   1.3344   3.6768  -0.7225   1.2666  -1.6260   0.00    0.0
2023/07/15 03:16:58.000   38.348447085   92.970105100  2711.7144   5  31   1.6826   1.3933   3.9730  -0.7055   1.4858  -1.5974   0.00    0.0
