%  GPST                  latitude(deg) longitude(deg)  height(m)   Q  ns   sdn(m)   sde(m)   sdu(m)  sdne(m)  sdeu(m)  sdun(m) age(s)  ratio
2023/07/15 02:44:50.000   38.345958218   92.969920028  2699.9348   5  32   1.5636   1.2059   3.9603  -0.2348   0.5006  -1.4133   0.00    0.0
2023/07/15 02:44:51.000   38.345958824   92.969919683  2699.7898   5  32   1.5636   1.2059   3.9605  -0.2351   0.5012  -1.4133   0.00    0.0
2023/07/15 02:44:52.000   38.345959549   92.969919880  2699.4061   5  32   1.5637   1.2060   3.9607  -0.2354   0.5018  -1.4134   0.00    0.0
2023/07/15 02:44:53.000   38.345955169   92.969916630  2699.4086   5  32   1.5637   1.2060   3.9609  -0.2357   0.5025  -1.4135   0.00    0.0
2023/07/15 02:44:54.000   38.345956420   92.969906477  2699.7210   5  32   1.5638   1.2060   3.9611  -0.2359   0.5031  -1.4136   0.00    0.0
2023/07/15 02:44:55.000   38.345960084   92.969901718  2699.9615   5  32   1.5638   1.2061   3.9613  -0.2362   0.5037  -1.4137   0.00    0.0
2023/07/15 02:44:56.000   38.345964807   92.969893108  2699.9073   5  32   1.5639   1.2061   3.9614  -0.2365   0.5043  -1.4138   0.00    0.0
2023/07/15 02:44:57.000   38.345971719   92.969883084  2699.9900   5  32   1.5639   1.2061   3.9616  -0.2368   0.5049  -1.4139   0.00    0.0
2023/07/15 02:44:58.000   38.345979550   92.969870350  2699.8605   5  32   1.5640   1.2062   3.9618  -0.2371   0.5055  -1.4140   0.00    0.0
2023/07/15 02:44:59.000   38.345986607   92.969857563  2699.6903   5  33   1.5633   1.1795   3.7602  -0.2620   0.7557  -1.3924   0.00    0.0
2023/07/15 02:45:00.000   38.345991843   92.969845559  2699.8075   5  33   1.5633   1.1796   3.7604  -0.2623   0.7561  -1.3925   0.00    0.0
2023/07/15 02:45:01.000   38.345999614   92.969834047  2699.6755   5  33   1.5634   1.1796   3.7606  -0.2625   0.7565  -1.3926   0.00    0.0
2023/07/15 02:45:02.000   38.346006495   92.969822155  2699.5873   5  33   1.5634   1.1796   3.7608  -0.2627   0.7568  -1.3927   0.00    0.0
2023/07/15 02:45:03.000   38.346012892   92.969810188  2699.6601   5  34   1.5609   1.1606   3.5876  -0.2971   0.9009  -1.3557   0.00    0.0
2023/07/15 02:45:04.000   38.346019012   92.969797916  2699.6407   5  34   1.5609   1.1607   3.5878  -0.2973   0.9012  -1.3558   0.00    0.0
2023/07/15 02:45:05.000   38.346023497   92.969783341  2699.5219   5  34   1.5610   1.1607   3.5880  -0.2975   0.9015  -1.3559   0.00    0.0
2023/07/15 02:45:06.000   38.346027656   92.969770952  2699.7795   5  35   1.5585   1.1125   3.5024  -0.3433   0.7447  -1.3811   0.00    0.0
2023/07/15 02:45:07.000   38.346029786   92.969758720  2699.9358   5  29   1.7481   1.2676   3.6706  -0.2736   0.6126  -1.3902   0.00    0.0
2023/07/15 02:45:08.000   38.346039088   92.969745427  2699.8539   5  35   1.5586   1.1126   3.5027  -0.3437   0.7452  -1.3813   0.00    0.0
2023/07/15 02:45:09.000   38.346044484   92.969732313  2699.7317   5  35   1.5587   1.1126   3.5029  -0.3438   0.7455  -1.3814   0.00    0.0
2023/07/15 02:45:10.000   38.346051464   92.969718167  2699.6782   5  35   1.5587   1.1126   3.5031  -0.3440   0.7458  -1.3815   0.00    0.0
2023/07/15 02:45:12.000   38.346060203   92.969691732  2700.2645   5  29   1.7483   1.2678   3.6713  -0.2749   0.6135  -1.3909   0.00    0.0
2023/07/15 02:45:14.000   38.346076061   92.969663449  2699.9748   5  35   1.5590   1.1128   3.5038  -0.3447   0.7470  -1.3819   0.00    0.0
2023/07/15 02:45:15.000   38.346083869   92.969651196  2700.1169   5  35   1.5590   1.1128   3.5040  -0.3448   0.7473  -1.3820   0.00    0.0
2023/07/15 02:45:16.000   38.346092174   92.969638547  2699.6924   5  35   1.5591   1.1129   3.5041  -0.3450   0.7476  -1.3821   0.00    0.0
2023/07/15 02:45:17.000   38.346099674   92.969625830  2699.4777   5  35   1.5591   1.1129   3.5043  -0.3452   0.7479  -1.3822   0.00    0.0
2023/07/15 02:45:18.000   38.346106903   92.969613740  2699.1692   5  35   1.5592   1.1130   3.5045  -0.3453   0.7481  -1.3823   0.00    0.0
2023/07/15 02:45:19.000   38.346116094   92.969601438  2699.0748   5  35   1.5592   1.1130   3.5047  -0.3455   0.7484  -1.3824   0.00    0.0
2023/07/15 02:45:20.000   38.346121725   92.969588716  2699.5338   5  35   1.5593   1.1130   3.5048  -0.3457   0.7487  -1.3825   0.00    0.0
2023/07/15 02:45:21.000   38.346127931   92.969576376  2699.6004   5  35   1.5593   1.1131   3.5050  -0.3458   0.7490  -1.3826   0.00    0.0
2023/07/15 02:45:22.000   38.346135510   92.969563284  2699.7542   5  35   1.5594   1.1131   3.5052  -0.3460   0.7493  -1.3827   0.00    0.0
2023/07/15 02:45:23.000   38.346143871   92.969550995  2699.6294   5  35   1.5594   1.1132   3.5054  -0.3462   0.7496  -1.3828   0.00    0.0
2023/07/15 02:45:24.000   38.346150384   92.969539028  2699.6272   5  35   1.5595   1.1132   3.5055  -0.3463   0.7499  -1.3829   0.00    0.0
2023/07/15 02:45:25.000   38.346158080   92.969527295  2699.7031   5  35   1.5595   1.1133   3.5057  -0.3465   0.7502  -1.3830   0.00    0.0
2023/07/15 02:45:26.000   38.346165311   92.969517375  2699.5843   5  35   1.5596   1.1133   3.5059  -0.3467   0.7505  -1.3831   0.00    0.0
2023/07/15 02:45:27.000   38.346171868   92.969507651  2699.4399   5  35   1.5597   1.1133   3.5061  -0.3468   0.7507  -1.3832   0.00    0.0
2023/07/15 02:45:28.000   38.346179882   92.969495825  2699.0975   5  35   1.5597   1.1134   3.5062  -0.3470   0.7510  -1.3833   0.00    0.0
2023/07/15 02:45:29.000   38.346188258   92.969484986  2698.9562   5  35   1.5598   1.1134   3.5064  -0.3472   0.7513  -1.3834   0.00    0.0
2023/07/15 02:45:30.000   38.346196024   92.969474182  2698.6026   5  35   1.5598   1.1135   3.5066  -0.3473   0.7516  -1.3835   0.00    0.0
2023/07/15 02:45:31.000   38.346202554   92.969464661  2699.1783   5  35   1.5599   1.1135   3.5067  -0.3475   0.7519  -1.3836   0.00    0.0
2023/07/15 02:45:32.000   38.346210544   92.969452500  2699.6827   5  35   1.5599   1.1135   3.5069  -0.3477   0.7522  -1.3837   0.00    0.0
2023/07/15 02:45:33.000   38.346216948   92.969442358  2699.6726   5  35   1.5600   1.1136   3.5071  -0.3478   0.7525  -1.3838   0.00    0.0
2023/07/15 02:45:34.000   38.346222491   92.969431617  2699.3590   5  35   1.5600   1.1136   3.5073  -0.3480   0.7528  -1.3839   0.00    0.0
2023/07/15 02:45:35.000   38.346229457   92.969420938  2699.3609   5  35   1.5601   1.1137   3.5074  -0.3481   0.7530  -1.3840   0.00    0.0
2023/07/15 02:45:36.000   38.346236144   92.969410005  2699.2375   5  35   1.5601   1.1137   3.5076  -0.3483   0.7533  -1.3841   0.00    0.0
2023/07/15 02:45:37.000   38.346244891   92.969399295  2699.2644   5  35   1.5602   1.1138   3.5078  -0.3485   0.7536  -1.3842   0.00    0.0
2023/07/15 02:45:38.000   38.346253717   92.969389086  2699.3861   5  35   1.5602   1.1138   3.5079  -0.3486   0.7539  -1.3843   0.00    0.0
2023/07/15 02:45:39.000   38.346261190   92.969379688  2699.3895   5  35   1.5603   1.1138   3.5081  -0.3488   0.7542  -1.3844   0.00    0.0
2023/07/15 02:45:40.000   38.346268964   92.969368056  2699.4289   5  35   1.5603   1.1139   3.5083  -0.3490   0.7545  -1.3845   0.00    0.0
2023/07/15 02:45:41.000   38.346278333   92.969355792  2699.5567   5  35   1.5604   1.1139   3.5085  -0.3491   0.7548  -1.3846   0.00    0.0
2023/07/15 02:45:42.000   38.346285601   92.969345358  2699.2133   5  35   1.5605   1.1140   3.5086  -0.3493   0.7551  -1.3847   0.00    0.0
2023/07/15 02:45:43.000   38.346296058   92.969334611  2698.8001   5  35   1.5605   1.1140   3.5088  -0.3495   0.7553  -1.3848   0.00    0.0
2023/07/15 02:45:44.000   38.346302374   92.969322295  2699.2033   5  35   1.5606   1.1141   3.5090  -0.3496   0.7556  -1.3849   0.00    0.0
2023/07/15 02:45:45.000   38.346307350   92.969308419  2699.6888   5  35   1.5606   1.1141   3.5091  -0.3498   0.7559  -1.3850   0.00    0.0
2023/07/15 02:45:47.000   38.346324310   92.969286310  2699.5217   5  35   1.5607   1.1142   3.5095  -0.3501   0.7565  -1.3852   0.00    0.0
2023/07/15 02:45:48.000   38.346332769   92.969274454  2699.4352   5  35   1.5608   1.1142   3.5096  -0.3503   0.7568  -1.3853   0.00    0.0
2023/07/15 02:45:49.000   38.346340393   92.969263612  2699.5331   5  35   1.5608   1.1143   3.5098  -0.3505   0.7571  -1.3854   0.00    0.0
2023/07/15 02:45:50.000   38.346352142   92.969252726  2699.0680   5  35   1.5609   1.1143   3.5100  -0.3506   0.7574  -1.3855   0.00    0.0
2023/07/15 02:45:51.000   38.346368522   92.969246767  2698.5229   5  34   1.5798   1.1268   3.5293  -0.2872   0.7160  -1.4175   0.00    0.0
2023/07/15 02:45:52.000   38.346366689   92.969244319  2698.6402   5  23   2.3841   1.7973   5.8254  -1.4104   2.1989  -2.5120   0.00    0.0
2023/07/15 02:45:55.000   38.346391393   92.969186753  2689.9035   5   7   4.6101   2.7002  16.4744  -1.0067   4.0863  -4.6421   0.00    0.0
2023/07/15 02:45:56.000   38.346396155   92.969209820  2703.4361   5  14   2.7895   2.1501   5.3052   1.4673  -2.0657  -2.1035   0.00    0.0
2023/07/15 02:45:57.000   38.346398539   92.969200475  2700.4882   5  24   1.9866   1.3420   3.9257   0.4126   0.5669  -1.4688   0.00    0.0
2023/07/15 02:45:58.000   38.346411207   92.969190129  2699.5495   5  24   1.9866   1.3420   3.9259   0.4124   0.5674  -1.4690   0.00    0.0
2023/07/15 02:46:01.000   38.346436035   92.969157754  2700.5034   5  24   2.0372   1.3730   3.7812   0.3036   1.0408  -1.3184   0.00    0.0
2023/07/15 02:46:02.000   38.346444622   92.969143082  2698.8913   5  27   1.7519   1.2487   3.7461  -0.1029   0.8932  -1.3700   0.00    0.0
2023/07/15 02:46:05.000   38.346476707   92.969112510  2699.3899   5  28   1.7303   1.1756   3.9060  -0.3847   0.7123  -1.3732   0.00    0.0
2023/07/15 02:46:06.000   38.346486639   92.969103505  2699.5163   5  28   1.7304   1.1757   3.9061  -0.3849   0.7127  -1.3733   0.00    0.0
2023/07/15 02:46:07.000   38.346487883   92.969092066  2698.5313   5  33   1.5739   1.1242   3.7984  -0.3824   0.7671  -1.3232   0.00    0.0
2023/07/15 02:46:08.000   38.346493931   92.969082345  2699.4077   5  33   1.5740   1.1242   3.7985  -0.3826   0.7674  -1.3233   0.00    0.0
2023/07/15 02:46:09.000   38.346500450   92.969069368  2698.8049   5  30   2.1004   1.5053   4.2557  -1.0710   1.7171  -2.0871   0.00    0.0
2023/07/15 02:46:10.000   38.346510223   92.969057474  2698.8162   5  30   2.1005   1.5054   4.2561  -1.0711   1.7174  -2.0872   0.00    0.0
2023/07/15 02:46:12.000   38.346672933   92.968787318  2125.6588   5   7  22.0328  22.5866 628.0376 -21.3224 118.0528 -113.8847   0.00    0.0
2023/07/15 02:46:15.000   38.346560303   92.969001533  2700.3587   5  22   1.9052   1.3964   4.1712  -0.2267   0.6684  -1.3482   0.00    0.0
2023/07/15 02:46:16.000   38.346577833   92.968992164  2700.6363   5   6   5.7593   6.1406  22.2665  -4.1270  -3.1765   5.8352   0.00    0.0
2023/07/15 02:46:17.000   38.346547082   92.969021667  2701.3643   5   7   5.5975   5.0078  16.2866  -3.4966  -7.9979   7.3814   0.00    0.0
2023/07/15 02:46:21.000   38.346608666   92.968934532  2700.4452   5  26   1.7644   1.2837   3.9150   0.1983   0.6300  -1.4862   0.00    0.0
2023/07/15 02:46:31.000   38.346696212   92.968818076  2699.9441   5  18   2.0473   1.8052   5.1870   0.9162  -1.4585  -1.9318   0.00    0.0
2023/07/15 02:46:32.000   38.346723151   92.968811970  2700.0311   5  10   4.6997   2.9473   7.3143  -2.7030   2.2276  -4.1375   0.00    0.0
2023/07/15 02:46:35.000   38.346710820   92.968807743  2699.5905   5  14   2.6519   1.7198   6.7051   1.1879  -1.4490  -1.6908   0.00    0.0
2023/07/15 02:46:36.000   38.346710981   92.968796611  2699.0932   5  12   2.7479   1.9800   5.1851   1.3319  -1.1230  -1.2660   0.00    0.0
2023/07/15 02:46:38.000   38.346718225   92.968792641  2700.2852   5  14   2.5122   1.5572   4.8408   0.6653   1.1239  -1.8701   0.00    0.0
2023/07/15 02:46:39.000   38.346729430   92.968779865  2698.9280   5   8   5.2380   4.9695  14.0617  -3.7461   5.5673  -6.8808   0.00    0.0
2023/07/15 02:47:01.000   38.346812297   92.968632700  2695.1725   5   7   4.7703   2.6092  10.1370   1.7108   2.7169   3.8843   0.00    0.0
2023/07/15 02:47:02.000   38.346815935   92.968628300  2705.1531   5   7   6.1751   7.8644  44.9437  -2.9569  15.5487   9.7178   0.00    0.0
2023/07/15 02:47:05.000   38.346832683   92.968610925  2713.3118   5   7   4.3281   2.7236  13.7285  -0.5696   3.9785   3.8451   0.00    0.0
2023/07/15 02:47:10.000   38.346839754   92.968578670  2697.9878   5  18   2.2370   1.4909   4.8044   0.7935  -0.3876  -1.6544   0.00    0.0
2023/07/15 02:47:13.000   38.346845938   92.968553114  2697.7748   5  27   1.7426   1.2403   4.3177  -0.2316   0.6370  -1.5359   0.00    0.0
2023/07/15 02:47:15.000   38.346241892   92.968637934  2726.0180   5   7  36.5919   5.7475  18.4131 -13.1089   5.8959 -21.7108   0.00    0.0
2023/07/15 02:47:17.000   38.346867935   92.968502429  2696.7275   5  12   2.9144   2.0851   9.1999   0.5230   2.6393   1.3259   0.00    0.0
2023/07/15 02:47:18.000   38.346874544   92.968492645  2703.9026   5  10   2.5541   2.5649   8.8989   1.5182  -3.7708  -3.0922   0.00    0.0
2023/07/15 02:47:20.000   38.346806145   92.968537012  2703.8331   5   6  25.3023  11.7508  18.2836 -16.6896  13.3503 -20.4229   0.00    0.0
2023/07/15 02:47:21.000   38.346899326   92.968473921  2698.2465   5  20   2.1452   1.3974   4.6578   0.5929   0.8709  -1.4352   0.00    0.0
2023/07/15 02:47:22.000   38.346898243   92.968462868  2698.8386   5  16   2.2174   1.6000   4.2784   0.5741  -0.4958  -1.6941   0.00    0.0
2023/07/15 02:47:23.000   38.346890019   92.968464374  2696.8178   5   8   6.8872   5.6888  20.9235  -3.9635   7.5687   6.0260   0.00    0.0
2023/07/15 02:47:24.000   38.346908637   92.968438458  2698.4070   5  21   1.9983   1.3840   4.5699   0.3035  -0.5315  -1.7413   0.00    0.0
2023/07/15 02:47:25.000   38.346907265   92.968428697  2698.7508   5  21   2.6917   1.5106   4.2873  -0.9253   1.0532  -1.8165   0.00    0.0
2023/07/15 02:47:26.000   38.346914650   92.968419380  2699.1455   5  28   1.7711   1.1750   3.6503  -0.4671   0.8246  -1.4978   0.00    0.0
2023/07/15 02:47:27.000   38.346918303   92.968405564  2698.5412   5  29   1.9563   1.2332   3.6679  -0.7490   0.9349  -1.6756   0.00    0.0
2023/07/15 02:47:28.000   38.346924824   92.968392950  2698.8152   5  30   1.8416   1.2308   3.6351  -0.7138   0.9143  -1.5759   0.00    0.0
2023/07/15 02:47:29.000   38.346930698   92.968381099  2699.0046   5  32   1.6561   1.1519   3.5581  -0.4021   0.7362  -1.3847   0.00    0.0
2023/07/15 02:47:30.000   38.346935659   92.968370739  2698.7006   5  32   1.6561   1.1520   3.5582  -0.4023   0.7365  -1.3848   0.00    0.0
2023/07/15 02:47:31.000   38.346922737   92.968363268  2694.7393   5  12   4.2339   2.6031  11.4911  -1.7357   3.8088   2.8342   0.00    0.0
2023/07/15 02:47:32.000   38.346946110   92.968352011  2698.8205   5  29   1.8496   1.2391   3.5838  -0.4690   0.8378  -1.3886   0.00    0.0
2023/07/15 02:47:33.000   38.346954485   92.968338990  2698.7901   5  32   1.6563   1.1521   3.5588  -0.4028   0.7375  -1.3851   0.00    0.0
2023/07/15 02:47:34.000   38.346958238   92.968329213  2698.9611   5  32   1.6563   1.1522   3.5590  -0.4030   0.7378  -1.3852   0.00    0.0
2023/07/15 02:47:35.000   38.346961118   92.968318875  2699.5283   5  34   1.6118   1.1192   3.5351  -0.3539   0.7909  -1.3623   0.00    0.0
2023/07/15 02:47:36.000   38.346966828   92.968308304  2699.0671   5  34   1.6118   1.1192   3.5353  -0.3541   0.7912  -1.3624   0.00    0.0
2023/07/15 02:47:37.000   38.346974789   92.968293260  2699.6874   5  22   2.1048   1.4895   4.8048   0.6123   0.6439  -1.4021   0.00    0.0
2023/07/15 02:47:38.000   38.346983821   92.968283567  2699.4935   5  33   1.6120   1.1407   3.6636  -0.3480   0.6450  -1.3696   0.00    0.0
2023/07/15 02:47:39.000   38.346984672   92.968262929  2696.8810   5  19   2.1418   1.7799   8.4809  -0.5032   2.6357  -2.6398   0.00    0.0
2023/07/15 02:47:40.000   38.346994874   92.968261770  2699.1880   5  26   1.8299   1.3128   3.9388  -0.3073   0.6986  -1.4223   0.00    0.0
2023/07/15 02:47:41.000   38.347004229   92.968243433  2699.0432   5  31   1.7132   1.1669   3.5748  -0.2817   0.7920  -1.4608   0.00    0.0
2023/07/15 02:47:43.000   38.346990125   92.968228338  2693.3927   5  12   4.5868   2.4139  10.4745   0.2913   2.8535   2.0864   0.00    0.0
2023/07/15 02:47:44.000   38.347027864   92.968204981  2699.5266   5  25   1.7585   1.4940   4.4984   0.4395  -1.3179  -1.5974   0.00    0.0
2023/07/15 02:47:45.000   38.347034609   92.968190806  2697.6934   5  21   2.3881   1.9868   6.0835  -1.2630   2.5869  -2.3491   0.00    0.0
2023/07/15 02:47:46.000   38.347038745   92.968184766  2698.2479   5  25   1.8542   1.3222   4.3194  -0.1980  -0.4344  -1.5512   0.00    0.0
2023/07/15 02:47:47.000   38.347045684   92.968171041  2698.6317   5  34   1.6123   1.1197   3.5371  -0.3558   0.7943  -1.3630   0.00    0.0
2023/07/15 02:47:48.000   38.347052035   92.968157059  2698.5296   5  34   1.6123   1.1198   3.5373  -0.3560   0.7946  -1.3631   0.00    0.0
2023/07/15 02:47:49.000   38.347055906   92.968144269  2698.8047   5  34   1.6123   1.1198   3.5375  -0.3561   0.7949  -1.3631   0.00    0.0
2023/07/15 02:47:50.000   38.347057300   92.968123130  2694.8368   5  17   2.3553   2.2127   9.5241   0.5988   3.3248  -0.8798   0.00    0.0
2023/07/15 02:47:52.000   38.347074940   92.968106703  2698.9999   5  30   1.7687   1.2697   3.6666  -0.1862   0.6906  -1.4431   0.00    0.0
2023/07/15 02:47:53.000   38.347071590   92.968094019  2699.5584   5  25   2.5802   1.5320   4.7211  -1.0850   1.6836  -2.4291   0.00    0.0
2023/07/15 02:47:54.000   38.347080569   92.968085042  2700.3681   5  17   3.2362   2.5869   7.1594  -1.7009   3.2439  -2.3989   0.00    0.0
2023/07/15 02:47:55.000   38.347091292   92.968076521  2699.3956   5  34   1.6126   1.1201   3.5385  -0.3571   0.7966  -1.3635   0.00    0.0
2023/07/15 02:47:56.000   38.347079858   92.968064926  2701.7065   5  19   3.1508   1.9712   5.6885  -1.3923   2.2239  -2.1040   0.00    0.0
2023/07/15 02:47:57.000   38.347068905   92.968033451  2690.1864   5  13   4.8977   2.7075  14.0902  -0.7541   5.0584   0.4211   0.00    0.0
2023/07/15 02:47:58.000   38.347101926   92.968035873  2696.5414   5  18   2.1993   1.9449   8.7559   1.0010   2.5615   1.6171   0.00    0.0
2023/07/15 02:47:59.000   38.347115538   92.968033758  2697.0426   5  19   2.8276   1.4372   4.4908  -0.3787   0.3486  -1.8922   0.00    0.0
2023/07/15 02:48:00.000   38.347119081   92.968025420  2700.1209   5  17   3.1321   2.1240   6.1415  -1.2191   2.5164  -2.1147   0.00    0.0
2023/07/15 02:48:02.000   38.347131469   92.968001410  2699.2190   5  28   1.8252   1.2748   3.7059  -0.2917   0.6494  -1.3591   0.00    0.0
2023/07/15 02:48:04.000   38.347149658   92.967978704  2699.1016   5  28   1.8252   1.2749   3.7062  -0.2922   0.6497  -1.3593   0.00    0.0
2023/07/15 02:48:06.000   38.347162618   92.967953894  2698.0902   5  20   2.1588   1.5514   4.8823  -0.5584   0.7423  -1.5644   0.00    0.0
2023/07/15 02:48:08.000   38.347178299   92.967935964  2698.2477   5  28   1.8253   1.2750   3.7068  -0.2933   0.6504  -1.3597   0.00    0.0
2023/07/15 02:48:11.000   38.347198084   92.967896073  2698.6830   5  28   1.8253   1.2751   3.7073  -0.2940   0.6509  -1.3599   0.00    0.0
2023/07/15 02:48:15.000   38.347232487   92.967852972  2698.7472   5  29   1.7462   1.1603   4.1680  -0.2905   0.9100  -1.4369   0.00    0.0
2023/07/15 02:48:16.000   38.347235437   92.967844124  2697.0768   5  17   3.2639   1.9973   6.8041  -1.3279   2.1682  -1.0343   0.00    0.0
2023/07/15 02:48:17.000   38.347248889   92.967830652  2698.3478   5  22   2.0645   1.4779   4.3542   0.3791  -0.4808  -1.1555   0.00    0.0
2023/07/15 02:48:20.000   38.347256711   92.967822928  2698.3431   5  28   1.8255   1.2755   3.7086  -0.2964   0.6525  -1.3608   0.00    0.0
2023/07/15 02:48:23.000   38.347270451   92.967798294  2698.2900   5  27   1.8841   1.2829   3.7097  -0.1569   0.6453  -1.3735   0.00    0.0
2023/07/15 02:48:24.000   38.347283295   92.967794501  2703.0435   5   6   5.1724   3.8231  17.9055  -2.3631   6.3198   3.1765   0.00    0.0
2023/07/15 02:48:25.000   38.347287431   92.967781731  2698.5729   5  28   1.8255   1.2757   3.7093  -0.2977   0.6533  -1.3612   0.00    0.0
2023/07/15 02:48:26.000   38.347288678   92.967772847  2699.1252   5  23   2.2541   1.5342   4.6394  -0.4697   1.2629  -1.8856   0.00    0.0
2023/07/15 02:48:27.000   38.347304343   92.967763412  2698.3721   5  34   1.6139   1.1216   3.5438  -0.3622   0.8055  -1.3654   0.00    0.0
2023/07/15 02:48:28.000   38.347313608   92.967751804  2698.1999   5  34   1.6139   1.1216   3.5439  -0.3624   0.8058  -1.3654   0.00    0.0
2023/07/15 02:48:30.000   38.347334100   92.967727362  2698.4628   5  34   1.6140   1.1217   3.5443  -0.3627   0.8063  -1.3656   0.00    0.0
2023/07/15 02:48:31.000   38.347343556   92.967717502  2698.0467   5  34   1.6140   1.1218   3.5444  -0.3629   0.8066  -1.3656   0.00    0.0
2023/07/15 02:48:32.000   38.347329872   92.967705233  2695.0908   5  13   3.7515   2.3617  12.2127  -0.7363   3.8958   3.2341   0.00    0.0
2023/07/15 02:48:33.000   38.347348921   92.967683756  2694.5849   5  13   2.5864   2.4986   6.9214   1.2215  -2.3150  -1.9468   0.00    0.0
2023/07/15 02:48:34.000   38.347292797   92.967664703  2685.8442   5   5  17.0888   4.9303  18.4846  -5.9186   4.5814 -10.3181   0.00    0.0
2023/07/15 02:48:45.000   38.347410831   92.967574249  2698.0486   5   7   7.0845   2.8434  13.4272  -0.6066   4.6677  -5.5635   0.00    0.0
2023/07/15 02:48:46.000   38.347410088   92.967578925  2699.5799   5   9   3.8815   2.6857  10.4411   2.1882   3.8135   2.1271   0.00    0.0
2023/07/15 02:48:47.000   38.347419386   92.967583119  2699.5495   5  13   2.5940   1.8692   7.0615   0.3486   2.3153  -2.7993   0.00    0.0
2023/07/15 02:48:48.000   38.347415611   92.967584010  2699.2613   5  23   1.8783   1.2273   4.2570  -0.2981   0.8149  -1.8072   0.00    0.0
2023/07/15 02:48:49.000   38.347417912   92.967574267  2699.3049   5  28   1.7948   1.1831   3.8222  -0.3873   0.7614  -1.5898   0.00    0.0
2023/07/15 02:48:50.000   38.347430367   92.967559642  2697.7314   5  18   2.4420   1.7869   5.6357  -0.7439   1.7055  -2.2726   0.00    0.0
2023/07/15 02:48:51.000   38.347436707   92.967563034  2692.8775   5  14   3.3531   2.0670  10.5666  -1.7448   3.5565  -4.3505   0.00    0.0
2023/07/15 02:48:52.000   38.347442344   92.967555014  2698.2677   5  22   2.4041   1.5124   4.1483  -0.8944   0.5315  -1.8542   0.00    0.0
2023/07/15 02:48:54.000   38.347457303   92.967535079  2684.4085   5   9   3.5169   4.5373  13.5256  -0.3387   3.6580  -4.4010   0.00    0.0
2023/07/15 02:49:08.000   38.347524661   92.967420772  2705.2470   5  10   3.0714   2.4743   9.2997  -2.0690   3.3875  -3.9930   0.00    0.0
2023/07/15 02:49:09.000   38.347532493   92.967416253  2700.2624   5  18   2.0396   1.4621   4.8975  -0.4921   1.2363  -2.0767   0.00    0.0
2023/07/15 02:49:17.000   38.347583133   92.967352225  2698.7351   5  13   2.7021   1.9211   6.9160  -0.9713   1.7499  -3.4689   0.00    0.0
2023/07/15 02:49:18.000   38.347584149   92.967338898  2699.6581   5  16   2.3703   1.7075   6.0002  -0.7213   0.7003  -2.9096   0.00    0.0
2023/07/15 02:49:19.000   38.347584311   92.967332761  2701.2178   5  24   1.9916   1.5325   4.6421  -0.1990  -0.1540  -2.1447   0.00    0.0
2023/07/15 02:49:20.000   38.347568825   92.967323580  2701.4853   5  16   3.2813   1.9317   7.1350   0.2825  -0.8011  -3.3402   0.00    0.0
2023/07/15 02:49:21.000   38.347600317   92.967302480  2697.1510   5  12   3.5579   2.2868   7.3015  -1.3606   1.8122  -3.7162   0.00    0.0
2023/07/15 02:49:22.000   38.347608595   92.967303224  2700.2899   5  29   1.6694   1.2675   3.6082  -0.3645   0.7468  -1.4204   0.00    0.0
2023/07/15 02:49:24.000   38.347625849   92.967270559  2700.1752   5  30   1.6684   1.2190   3.6084  -0.3920   0.7388  -1.4214   0.00    0.0
2023/07/15 02:49:25.000   38.347631803   92.967271038  2701.6012   5  16   2.2241   1.5985   4.0564   0.5147   0.7077  -1.6850   0.00    0.0
2023/07/15 02:49:26.000   38.347641374   92.967253169  2700.6595   5  29   1.7620   1.4142   4.1077  -0.6731   1.4469  -1.7535   0.00    0.0
2023/07/15 02:49:27.000   38.347650050   92.967241249  2700.3630   5  30   1.7605   1.3826   4.0956  -0.6572   1.4140  -1.7470   0.00    0.0
2023/07/15 02:49:28.000   38.347659957   92.967233860  2700.3440   5  32   1.6427   1.1559   3.6007  -0.2448   0.7228  -1.4298   0.00    0.0
2023/07/15 02:49:30.000   38.347676292   92.967220387  2700.5072   5  27   1.8510   1.2518   3.6790   0.3871   0.8595  -1.3998   0.00    0.0
2023/07/15 02:49:31.000   38.347672843   92.967212103  2701.0172   5  17   3.2025   2.1441   8.7603   0.8569   3.4754   2.0276   0.00    0.0
2023/07/15 02:49:32.000   38.347690866   92.967200276  2700.5153   5  28   1.8581   1.2381   3.7842   0.3540   0.3566  -1.4564   0.00    0.0
2023/07/15 02:49:35.000   38.347714970   92.967176434  2702.0332   5  34   1.6165   1.1248   3.5545  -0.3730   0.8242  -1.3693   0.00    0.0
2023/07/15 02:49:36.000   38.347721160   92.967162805  2702.4121   5  28   1.8460   1.2587   4.2468  -0.6564   1.1131  -1.7566   0.00    0.0
2023/07/15 02:49:37.000   38.347733093   92.967158184  2702.1850   5  32   1.6233   1.1829   3.6920  -0.3143   0.5615  -1.4094   0.00    0.0
2023/07/15 02:49:38.000   38.347741691   92.967147710  2702.8690   5  34   1.6166   1.1249   3.5549  -0.3734   0.8250  -1.3695   0.00    0.0
2023/07/15 02:49:39.000   38.347748953   92.967138868  2702.2381   5  34   1.6167   1.1250   3.5551  -0.3736   0.8253  -1.3695   0.00    0.0
2023/07/15 02:49:40.000   38.347757448   92.967127381  2702.1946   5  34   1.6167   1.1250   3.5552  -0.3738   0.8255  -1.3696   0.00    0.0
2023/07/15 02:49:41.000   38.347764697   92.967116905  2702.1863   5  34   1.6168   1.1251   3.5554  -0.3739   0.8258  -1.3696   0.00    0.0
2023/07/15 02:49:42.000   38.347772861   92.967107064  2702.3313   5  34   1.6168   1.1251   3.5555  -0.3741   0.8261  -1.3697   0.00    0.0
2023/07/15 02:49:43.000   38.347782192   92.967095549  2701.9881   5  34   1.6168   1.1252   3.5557  -0.3742   0.8264  -1.3698   0.00    0.0
2023/07/15 02:49:44.000   38.347788298   92.967083785  2702.4777   5  34   1.6169   1.1252   3.5558  -0.3744   0.8266  -1.3698   0.00    0.0
2023/07/15 02:49:45.000   38.347797645   92.967072031  2702.5029   5  34   1.6169   1.1253   3.5560  -0.3745   0.8269  -1.3699   0.00    0.0
2023/07/15 02:49:46.000   38.347804102   92.967063109  2702.5923   5  34   1.6170   1.1253   3.5561  -0.3747   0.8272  -1.3699   0.00    0.0
2023/07/15 02:49:47.000   38.347810624   92.967050938  2702.5581   5  34   1.6170   1.1254   3.5563  -0.3749   0.8274  -1.3700   0.00    0.0
2023/07/15 02:49:48.000   38.347817419   92.967037463  2702.8453   5  34   1.6170   1.1254   3.5565  -0.3750   0.8277  -1.3700   0.00    0.0
2023/07/15 02:49:49.000   38.347822960   92.967029356  2703.2212   5  34   1.6171   1.1255   3.5566  -0.3752   0.8280  -1.3701   0.00    0.0
2023/07/15 02:49:50.000   38.347830286   92.967020143  2703.0357   5  34   1.6171   1.1255   3.5568  -0.3753   0.8283  -1.3701   0.00    0.0
2023/07/15 02:49:53.000   38.347832437   92.967002078  2702.8868   5  33   1.6176   1.1650   3.6505  -0.3616   0.6642  -1.3807   0.00    0.0
2023/07/15 02:49:54.000   38.347831361   92.967001133  2702.6703   5  30   1.7695   1.2605   3.9199  -0.6183   1.2005  -1.4884   0.00    0.0
2023/07/15 02:49:55.000   38.347830793   92.967001819  2702.8544   5  34   1.6173   1.1258   3.5575  -0.3761   0.8296  -1.3704   0.00    0.0
2023/07/15 02:49:56.000   38.347830788   92.967001866  2702.9327   5  34   1.6173   1.1258   3.5576  -0.3763   0.8299  -1.3705   0.00    0.0
2023/07/15 02:49:58.000   38.347831442   92.967003060  2703.0167   5  34   1.6174   1.1259   3.5579  -0.3766   0.8304  -1.3706   0.00    0.0
