%  GPST                  latitude(deg) longitude(deg)  height(m)   Q  ns   sdn(m)   sde(m)   sdu(m)  sdne(m)  sdeu(m)  sdun(m) age(s)  ratio
2023/07/15 02:39:33.000   38.347936735   92.969882673  2705.7064   5  22   1.9413   1.4759   4.7972  -0.3587   1.0079  -1.9089   0.00    0.0
2023/07/15 02:39:34.000   38.347933350   92.969887414  2706.2041   5  24   1.8180   1.4658   4.6067  -0.3875   0.9002  -1.8377   0.00    0.0
2023/07/15 02:39:35.000   38.347934288   92.969887609  2706.0281   5  25   1.7980   1.4637   4.4059  -0.4141   0.9576  -1.7364   0.00    0.0
2023/07/15 02:39:36.000   38.347925926   92.969874952  2703.3843   5  13   2.5018   2.5332   5.7418   1.2003   1.4705  -2.0783   0.00    0.0
2023/07/15 02:39:40.000   38.347906717   92.969858885  2707.1950   5  15   2.1490   2.0490   5.7654   0.4542  -1.4200  -2.4752   0.00    0.0
2023/07/15 02:39:46.000   38.347872226   92.969813431  2712.0313   5  11   2.3205   2.2140  10.1616  -0.7430  -2.2439  -2.5008   0.00    0.0
2023/07/15 02:39:47.000   38.347863814   92.969815007  2708.4208   5  12   2.1883   2.0478   9.6400   0.3109  -1.5224  -2.9568   0.00    0.0
2023/07/15 02:39:48.000   38.347856297   92.969811854  2707.7677   5  18   1.9923   1.7475   5.2006  -0.3756   1.3225  -1.9334   0.00    0.0
2023/07/15 02:39:49.000   38.347843457   92.969801201  2705.6902   5  26   1.7698   1.5603   4.6973  -0.4790   1.2481  -1.6426   0.00    0.0
2023/07/15 02:39:50.000   38.347835598   92.969795415  2704.8762   5  27   1.7687   1.4741   4.6109  -0.5128   1.4216  -1.6248   0.00    0.0
2023/07/15 02:39:51.000   38.347827804   92.969789837  2705.1600   5  28   1.6813   1.2774   4.0484   0.3755   0.6304  -1.1949   0.00    0.0
2023/07/15 02:39:53.000   38.347818571   92.969754456  2705.6574   5  14   3.0502   3.1764   9.4926  -2.1638   3.4195  -4.1865   0.00    0.0
2023/07/15 02:39:54.000   38.347792767   92.969762315  2702.9108   5  15   2.9169   2.0879   8.9632  -0.7054   2.9775  -1.8025   0.00    0.0
2023/07/15 02:39:55.000   38.347788096   92.969763556  2707.1975   5  20   2.3056   1.5429   4.5790   0.6857  -0.3048  -1.5637   0.00    0.0
2023/07/15 02:39:56.000   38.347786476   92.969757741  2706.0399   5  28   1.6676   1.2613   3.9334   0.3104  -0.2847  -1.3852   0.00    0.0
2023/07/15 02:39:57.000   38.347775319   92.969747757  2706.0544   5  29   1.6467   1.2332   3.9055   0.1627   0.2101  -1.3399   0.00    0.0
2023/07/15 02:39:58.000   38.347768230   92.969740417  2706.2206   5  30   1.6053   1.2217   3.9053  -0.1881   0.1873  -1.3479   0.00    0.0
2023/07/15 02:39:59.000   38.347761129   92.969734050  2705.7391   5  30   1.6053   1.2217   3.9055  -0.1884   0.1891  -1.3480   0.00    0.0
2023/07/15 02:40:00.000   38.347754170   92.969724561  2705.9464   5  31   1.5687   1.2170   3.9044  -0.2687   0.1596  -1.3611   0.00    0.0
2023/07/15 02:40:01.000   38.347746190   92.969716684  2706.1281   5  31   1.5688   1.2171   3.9046  -0.2689   0.1617  -1.3612   0.00    0.0
2023/07/15 02:40:02.000   38.347737126   92.969707286  2706.1982   5  31   1.5688   1.2171   3.9049  -0.2692   0.1638  -1.3614   0.00    0.0
2023/07/15 02:40:03.000   38.347729821   92.969697564  2706.2498   5  31   1.5689   1.2171   3.9051  -0.2694   0.1658  -1.3615   0.00    0.0
2023/07/15 02:40:04.000   38.347720044   92.969687232  2706.2732   5  31   1.5689   1.2171   3.9053  -0.2697   0.1678  -1.3616   0.00    0.0
2023/07/15 02:40:06.000   38.347703053   92.969670406  2705.8295   5  31   1.5690   1.2172   3.9058  -0.2702   0.1717  -1.3619   0.00    0.0
2023/07/15 02:40:07.000   38.347695396   92.969660331  2705.5789   5  31   1.5691   1.2172   3.9060  -0.2704   0.1736  -1.3621   0.00    0.0
2023/07/15 02:40:08.000   38.347687269   92.969649528  2705.6646   5  31   1.5692   1.2172   3.9062  -0.2707   0.1755  -1.3622   0.00    0.0
2023/07/15 02:40:09.000   38.347681999   92.969643711  2706.9134   5  15   2.2013   1.7147   4.7245   0.7561  -1.3182  -1.7703   0.00    0.0
2023/07/15 02:40:10.000   38.347670815   92.969629499  2705.8885   5  31   1.5693   1.2173   3.9067  -0.2712   0.1793  -1.3625   0.00    0.0
2023/07/15 02:40:11.000   38.347663077   92.969619171  2706.0392   5  31   1.5693   1.2173   3.9069  -0.2714   0.1811  -1.3627   0.00    0.0
2023/07/15 02:40:12.000   38.347655952   92.969608814  2706.0579   5  31   1.5694   1.2173   3.9071  -0.2716   0.1830  -1.3628   0.00    0.0
2023/07/15 02:40:13.000   38.347653086   92.969607613  2705.3894   5  20   1.9150   1.6547   4.5288   0.5614  -1.1955  -1.6545   0.00    0.0
2023/07/15 02:40:15.000   38.347631307   92.969579826  2706.2786   5  31   1.5696   1.2174   3.9078  -0.2724   0.1884  -1.3632   0.00    0.0
2023/07/15 02:40:17.000   38.347617573   92.969561805  2706.0888   5  31   1.5697   1.2174   3.9082  -0.2729   0.1919  -1.3635   0.00    0.0
2023/07/15 02:40:18.000   38.347609005   92.969551609  2706.2831   5  31   1.5697   1.2174   3.9085  -0.2731   0.1936  -1.3637   0.00    0.0
2023/07/15 02:40:19.000   38.347603187   92.969542198  2705.8397   5  31   1.5698   1.2175   3.9087  -0.2733   0.1953  -1.3638   0.00    0.0
2023/07/15 02:40:20.000   38.347593650   92.969534205  2705.6018   5  31   1.5699   1.2175   3.9089  -0.2736   0.1970  -1.3640   0.00    0.0
2023/07/15 02:40:26.000   38.347538397   92.969480537  2705.1925   5  25   1.7807   1.4546   4.2437  -0.1533  -0.7114  -1.3061   0.00    0.0
2023/07/15 02:40:27.000   38.347531483   92.969473906  2705.4929   5  25   1.7808   1.4546   4.2439  -0.1538  -0.7111  -1.3063   0.00    0.0
2023/07/15 02:40:29.000   38.347514830   92.969454935  2704.8604   5  25   1.7808   1.4547   4.2442  -0.1550  -0.7106  -1.3067   0.00    0.0
2023/07/15 02:40:30.000   38.347506863   92.969445046  2704.9269   5  25   1.7809   1.4547   4.2443  -0.1555  -0.7103  -1.3069   0.00    0.0
2023/07/15 02:40:33.000   38.347479596   92.969420751  2704.3229   5  25   1.7810   1.4548   4.2448  -0.1572  -0.7095  -1.3075   0.00    0.0
2023/07/15 02:40:34.000   38.347469636   92.969410369  2704.1956   5  25   1.7810   1.4548   4.2449  -0.1577  -0.7092  -1.3077   0.00    0.0
2023/07/15 02:40:36.000   38.347447219   92.969393064  2703.8833   5  25   1.7811   1.4549   4.2452  -0.1588  -0.7086  -1.3081   0.00    0.0
2023/07/15 02:40:37.000   38.347439139   92.969383950  2703.9047   5  25   1.7811   1.4549   4.2453  -0.1594  -0.7083  -1.3083   0.00    0.0
2023/07/15 02:40:39.000   38.347422201   92.969368387  2703.9806   5  25   1.7811   1.4550   4.2456  -0.1604  -0.7078  -1.3087   0.00    0.0
2023/07/15 02:40:40.000   38.347414154   92.969355673  2703.2026   5  20   2.0219   1.5483   5.4829   0.6586  -0.2773  -1.0208   0.00    0.0
2023/07/15 02:40:41.000   38.347406004   92.969341620  2702.1438   5  17   2.1034   2.1314   6.6216  -0.8451  -1.2058  -2.0669   0.00    0.0
2023/07/15 02:40:42.000   38.347389512   92.969331985  2697.3193   5  12   3.3611   3.0321  10.2543  -2.1182   2.4245  -2.9153   0.00    0.0
2023/07/15 02:40:43.000   38.347387113   92.969325680  2702.6394   5  23   1.8183   1.5029   4.7126   0.3325   0.2585  -1.0622   0.00    0.0
2023/07/15 02:40:44.000   38.347378411   92.969317144  2701.7343   5  19   2.6206   2.2639   6.0918  -1.7846   1.7904  -2.6555   0.00    0.0
2023/07/15 02:40:47.000   38.347360908   92.969291847  2703.3684   5  18   1.9980   1.6239   4.6336   0.4503  -1.1268  -1.5163   0.00    0.0
2023/07/15 02:40:48.000   38.347346404   92.969278331  2702.9104   5  25   1.7814   1.4552   4.2469  -0.1652  -0.7052  -1.3105   0.00    0.0
2023/07/15 02:40:49.000   38.347333972   92.969258680  2700.7287   5  16   2.2692   2.3452   7.9975   0.3863   1.3454  -1.7316   0.00    0.0
2023/07/15 02:40:51.000   38.347322252   92.969251652  2703.3825   5  25   1.7815   1.4553   4.2474  -0.1668  -0.7044  -1.3111   0.00    0.0
2023/07/15 02:40:52.000   38.347311772   92.969241792  2701.4116   5  19   2.1947   1.7593   5.7581  -0.8192   1.0399  -1.7615   0.00    0.0
2023/07/15 02:40:54.000   38.347307578   92.969211208  2699.9444   5  13   2.6227   2.1485   8.3006  -1.1676   2.1330  -2.8252   0.00    0.0
2023/07/15 02:40:55.000   38.347292086   92.969207283  2703.7423   5  28   1.6501   1.2967   4.0112   0.0675  -0.5517  -1.3856   0.00    0.0
2023/07/15 02:40:56.000   38.347285400   92.969198573  2702.5779   5  28   1.6502   1.2967   4.0114   0.0666  -0.5511  -1.3857   0.00    0.0
2023/07/15 02:40:57.000   38.347272348   92.969187407  2702.0483   5  31   1.5720   1.2184   3.9171  -0.2825   0.2523  -1.3693   0.00    0.0
2023/07/15 02:40:58.000   38.347262976   92.969176566  2701.6466   5  31   1.5721   1.2184   3.9173  -0.2827   0.2536  -1.3694   0.00    0.0
2023/07/15 02:40:59.000   38.347243563   92.969149255  2679.1344   5   5  11.7646   8.8712  19.9502  -9.1915  -8.4476   8.9863   0.00    0.0
2023/07/15 02:41:00.000   38.347233924   92.969132812  2696.4586   5  10   3.6843   2.4838   9.8207  -1.2146   2.9281  -2.0929   0.00    0.0
2023/07/15 02:41:02.000   38.347234328   92.969131438  2702.9562   5   8   5.4351   6.7278  21.3476  -4.6677   4.0333  -4.1483   0.00    0.0
2023/07/15 02:41:03.000   38.347221782   92.969127087  2703.6106   5  20   1.8347   1.3833   5.3131  -0.4601  -0.3747  -1.4733   0.00    0.0
2023/07/15 02:41:04.000   38.347213821   92.969117942  2703.4023   5  20   1.8348   1.3834   5.3132  -0.4603  -0.3730  -1.4735   0.00    0.0
2023/07/15 02:41:05.000   38.347200460   92.969109323  2702.0106   5  29   1.6000   1.2625   4.2265  -0.2562  -0.6137  -1.3037   0.00    0.0
2023/07/15 02:41:06.000   38.347194896   92.969099098  2701.5497   5  29   1.6001   1.2625   4.2265  -0.2565  -0.6131  -1.3039   0.00    0.0
2023/07/15 02:41:08.000   38.347177649   92.969077453  2701.0353   5  28   1.6227   1.2644   4.3280  -0.2178  -0.5569  -1.2042   0.00    0.0
2023/07/15 02:41:09.000   38.347168140   92.969065343  2702.1324   5  31   1.5727   1.2187   3.9196  -0.2853   0.2679  -1.3710   0.00    0.0
2023/07/15 02:41:10.000   38.347162847   92.969060642  2702.7927   5  15   2.2053   1.7164   4.7359   0.7477  -1.3149  -1.7796   0.00    0.0
2023/07/15 02:41:11.000   38.347149839   92.969046350  2702.1248   5  31   1.5728   1.2188   3.9201  -0.2858   0.2704  -1.3713   0.00    0.0
2023/07/15 02:41:12.000   38.347140715   92.969038485  2702.1559   5  31   1.5729   1.2188   3.9203  -0.2860   0.2716  -1.3714   0.00    0.0
2023/07/15 02:41:13.000   38.347131445   92.969027352  2701.8304   5  31   1.5729   1.2188   3.9205  -0.2863   0.2729  -1.3716   0.00    0.0
2023/07/15 02:41:14.000   38.347122786   92.969019064  2701.8846   5  31   1.5730   1.2188   3.9207  -0.2865   0.2741  -1.3717   0.00    0.0
2023/07/15 02:41:15.000   38.347115244   92.969013894  2701.8781   5  31   1.5731   1.2189   3.9209  -0.2867   0.2754  -1.3719   0.00    0.0
2023/07/15 02:41:16.000   38.347107920   92.969003824  2701.8460   5  31   1.5731   1.2189   3.9211  -0.2870   0.2766  -1.3720   0.00    0.0
2023/07/15 02:41:17.000   38.347096941   92.968994243  2701.8539   5  31   1.5732   1.2189   3.9214  -0.2872   0.2778  -1.3721   0.00    0.0
2023/07/15 02:41:18.000   38.347088834   92.968985422  2701.4939   5  31   1.5732   1.2189   3.9216  -0.2874   0.2790  -1.3723   0.00    0.0
2023/07/15 02:41:19.000   38.347079903   92.968976194  2701.3527   5  31   1.5733   1.2190   3.9218  -0.2877   0.2802  -1.3724   0.00    0.0
2023/07/15 02:41:21.000   38.347059402   92.968959751  2700.9734   5  25   1.7824   1.4561   4.2516  -0.1818  -0.6957  -1.3172   0.00    0.0
2023/07/15 02:41:22.000   38.347052285   92.968951323  2701.2164   5  31   1.5735   1.2190   3.9224  -0.2884   0.2838  -1.3729   0.00    0.0
2023/07/15 02:41:23.000   38.347039726   92.968943822  2701.0591   5  25   1.7825   1.4562   4.2519  -0.1827  -0.6952  -1.3176   0.00    0.0
2023/07/15 02:41:25.000   38.347022697   92.968931847  2700.9780   5  31   1.5736   1.2191   3.9230  -0.2891   0.2874  -1.3733   0.00    0.0
2023/07/15 02:41:26.000   38.347011928   92.968923978  2701.1323   5  31   1.5737   1.2191   3.9233  -0.2893   0.2886  -1.3734   0.00    0.0
2023/07/15 02:41:27.000   38.347000787   92.968917990  2701.1505   5  31   1.5737   1.2192   3.9235  -0.2896   0.2897  -1.3736   0.00    0.0
2023/07/15 02:41:28.000   38.346990311   92.968912533  2701.0863   5  31   1.5738   1.2192   3.9237  -0.2898   0.2909  -1.3737   0.00    0.0
2023/07/15 02:41:29.000   38.346980683   92.968907404  2700.9418   5  31   1.5739   1.2192   3.9239  -0.2900   0.2921  -1.3738   0.00    0.0
2023/07/15 02:41:31.000   38.346959448   92.968895302  2700.5153   5  31   1.5740   1.2193   3.9243  -0.2905   0.2944  -1.3741   0.00    0.0
2023/07/15 02:41:32.000   38.346948352   92.968891554  2700.4479   5  31   1.5740   1.2193   3.9245  -0.2907   0.2955  -1.3743   0.00    0.0
2023/07/15 02:41:33.000   38.346937244   92.968883706  2700.5649   5  31   1.5741   1.2193   3.9247  -0.2910   0.2967  -1.3744   0.00    0.0
2023/07/15 02:41:34.000   38.346928142   92.968876057  2700.0526   5  31   1.5741   1.2194   3.9249  -0.2912   0.2978  -1.3746   0.00    0.0
2023/07/15 02:41:35.000   38.346916077   92.968869467  2699.9266   5  32   1.5534   1.2004   3.9202  -0.1739   0.3625  -1.3928   0.00    0.0
2023/07/15 02:41:36.000   38.346904706   92.968861936  2699.6494   5  32   1.5534   1.2004   3.9205  -0.1742   0.3634  -1.3929   0.00    0.0
2023/07/15 02:41:38.000   38.346882199   92.968850248  2699.3401   5  32   1.5535   1.2005   3.9209  -0.1749   0.3650  -1.3931   0.00    0.0
2023/07/15 02:41:39.000   38.346859566   92.968833106  2694.3229   5  18   2.7874   1.9878   7.8791  -0.7929   1.3064  -3.0718   0.00    0.0
2023/07/15 02:41:40.000   38.346854997   92.968838328  2698.5800   5  28   1.7505   1.3762   4.1838   0.3015  -0.7829  -1.3486   0.00    0.0
2023/07/15 02:41:41.000   38.346847487   92.968834014  2698.8074   5  32   1.5537   1.2006   3.9216  -0.1760   0.3675  -1.3935   0.00    0.0
2023/07/15 02:41:42.000   38.346837028   92.968831211  2698.4758   5  32   1.5537   1.2006   3.9218  -0.1764   0.3683  -1.3936   0.00    0.0
2023/07/15 02:41:43.000   38.346825548   92.968826371  2698.5644   5  32   1.5538   1.2006   3.9221  -0.1767   0.3691  -1.3937   0.00    0.0
2023/07/15 02:41:45.000   38.346802253   92.968819934  2697.7901   5  31   1.5750   1.2044   4.0216  -0.0850   0.2317  -1.4734   0.00    0.0
2023/07/15 02:41:46.000   38.346790420   92.968824246  2697.9495   5  31   1.5750   1.2044   4.0219  -0.0857   0.2329  -1.4735   0.00    0.0
2023/07/15 02:41:47.000   38.346779438   92.968831269  2697.8474   5  32   1.5540   1.2007   3.9230  -0.1781   0.3724  -1.3941   0.00    0.0
2023/07/15 02:41:48.000   38.346770030   92.968839303  2698.0877   5  32   1.5540   1.2007   3.9232  -0.1784   0.3732  -1.3942   0.00    0.0
2023/07/15 02:41:49.000   38.346761548   92.968851011  2698.2617   5  32   1.5541   1.2008   3.9234  -0.1788   0.3740  -1.3943   0.00    0.0
2023/07/15 02:41:50.000   38.346734707   92.968853127  2696.5581   5  14   3.9701   1.9835  10.3418  -1.7183   2.8630  -4.5691   0.00    0.0
2023/07/15 02:41:52.000   38.346735240   92.968872402  2695.2049   5  17   2.3226   1.9783   8.1317  -1.3379   2.3884  -3.1775   0.00    0.0
2023/07/15 02:41:53.000   38.346725127   92.968889400  2698.6099   5  30   1.5913   1.2453   3.9598  -0.1771  -0.1468  -1.4171   0.00    0.0
2023/07/15 02:41:54.000   38.346716688   92.968901129  2697.3019   5  30   1.5913   1.2453   3.9600  -0.1775  -0.1446  -1.4172   0.00    0.0
2023/07/15 02:41:55.000   38.346706274   92.968909595  2697.3785   5  32   1.5545   1.2009   3.9248  -0.1814   0.3791  -1.3951   0.00    0.0
2023/07/15 02:41:57.000   38.346689848   92.968925658  2693.3246   5  18   2.5291   2.5567   7.9980  -1.8063   3.1247  -3.1895   0.00    0.0
2023/07/15 02:41:58.000   38.346676280   92.968928878  2687.8425   5  16   2.2300   2.0543  10.9143   0.4363   2.3970  -2.1929   0.00    0.0
2023/07/15 02:41:59.000   38.346635725   92.968926817  2687.0211   5   9   5.0884   3.8407  13.4328   1.8669   4.5098  -1.3369   0.00    0.0
2023/07/15 02:42:00.000   38.346666943   92.968959152  2692.3845   5  14   3.2183   2.1401  10.4052   0.7298   3.4584   1.5329   0.00    0.0
2023/07/15 02:42:01.000   38.346649532   92.968972771  2685.9304   5  10   3.5537   3.2392  13.3396  -0.9419   4.2250  -1.0364   0.00    0.0
2023/07/15 02:42:02.000   38.346649800   92.968992379  2696.5453   5  19   2.9844   2.1374   5.5660  -1.8365   2.2016  -2.7152   0.00    0.0
2023/07/15 02:42:03.000   38.346640644   92.969004540  2696.8242   5  19   2.8069   2.0574   7.5337  -1.5014   2.7245  -3.1998   0.00    0.0
2023/07/15 02:42:05.000   38.346622672   92.969036650  2698.7772   5  30   1.6571   1.2613   3.9567  -0.4278   0.5588  -1.4192   0.00    0.0
2023/07/15 02:42:06.000   38.346613703   92.969049098  2699.0562   5  30   1.6571   1.2613   3.9569  -0.4279   0.5592  -1.4192   0.00    0.0
2023/07/15 02:42:07.000   38.346605133   92.969057443  2699.0154   5  30   1.6571   1.2613   3.9571  -0.4280   0.5597  -1.4192   0.00    0.0
2023/07/15 02:42:08.000   38.346597240   92.969067774  2699.2358   5  31   1.6047   1.2015   3.9365  -0.1567   0.3977  -1.3588   0.00    0.0
2023/07/15 02:42:09.000   38.346592999   92.969080989  2698.4293   5  26   1.6331   1.2973   5.3536  -0.1934   0.5074  -1.6798   0.00    0.0
2023/07/15 02:42:11.000   38.346576201   92.969089962  2694.9226   5  19   2.2201   1.8170   9.0223  -0.6974   2.8548  -1.8849   0.00    0.0
2023/07/15 02:42:12.000   38.346562608   92.969111520  2698.2506   5  31   1.6048   1.2016   3.9375  -0.1583   0.4008  -1.3590   0.00    0.0
2023/07/15 02:42:13.000   38.346551344   92.969120533  2694.2534   5  18   2.0152   1.7166   8.6354   0.6294  -1.4600  -1.4459   0.00    0.0
2023/07/15 02:42:14.000   38.346543737   92.969130747  2699.1711   5  23   1.9666   1.4547   4.4832   0.2327  -0.4705  -1.2276   0.00    0.0
2023/07/15 02:42:15.000   38.346537399   92.969140378  2695.5385   5  15   2.4970   1.9477   8.3575  -1.0248   2.5455  -2.9025   0.00    0.0
2023/07/15 02:42:16.000   38.346532645   92.969152013  2696.1345   5  22   2.4664   1.7079   6.9505  -1.1122   1.9749  -2.9248   0.00    0.0
2023/07/15 02:42:18.000   38.346511408   92.969174612  2698.4120   5  30   1.6202   1.2205   3.9698   0.1455   0.2432  -1.3989   0.00    0.0
2023/07/15 02:42:19.000   38.346499623   92.969184851  2698.1829   5  32   1.5558   1.2016   3.9301  -0.1894   0.3977  -1.3977   0.00    0.0
2023/07/15 02:42:20.000   38.346490330   92.969189198  2702.2165   5  18   2.0443   1.6125   5.4945  -0.4640  -0.8765  -1.7982   0.00    0.0
2023/07/15 02:42:21.000   38.346463712   92.969194818  2702.3380   5  15   3.1289   2.7355   8.1045   2.0081  -3.5162  -3.4220   0.00    0.0
2023/07/15 02:42:22.000   38.346471813   92.969221649  2700.1379   5  22   2.0776   2.1398   5.8257  -1.1404   2.0035  -2.5786   0.00    0.0
2023/07/15 02:42:23.000   38.346451875   92.969231839  2696.9758   5   4   4.9711  15.7235  14.0500   5.0585   4.5088  -5.0802   0.00    0.0
2023/07/15 02:42:24.000   38.346453958   92.969223742  2692.8271   5  14   2.4883   2.4472   9.5588   0.9579  -1.5905   1.2114   0.00    0.0
2023/07/15 02:42:25.000   38.346443456   92.969241531  2686.2509   5  10   4.6052   3.7561  14.5956  -2.5399   2.7165   3.9578   0.00    0.0
2023/07/15 02:42:26.000   38.346438260   92.969249557  2695.0257   5  14   2.7327   2.1198   6.3116   0.5845  -2.2845   0.4273   0.00    0.0
2023/07/15 02:42:30.000   38.346422311   92.969260954  2689.8097   5  12   2.7110   2.1688  10.4378  -1.2210   2.3784  -3.4678   0.00    0.0
2023/07/15 02:42:31.000   38.346407162   92.969274168  2682.6055   5   7   5.9478   4.1721  23.4223  -3.1334   4.4193   7.6904   0.00    0.0
2023/07/15 02:42:32.000   38.346427238   92.969266444  2683.6447   5   8   4.2367   3.9826  22.6633  -2.1487   5.1962   5.8566   0.00    0.0
2023/07/15 02:42:34.000   38.346369891   92.969341767  2696.5255   5  16   3.7620   1.5576   6.6647   0.9617   0.8463   3.1531   0.00    0.0
2023/07/15 02:42:35.000   38.346366511   92.969360401  2698.4237   5  27   1.8257   1.3358   4.0962  -0.6538   0.6211  -1.6014   0.00    0.0
2023/07/15 02:42:39.000   38.346334523   92.969402539  2699.9564   5  13   3.0440   2.1216   8.6670  -1.6276   2.6502  -4.2860   0.00    0.0
2023/07/15 02:42:41.000   38.346331038   92.969430592  2699.7818   5  10   7.9750   4.2898   9.0599  -5.3910   4.7534  -7.1513   0.00    0.0
2023/07/15 02:42:46.000   38.346273542   92.969496683  2699.4129   5  20   1.9483   1.4295   4.4446  -0.2120  -0.5424  -1.8694   0.00    0.0
2023/07/15 02:42:47.000   38.346258721   92.969509542  2700.6173   5  21   1.9090   1.4218   4.2930  -0.3208  -0.3502  -1.7452   0.00    0.0
2023/07/15 02:42:48.000   38.346251564   92.969520214  2701.0317   5  21   1.9090   1.4218   4.2931  -0.3210  -0.3494  -1.7452   0.00    0.0
2023/07/15 02:42:49.000   38.346232157   92.969513642  2696.9869   5  16   3.5451   2.6780   9.3766  -2.3781   3.9518  -4.7580   0.00    0.0
2023/07/15 02:42:50.000   38.346189220   92.969474972  2687.5626   5  11   2.9641   3.0117  10.2850   1.3108   1.4923   2.2731   0.00    0.0
2023/07/15 02:42:51.000   38.346156593   92.969651899  2719.1891   5   7  15.6957  15.3560  36.9169 -15.1307  22.7150 -21.7465   0.00    0.0
2023/07/15 02:42:56.000   38.346185028   92.969588135  2699.0251   5   9   3.8207   2.8103   8.7145  -1.1128   2.6041  -4.5997   0.00    0.0
2023/07/15 02:42:57.000   38.346186154   92.969607053  2698.7852   5  11   3.6835   2.5615   8.4866  -1.5544   2.5852  -4.6116   0.00    0.0
2023/07/15 02:42:58.000   38.346167614   92.969629335  2701.0063   5  21   1.8523   1.4631   4.5269   0.4874  -1.0828  -1.7660   0.00    0.0
2023/07/15 02:42:59.000   38.346160134   92.969643005  2699.2857   5  27   1.7310   1.3386   4.2080   0.4313  -0.7851  -1.5790   0.00    0.0
2023/07/15 02:43:00.000   38.346152423   92.969655148  2699.1770   5  27   1.7310   1.3386   4.2083   0.4312  -0.7848  -1.5790   0.00    0.0
2023/07/15 02:43:01.000   38.346140887   92.969665513  2699.1105   5  29   1.6748   1.2532   4.0149   0.3298  -0.2053  -1.5582   0.00    0.0
2023/07/15 02:43:02.000   38.346132989   92.969674385  2699.1167   5  29   1.6749   1.2532   4.0151   0.3296  -0.2040  -1.5583   0.00    0.0
2023/07/15 02:43:03.000   38.346123571   92.969684312  2699.4169   5  30   1.6468   1.2310   3.9810   0.1912   0.2867  -1.5061   0.00    0.0
2023/07/15 02:43:04.000   38.346113502   92.969696156  2699.6924   5  30   1.6469   1.2310   3.9812   0.1909   0.2877  -1.5062   0.00    0.0
2023/07/15 02:43:05.000   38.346104840   92.969707274  2699.6925   5  30   1.6469   1.2310   3.9814   0.1905   0.2887  -1.5063   0.00    0.0
2023/07/15 02:43:06.000   38.346097260   92.969718169  2699.3511   5  30   1.6470   1.2311   3.9816   0.1902   0.2896  -1.5064   0.00    0.0
2023/07/15 02:43:07.000   38.346089535   92.969731125  2699.2643   5  31   1.6222   1.2029   3.9636  -0.1968   0.4292  -1.4700   0.00    0.0
2023/07/15 02:43:08.000   38.346082720   92.969743861  2699.1458   5  32   1.5583   1.2029   3.9405  -0.2050   0.4335  -1.4029   0.00    0.0
2023/07/15 02:43:10.000   38.346066229   92.969765804  2699.4742   5  32   1.5584   1.2029   3.9410  -0.2057   0.4349  -1.4031   0.00    0.0
2023/07/15 02:43:11.000   38.346057340   92.969777635  2699.6351   5  32   1.5585   1.2030   3.9412  -0.2060   0.4356  -1.4032   0.00    0.0
2023/07/15 02:43:12.000   38.346049081   92.969789723  2699.7898   5  32   1.5585   1.2030   3.9414  -0.2063   0.4363  -1.4033   0.00    0.0
2023/07/15 02:43:13.000   38.346041720   92.969798680  2699.9495   5  32   1.5586   1.2030   3.9416  -0.2066   0.4370  -1.4034   0.00    0.0
2023/07/15 02:43:14.000   38.346034482   92.969810495  2699.5543   5  32   1.5586   1.2031   3.9418  -0.2069   0.4377  -1.4035   0.00    0.0
2023/07/15 02:43:15.000   38.346023606   92.969815132  2697.7362   5  19   2.3370   2.0861   7.6515  -0.8716   1.8302  -2.8184   0.00    0.0
2023/07/15 02:43:16.000   38.346018301   92.969833871  2699.1766   5  32   1.5587   1.2031   3.9422  -0.2075   0.4390  -1.4037   0.00    0.0
2023/07/15 02:43:17.000   38.346010604   92.969843645  2698.8636   5  32   1.5588   1.2031   3.9424  -0.2078   0.4397  -1.4038   0.00    0.0
2023/07/15 02:43:18.000   38.346002296   92.969856353  2699.3481   5  32   1.5589   1.2032   3.9426  -0.2081   0.4404  -1.4039   0.00    0.0
2023/07/15 02:43:19.000   38.345995853   92.969869009  2700.3501   5  15   2.2137   1.7203   4.7585   0.7293  -1.3072  -1.7991   0.00    0.0
2023/07/15 02:43:20.000   38.345984047   92.969877274  2699.1329   5  32   1.5590   1.2032   3.9430  -0.2087   0.4418  -1.4041   0.00    0.0
2023/07/15 02:43:22.000   38.345968505   92.969896636  2699.8953   5  32   1.5591   1.2033   3.9434  -0.2093   0.4432  -1.4044   0.00    0.0
2023/07/15 02:43:23.000   38.345960233   92.969908979  2700.7636   5  28   1.7504   1.4094   4.2261   0.2771  -0.4738  -1.4040   0.00    0.0
2023/07/15 02:43:24.000   38.345957055   92.969912051  2698.7335   5  30   1.6881   1.4120   4.6950  -0.6363   1.4405  -1.7720   0.00    0.0
2023/07/15 02:43:25.000   38.345954533   92.969915514  2699.9336   5  32   1.5592   1.2034   3.9440  -0.2102   0.4453  -1.4047   0.00    0.0
2023/07/15 02:43:26.000   38.345954371   92.969915127  2700.1367   5  32   1.5593   1.2034   3.9442  -0.2105   0.4459  -1.4048   0.00    0.0
2023/07/15 02:43:27.000   38.345953863   92.969915900  2699.9460   5  32   1.5593   1.2034   3.9444  -0.2108   0.4466  -1.4049   0.00    0.0
2023/07/15 02:43:28.000   38.345954249   92.969916683  2699.7916   5  32   1.5594   1.2035   3.9446  -0.2111   0.4473  -1.4050   0.00    0.0
2023/07/15 02:43:31.000   38.345952449   92.969915727  2700.0407   5  32   1.5595   1.2035   3.9452  -0.2121   0.4494  -1.4053   0.00    0.0
2023/07/15 02:43:33.000   38.345953771   92.969917381  2699.9021   5  32   1.5596   1.2036   3.9456  -0.2127   0.4507  -1.4055   0.00    0.0
2023/07/15 02:43:34.000   38.345954113   92.969918042  2699.6875   5  32   1.5597   1.2036   3.9458  -0.2130   0.4514  -1.4056   0.00    0.0
2023/07/15 02:43:36.000   38.345953692   92.969917831  2699.8087   5  32   1.5598   1.2037   3.9462  -0.2136   0.4528  -1.4058   0.00    0.0
2023/07/15 02:43:37.000   38.345952032   92.969918089  2699.6569   5  26   1.7553   1.4268   4.2579   0.2164  -0.5747  -1.3834   0.00    0.0
2023/07/15 02:43:38.000   38.345954952   92.969916888  2699.7415   5  32   1.5599   1.2037   3.9466  -0.2141   0.4541  -1.4060   0.00    0.0
2023/07/15 02:43:39.000   38.345954962   92.969916559  2699.6344   5  32   1.5599   1.2038   3.9468  -0.2144   0.4548  -1.4061   0.00    0.0
2023/07/15 02:43:40.000   38.345955072   92.969914907  2699.5630   5  32   1.5600   1.2038   3.9470  -0.2147   0.4555  -1.4062   0.00    0.0
2023/07/15 02:43:41.000   38.345955067   92.969915384  2699.7109   5  32   1.5600   1.2038   3.9472  -0.2150   0.4561  -1.4063   0.00    0.0
2023/07/15 02:43:42.000   38.345954810   92.969916281  2699.8022   5  32   1.5601   1.2039   3.9474  -0.2153   0.4568  -1.4064   0.00    0.0
2023/07/15 02:43:43.000   38.345954363   92.969915343  2699.7577   5  32   1.5601   1.2039   3.9476  -0.2156   0.4575  -1.4065   0.00    0.0
2023/07/15 02:43:45.000   38.345960420   92.969920652  2700.2998   5  18   2.0008   1.6282   4.6565   0.4055  -1.0978  -1.5357   0.00    0.0
2023/07/15 02:43:46.000   38.345954302   92.969915054  2699.7135   5  32   1.5603   1.2040   3.9482  -0.2165   0.4595  -1.4068   0.00    0.0
2023/07/15 02:43:47.000   38.345953719   92.969913447  2699.4467   5  32   1.5604   1.2040   3.9484  -0.2168   0.4602  -1.4069   0.00    0.0
2023/07/15 02:43:48.000   38.345953713   92.969914186  2699.6164   5  32   1.5604   1.2040   3.9486  -0.2171   0.4608  -1.4070   0.00    0.0
2023/07/15 02:43:49.000   38.345904211   92.969901756  2701.2518   5   6   6.8408   3.3425  18.8940  -2.8015   4.7368  -8.8467   0.00    0.0
2023/07/15 02:43:50.000   38.345945178   92.969908226  2701.7606   5  19   2.8967   2.5903   8.6099  -1.5290   2.8401  -3.7770   0.00    0.0
2023/07/15 02:43:52.000   38.345955982   92.969925582  2700.9707   5  16   3.1737   2.4402   7.2963  -2.2712   3.2625  -3.8271   0.00    0.0
2023/07/15 02:43:54.000   38.345961926   92.969927575  2699.9754   5  26   1.7215   1.2770   4.1422  -0.1150   0.3622  -1.5352   0.00    0.0
2023/07/15 02:43:55.000   38.345962855   92.969917635  2700.2394   5  31   1.6090   1.2045   3.9618  -0.1946   0.4739  -1.3647   0.00    0.0
2023/07/15 02:43:56.000   38.345961139   92.969913625  2700.1037   5  29   1.7698   1.2729   4.1777   0.1051  -0.4693  -1.1983   0.00    0.0
2023/07/15 02:43:57.000   38.345964549   92.969917115  2700.0717   5  31   1.6090   1.2046   3.9622  -0.1952   0.4753  -1.3648   0.00    0.0
2023/07/15 02:43:58.000   38.345964500   92.969917812  2699.8157   5  31   1.6091   1.2046   3.9625  -0.1955   0.4759  -1.3648   0.00    0.0
2023/07/15 02:43:59.000   38.345959304   92.969916773  2699.6526   5  32   1.5610   1.2044   3.9508  -0.2203   0.4681  -1.4082   0.00    0.0
2023/07/15 02:44:00.000   38.345952017   92.969906527  2696.0194   5  23   2.2769   1.7805   6.9739  -1.0524   2.3019  -2.5070   0.00    0.0
2023/07/15 02:44:01.000   38.345959720   92.969916990  2699.9414   5  32   1.5611   1.2044   3.9512  -0.2209   0.4694  -1.4084   0.00    0.0
2023/07/15 02:44:02.000   38.345960363   92.969916721  2700.1238   5  32   1.5611   1.2044   3.9513  -0.2212   0.4701  -1.4085   0.00    0.0
2023/07/15 02:44:03.000   38.345959118   92.969916146  2700.1715   5  32   1.5612   1.2045   3.9515  -0.2215   0.4707  -1.4086   0.00    0.0
2023/07/15 02:44:04.000   38.345959962   92.969915523  2700.2176   5  32   1.5612   1.2045   3.9517  -0.2218   0.4714  -1.4087   0.00    0.0
