%  GPST                  latitude(deg) longitude(deg)  height(m)   Q  ns   sdn(m)   sde(m)   sdu(m)  sdne(m)  sdeu(m)  sdun(m) age(s)  ratio
2023/06/27 12:41:04.000   31.027671031  121.439589633    26.6803   5  33   1.7424   1.4514   3.7633   0.4982  -0.7249   0.5607   0.00    0.0
2023/06/27 12:41:05.000   31.027667801  121.439592134    24.8396   5  32   1.8688   1.4527   3.8559   0.7418   0.7317   1.0190   0.00    0.0
2023/06/27 12:41:06.000   31.027668215  121.439592898    24.4692   5  34   1.7424   1.3776   3.6010   0.4952  -0.1602   0.5670   0.00    0.0
2023/06/27 12:41:07.000   31.027660891  121.439590783    24.3123   5  28   2.1666   1.5853   4.8010   0.6406  -0.6214  -0.9710   0.00    0.0
2023/06/27 12:41:08.000   31.027656625  121.439593182    23.9671   5  31   1.8871   1.4691   3.9255   0.7143   0.8196   1.1318   0.00    0.0
2023/06/27 12:41:10.000   31.027639593  121.439602443    24.4647   5  27   2.0659   1.5982   5.1114   0.6347  -1.3095  -1.7837   0.00    0.0
2023/06/27 12:41:11.000   31.027635927  121.439607626    22.8890   5  37   1.4685   1.3626   3.5701   0.3081  -0.2204  -0.6009   0.00    0.0
2023/06/27 12:41:12.000   31.027625075  121.439609143    23.6810   5  36   1.5544   1.4083   4.1218   0.5256  -0.8840  -1.1878   0.00    0.0
2023/06/27 12:41:13.000   31.027617422  121.439614604    22.7568   5  38   1.5444   1.3689   3.9493   0.4672  -1.0806  -1.2694   0.00    0.0
2023/06/27 12:41:14.000   31.027607529  121.439617910    20.5452   5  17   2.2223   2.1913   5.1545  -0.2430  -0.6431   1.2044   0.00    0.0
2023/06/27 12:41:15.000   31.027598194  121.439619743    22.8431   5  37   1.4716   1.3938   3.5800   0.3231  -0.9369  -0.8748   0.00    0.0
2023/06/27 12:41:16.000   31.027588454  121.439624897    22.6560   5  39   1.4507   1.3118   3.4353   0.1037  -0.6363  -0.7608   0.00    0.0
2023/06/27 12:41:17.000   31.027576919  121.439627158    22.9460   5  40   1.4506   1.2410   3.3457   0.1426  -0.2714  -0.7722   0.00    0.0
2023/06/27 12:41:18.000   31.027567342  121.439632340    22.0175   5  41   1.4524   1.1840   3.1715   0.2119  -0.2871  -0.8577   0.00    0.0
2023/06/27 12:41:19.000   31.027558792  121.439636305    22.8680   5  41   1.4524   1.1840   3.1715   0.2119  -0.2869  -0.8577   0.00    0.0
2023/06/27 12:41:20.000   31.027546920  121.439639178    23.2749   5  40   1.5576   1.2682   3.5992   0.5556  -0.9853  -1.2955   0.00    0.0
2023/06/27 12:41:21.000   31.027535392  121.439644499    24.2206   5  41   1.5371   1.2049   3.4435   0.4570  -0.7458  -1.1891   0.00    0.0
2023/06/27 12:41:22.000   31.027523836  121.439650751    24.0221   5  41   1.5371   1.2048   3.4434   0.4570  -0.7457  -1.1890   0.00    0.0
2023/06/27 12:41:24.000   31.027504362  121.439657317    24.1027   5  32   1.8700   1.4318   4.1391   0.6163  -0.9249  -1.2538   0.00    0.0
2023/06/27 12:41:25.000   31.027498858  121.439666256    22.6667   5  41   1.5370   1.2048   3.4431   0.4568  -0.7453  -1.1887   0.00    0.0
2023/06/27 12:41:27.000   31.027478239  121.439672617    23.1873   5  40   1.5400   1.2240   3.6733   0.4333  -0.5273  -1.2390   0.00    0.0
2023/06/27 12:41:28.000   31.027468725  121.439677280    23.1080   5  41   1.5370   1.2047   3.4429   0.4566  -0.7449  -1.1883   0.00    0.0
2023/06/27 12:41:29.000   31.027460005  121.439681927    22.8362   5  40   1.5400   1.2240   3.6731   0.4332  -0.5269  -1.2387   0.00    0.0
2023/06/27 12:41:30.000   31.027447355  121.439686329    23.2953   5  32   1.8700   1.4317   4.1389   0.6160  -0.9245  -1.2539   0.00    0.0
2023/06/27 12:41:31.000   31.027440610  121.439692907    22.6330   5  42   1.5238   1.2012   3.3894   0.4761  -0.7808  -1.1360   0.00    0.0
2023/06/27 12:41:32.000   31.027428422  121.439698030    23.7492   5  33   1.8513   1.4267   4.0549   0.6410  -0.9765  -1.1635   0.00    0.0
2023/06/27 12:41:34.000   31.027410317  121.439709441    23.0553   5  42   1.5238   1.2012   3.3891   0.4759  -0.7805  -1.1356   0.00    0.0
2023/06/27 12:41:35.000   31.027400924  121.439715859    22.9848   5  42   1.5238   1.2011   3.3891   0.4759  -0.7803  -1.1355   0.00    0.0
2023/06/27 12:41:36.000   31.027390708  121.439719326    23.5150   5  42   1.5238   1.2011   3.3890   0.4758  -0.7802  -1.1354   0.00    0.0
2023/06/27 12:41:37.000   31.027381425  121.439723909    22.8798   5  42   1.5237   1.2011   3.3889   0.4757  -0.7801  -1.1353   0.00    0.0
2023/06/27 12:41:38.000   31.027371623  121.439725549    23.3816   5  42   1.5237   1.2011   3.3888   0.4757  -0.7800  -1.1352   0.00    0.0
2023/06/27 12:41:39.000   31.027361742  121.439730869    23.1439   5  42   1.5237   1.2011   3.3888   0.4756  -0.7799  -1.1351   0.00    0.0
2023/06/27 12:41:40.000   31.027351235  121.439735945    23.0916   5  42   1.5383   1.2310   3.5400   0.5361  -0.9925  -1.2355   0.00    0.0
2023/06/27 12:41:41.000   31.027341461  121.439739050    23.1335   5  43   1.5200   1.1715   3.3884   0.4449  -0.7730  -1.1331   0.00    0.0
2023/06/27 12:41:42.000   31.027330935  121.439743331    23.2090   5  43   1.5200   1.1715   3.3883   0.4448  -0.7729  -1.1330   0.00    0.0
2023/06/27 12:41:44.000   31.027310376  121.439750710    23.0037   5  43   1.5199   1.1714   3.3882   0.4447  -0.7726  -1.1328   0.00    0.0
2023/06/27 12:41:45.000   31.027301244  121.439756427    22.5934   5  43   1.5199   1.1714   3.3881   0.4446  -0.7725  -1.1326   0.00    0.0
2023/06/27 12:41:46.000   31.027288586  121.439758494    22.9065   5  43   1.5199   1.1714   3.3880   0.4445  -0.7724  -1.1325   0.00    0.0
2023/06/27 12:41:47.000   31.027277659  121.439761646    23.4082   5  43   1.5199   1.1714   3.3879   0.4444  -0.7723  -1.1324   0.00    0.0
2023/06/27 12:41:48.000   31.027268202  121.439768063    23.1489   5  43   1.5199   1.1714   3.3879   0.4444  -0.7722  -1.1323   0.00    0.0
2023/06/27 12:41:49.000   31.027257568  121.439773454    22.8645   5  43   1.5199   1.1714   3.3878   0.4443  -0.7720  -1.1322   0.00    0.0
2023/06/27 12:41:50.000   31.027241439  121.439777465    23.1112   5  34   1.8427   1.3773   4.0540   0.5874  -0.9651  -1.1597   0.00    0.0
2023/06/27 12:41:51.000   31.027235900  121.439782383    23.1969   5  43   1.5198   1.1713   3.3876   0.4441  -0.7718  -1.1320   0.00    0.0
2023/06/27 12:41:52.000   31.027224564  121.439786927    22.8852   5  43   1.5198   1.1713   3.3876   0.4440  -0.7717  -1.1319   0.00    0.0
2023/06/27 12:41:53.000   31.027213091  121.439793240    21.5792   5  26   2.0290   1.4453   4.4669   0.6576  -0.7380  -1.4438   0.00    0.0
2023/06/27 12:41:54.000   31.027202100  121.439796834    22.9670   5  43   1.5198   1.1713   3.3874   0.4439  -0.7714  -1.1317   0.00    0.0
2023/06/27 12:41:55.000   31.027190959  121.439801169    23.0580   5  43   1.5198   1.1713   3.3873   0.4438  -0.7713  -1.1316   0.00    0.0
2023/06/27 12:41:57.000   31.027170039  121.439809207    23.2830   5  43   1.5197   1.1713   3.3872   0.4436  -0.7711  -1.1313   0.00    0.0
2023/06/27 12:41:58.000   31.027160591  121.439816203    22.7211   5  43   1.5197   1.1713   3.3871   0.4436  -0.7709  -1.1312   0.00    0.0
2023/06/27 12:41:59.000   31.027152719  121.439820927    22.7756   5  43   1.5197   1.1713   3.3870   0.4435  -0.7708  -1.1311   0.00    0.0
2023/06/27 12:42:00.000   31.027141208  121.439823621    23.2018   5  41   1.5406   1.2434   3.7607   0.5183  -0.8684  -1.2802   0.00    0.0
2023/06/27 12:42:01.000   31.027132434  121.439828711    22.4768   5  42   1.5219   1.1874   3.6013   0.4247  -0.5953  -1.1747   0.00    0.0
2023/06/27 12:42:02.000   31.027123753  121.439835746    22.1003   5  19   2.4383   1.7921   4.9339   0.9662  -1.0686  -1.6272   0.00    0.0
2023/06/27 12:42:03.000   31.027110602  121.439837721    23.2722   5  43   1.5196   1.1712   3.3867   0.4431  -0.7703  -1.1307   0.00    0.0
2023/06/27 12:42:04.000   31.027099260  121.439840851    22.9726   5  41   1.5548   1.2939   3.7494   0.6141  -1.2150  -1.3434   0.00    0.0
2023/06/27 12:42:05.000   31.027089680  121.439846545    23.3097   5  41   1.5548   1.2939   3.7493   0.6140  -1.2149  -1.3433   0.00    0.0
2023/06/27 12:42:06.000   31.027079290  121.439850882    22.6142   5  26   2.0286   1.4452   4.4673   0.6568  -0.7370  -1.4446   0.00    0.0
2023/06/27 12:42:07.000   31.027068902  121.439854451    23.1794   5  42   1.5375   1.2304   3.5386   0.5334  -0.9899  -1.2321   0.00    0.0
2023/06/27 12:42:08.000   31.027058403  121.439859565    22.7789   5  41   1.5547   1.2938   3.7491   0.6136  -1.2146  -1.3428   0.00    0.0
2023/06/27 12:42:09.000   31.027047698  121.439864719    22.9846   5  42   1.5312   1.2175   3.5466   0.5087  -0.9712  -1.2149   0.00    0.0
2023/06/27 12:42:10.000   31.027035745  121.439869173    23.3448   5  41   1.5546   1.2937   3.7490   0.6134  -1.2144  -1.3425   0.00    0.0
2023/06/27 12:42:11.000   31.027025338  121.439873792    23.3910   5  42   1.5312   1.2175   3.5464   0.5085  -0.9710  -1.2146   0.00    0.0
2023/06/27 12:42:12.000   31.027015010  121.439880592    23.1371   5  43   1.5195   1.1711   3.3860   0.4424  -0.7692  -1.1297   0.00    0.0
2023/06/27 12:42:14.000   31.026991350  121.439888094    23.3332   5  43   1.5195   1.1711   3.3859   0.4423  -0.7690  -1.1295   0.00    0.0
2023/06/27 12:42:15.000   31.026981543  121.439892896    23.0866   5  43   1.5194   1.1711   3.3858   0.4422  -0.7689  -1.1294   0.00    0.0
2023/06/27 12:42:16.000   31.026971573  121.439899424    22.9032   5  43   1.5194   1.1711   3.3857   0.4421  -0.7687  -1.1293   0.00    0.0
2023/06/27 12:42:17.000   31.026960202  121.439902480    23.0463   5  43   1.5194   1.1710   3.3856   0.4420  -0.7686  -1.1292   0.00    0.0
2023/06/27 12:42:18.000   31.026949068  121.439907392    22.9593   5  43   1.5194   1.1710   3.3856   0.4419  -0.7685  -1.1291   0.00    0.0
2023/06/27 12:42:19.000   31.026940819  121.439912912    22.9101   5  43   1.5194   1.1710   3.3855   0.4419  -0.7684  -1.1289   0.00    0.0
2023/06/27 12:42:20.000   31.026930960  121.439914824    23.1716   5  43   1.5194   1.1710   3.3854   0.4418  -0.7682  -1.1288   0.00    0.0
2023/06/27 12:42:21.000   31.026920421  121.439921989    22.6347   5  43   1.5193   1.1710   3.3853   0.4417  -0.7681  -1.1287   0.00    0.0
2023/06/27 12:42:22.000   31.026907546  121.439928243    22.5853   5  43   1.5193   1.1710   3.3852   0.4416  -0.7680  -1.1286   0.00    0.0
2023/06/27 12:42:23.000   31.026898354  121.439933192    22.6830   5  43   1.5193   1.1710   3.3852   0.4415  -0.7679  -1.1285   0.00    0.0
2023/06/27 12:42:24.000   31.026887178  121.439938311    21.1215   5  19   2.4367   1.7917   4.9360   0.9654  -1.0638  -1.6276   0.00    0.0
2023/06/27 12:42:27.000   31.026854466  121.439950259    22.4507   5  25   2.0350   1.5749   4.7171   0.7319  -1.2199  -1.5320   0.00    0.0
2023/06/27 12:42:28.000   31.026843932  121.439957101    23.3287   5  42   1.5307   1.2171   3.5449   0.5068  -0.9688  -1.2123   0.00    0.0
2023/06/27 12:42:29.000   31.026830977  121.439959650    23.6631   5  41   1.5513   1.2323   3.5932   0.5157  -0.9629  -1.2822   0.00    0.0
2023/06/27 12:42:30.000   31.026820254  121.439967962    23.2444   5  43   1.5192   1.1709   3.3846   0.4410  -0.7670  -1.1277   0.00    0.0
2023/06/27 12:42:31.000   31.026809867  121.439971257    23.1789   5  43   1.5192   1.1709   3.3845   0.4409  -0.7669  -1.1276   0.00    0.0
2023/06/27 12:42:32.000   31.026799575  121.439976260    23.1449   5  42   1.5369   1.2299   3.5371   0.5309  -0.9874  -1.2290   0.00    0.0
2023/06/27 12:42:33.000   31.026790105  121.439979304    23.1081   5  43   1.5192   1.1709   3.3844   0.4407  -0.7666  -1.1274   0.00    0.0
2023/06/27 12:42:34.000   31.026778388  121.439982506    22.9709   5  43   1.5191   1.1708   3.3843   0.4406  -0.7665  -1.1273   0.00    0.0
2023/06/27 12:42:35.000   31.026769155  121.439988403    22.7253   5  43   1.5191   1.1708   3.3842   0.4406  -0.7664  -1.1272   0.00    0.0
2023/06/27 12:42:36.000   31.026758835  121.439992897    23.0613   5  43   1.5191   1.1708   3.3841   0.4405  -0.7663  -1.1271   0.00    0.0
2023/06/27 12:42:38.000   31.026737984  121.440004144    23.0157   5  41   1.5535   1.2928   3.7471   0.6098  -1.2113  -1.3380   0.00    0.0
2023/06/27 12:42:39.000   31.026726290  121.440008079    23.2320   5  43   1.5191   1.1708   3.3839   0.4402  -0.7659  -1.1268   0.00    0.0
2023/06/27 12:42:40.000   31.026717172  121.440014970    23.0177   5  43   1.5190   1.1708   3.3838   0.4402  -0.7658  -1.1267   0.00    0.0
2023/06/27 12:42:41.000   31.026706148  121.440018510    22.9059   5  43   1.5190   1.1708   3.3837   0.4401  -0.7656  -1.1265   0.00    0.0
2023/06/27 12:42:42.000   31.026689675  121.440022418    23.8465   5  34   1.8415   1.3769   4.0522   0.5842  -0.9615  -1.1602   0.00    0.0
2023/06/27 12:42:43.000   31.026681289  121.440027659    23.5857   5  42   1.5212   1.1871   3.5981   0.4213  -0.5877  -1.1699   0.00    0.0
2023/06/27 12:42:44.000   31.026665839  121.440029384    23.9196   5  33   1.8421   1.4031   4.4399   0.5724  -0.6597  -1.1987   0.00    0.0
2023/06/27 12:42:45.000   31.026655974  121.440033400    24.0237   5  32   1.8461   1.4799   4.6230   0.5195  -1.0206  -1.1309   0.00    0.0
2023/06/27 12:42:46.000   31.026647151  121.440038510    22.5142   5  42   1.5211   1.1871   3.5979   0.4210  -0.5871  -1.1696   0.00    0.0
2023/06/27 12:42:47.000   31.026638370  121.440041977    22.8137   5  40   1.5264   1.2686   3.6852   0.3502  -0.7764  -1.1477   0.00    0.0
2023/06/27 12:42:49.000   31.026617658  121.440050245    22.8121   5  43   1.5189   1.1707   3.3831   0.4394  -0.7646  -1.1257   0.00    0.0
2023/06/27 12:42:50.000   31.026606360  121.440055532    22.8720   5  41   1.5941   1.2636   3.5072   0.5846  -1.0004  -1.1959   0.00    0.0
2023/06/27 12:42:51.000   31.026598824  121.440059836    22.9379   5  42   1.5211   1.2404   3.5022   0.4763  -0.9777  -1.1582   0.00    0.0
2023/06/27 12:42:52.000   31.026587960  121.440065499    20.7523   5  25   2.0339   1.5747   4.7196   0.7293  -1.2202  -1.5323   0.00    0.0
2023/06/27 12:42:53.000   31.026573815  121.440069628    22.6380   5  43   1.5188   1.1706   3.3827   0.4391  -0.7641  -1.1252   0.00    0.0
2023/06/27 12:42:54.000   31.026562376  121.440072574    22.7907   5  43   1.5188   1.1706   3.3827   0.4390  -0.7640  -1.1251   0.00    0.0
2023/06/27 12:42:55.000   31.026550996  121.440073704    22.8754   5  43   1.5188   1.1706   3.3826   0.4389  -0.7639  -1.1250   0.00    0.0
2023/06/27 12:42:56.000   31.026539370  121.440071905    22.3249   5  43   1.5188   1.1706   3.3825   0.4389  -0.7638  -1.1249   0.00    0.0
2023/06/27 12:42:57.000   31.026529325  121.440067766    23.0465   5  42   1.5210   1.1870   3.5971   0.4201  -0.5851  -1.1683   0.00    0.0
2023/06/27 12:42:58.000   31.026519500  121.440059021    22.7784   5  43   1.5188   1.1706   3.3823   0.4387  -0.7635  -1.1247   0.00    0.0
2023/06/27 12:42:59.000   31.026508565  121.440049962    23.1135   5  42   1.5354   1.1977   3.4314   0.4996  -0.6603  -1.0649   0.00    0.0
2023/06/27 12:43:00.000   31.026500798  121.440044635    23.4291   5  43   1.5187   1.1705   3.3822   0.4385  -0.7632  -1.1245   0.00    0.0
2023/06/27 12:43:01.000   31.026491612  121.440032304    22.9413   5  42   1.5354   1.1977   3.4312   0.4995  -0.6600  -1.0647   0.00    0.0
2023/06/27 12:43:02.000   31.026482093  121.440021978    23.3595   5  42   1.5209   1.1870   3.5967   0.4197  -0.5841  -1.1678   0.00    0.0
2023/06/27 12:43:03.000   31.026475238  121.440010541    21.9946   5  43   1.5187   1.1705   3.3819   0.4383  -0.7629  -1.1241   0.00    0.0
2023/06/27 12:43:04.000   31.026465057  121.439999809    22.0590   5  43   1.5187   1.1705   3.3818   0.4382  -0.7627  -1.1240   0.00    0.0
2023/06/27 12:43:05.000   31.026457236  121.439990250    22.3117   5  43   1.5187   1.1705   3.3817   0.4381  -0.7626  -1.1239   0.00    0.0
2023/06/27 12:43:06.000   31.026449294  121.439977426    22.9897   5  42   1.5359   1.2292   3.5351   0.5274  -0.9839  -1.2247   0.00    0.0
2023/06/27 12:43:07.000   31.026444291  121.439968470    22.6616   5  41   1.5523   1.2918   3.7451   0.6062  -1.2080  -1.3333   0.00    0.0
2023/06/27 12:43:08.000   31.026435302  121.439956457    23.4736   5  42   1.5359   1.2292   3.5350   0.5272  -0.9837  -1.2244   0.00    0.0
2023/06/27 12:43:09.000   31.026426474  121.439945602    23.8675   5  42   1.5297   1.2162   3.5412   0.5026  -0.9636  -1.2067   0.00    0.0
2023/06/27 12:43:10.000   31.026419684  121.439935391    23.5034   5  42   1.5358   1.2291   3.5349   0.5270  -0.9835  -1.2241   0.00    0.0
2023/06/27 12:43:11.000   31.026411993  121.439926858    23.8698   5  43   1.5186   1.1704   3.3812   0.4376  -0.7618  -1.1233   0.00    0.0
2023/06/27 12:43:12.000   31.026402394  121.439917946    22.2272   5  19   2.4331   1.7910   4.9404   0.9635  -1.0534  -1.6285   0.00    0.0
2023/06/27 12:43:13.000   31.026399882  121.439906479    23.5091   5  42   1.5270   1.1755   3.4303   0.4170  -0.7190  -1.1638   0.00    0.0
2023/06/27 12:43:14.000   31.026393029  121.439894828    23.8949   5  41   1.5447   1.2331   3.5857   0.5106  -0.9519  -1.2639   0.00    0.0
2023/06/27 12:43:15.000   31.026387516  121.439885312    23.7280   5  42   1.5270   1.1754   3.4301   0.4168  -0.7187  -1.1635   0.00    0.0
2023/06/27 12:43:16.000   31.026379188  121.439874677    23.5860   5  42   1.5270   1.1754   3.4300   0.4167  -0.7186  -1.1634   0.00    0.0
2023/06/27 12:43:17.000   31.026372503  121.439865754    23.4422   5  43   1.5185   1.1704   3.3807   0.4371  -0.7611  -1.1226   0.00    0.0
2023/06/27 12:43:18.000   31.026363712  121.439854526    23.6597   5  42   1.5356   1.2290   3.5343   0.5262  -0.9827  -1.2231   0.00    0.0
2023/06/27 12:43:19.000   31.026356369  121.439844336    23.4149   5  43   1.5184   1.1703   3.3806   0.4370  -0.7608  -1.1224   0.00    0.0
2023/06/27 12:43:20.000   31.026348779  121.439833235    23.6626   5  42   1.5356   1.2289   3.5342   0.5260  -0.9825  -1.2229   0.00    0.0
2023/06/27 12:43:21.000   31.026344325  121.439822653    23.3888   5  41   1.5518   1.2913   3.7441   0.6044  -1.2063  -1.3310   0.00    0.0
2023/06/27 12:43:22.000   31.026340202  121.439810523    23.8419   5  42   1.5355   1.2289   3.5341   0.5258  -0.9823  -1.2226   0.00    0.0
2023/06/27 12:43:23.000   31.026338145  121.439797265    23.7190   5  42   1.5355   1.2289   3.5340   0.5257  -0.9822  -1.2225   0.00    0.0
2023/06/27 12:43:24.000   31.026333617  121.439786598    23.6132   5  42   1.5355   1.2288   3.5340   0.5256  -0.9820  -1.2224   0.00    0.0
2023/06/27 12:43:25.000   31.026328987  121.439776014    23.8361   5  41   1.5516   1.2912   3.7438   0.6039  -1.2059  -1.3304   0.00    0.0
2023/06/27 12:43:26.000   31.026322742  121.439761036    24.4287   5  42   1.5354   1.2288   3.5338   0.5254  -0.9818  -1.2221   0.00    0.0
2023/06/27 12:43:27.000   31.026318495  121.439747983    24.1975   5  42   1.5354   1.2288   3.5338   0.5253  -0.9817  -1.2220   0.00    0.0
2023/06/27 12:43:28.000   31.026315453  121.439733112    23.7299   5  41   1.5400   1.3187   3.6999   0.5769  -1.2201  -1.2741   0.00    0.0
2023/06/27 12:43:29.000   31.026313194  121.439719567    24.1992   5  42   1.5353   1.2287   3.5336   0.5251  -0.9815  -1.2217   0.00    0.0
2023/06/27 12:43:30.000   31.026308149  121.439708676    24.0942   5  42   1.5353   1.2287   3.5336   0.5250  -0.9814  -1.2216   0.00    0.0
2023/06/27 12:43:31.000   31.026304205  121.439697706    22.4903   5  25   2.0554   1.5293   4.8253   0.7737  -1.2020  -1.6538   0.00    0.0
2023/06/27 12:43:32.000   31.026297861  121.439680981    22.8319   5  19   2.4316   1.7907   4.9422   0.9627  -1.0489  -1.6290   0.00    0.0
2023/06/27 12:43:33.000   31.026301650  121.439667687    24.3255   5  41   1.5358   1.2914   3.6356   0.5078  -1.1415  -1.2058   0.00    0.0
2023/06/27 12:43:34.000   31.026299158  121.439655920    23.9482   5  41   1.5440   1.2328   3.5843   0.5084  -0.9495  -1.2612   0.00    0.0
2023/06/27 12:43:35.000   31.026298974  121.439645961    23.2648   5  40   1.5477   1.2473   3.8238   0.4880  -0.8053  -1.3162   0.00    0.0
2023/06/27 12:43:36.000   31.026294942  121.439634800    23.9005   5  42   1.5266   1.1753   3.4282   0.4150  -0.7157  -1.1610   0.00    0.0
2023/06/27 12:43:37.000   31.026293868  121.439620518    24.1412   5  42   1.5265   1.1753   3.4281   0.4149  -0.7155  -1.1609   0.00    0.0
2023/06/27 12:43:38.000   31.026290893  121.439607671    24.1812   5  40   1.5471   1.2367   3.4804   0.5141  -0.5925  -1.1019   0.00    0.0
2023/06/27 12:43:39.000   31.026289122  121.439596961    24.4785   5  41   1.5441   1.1802   3.4973   0.3833  -0.6607  -1.2282   0.00    0.0
2023/06/27 12:43:40.000   31.026287343  121.439584669    23.4128   5  40   1.5487   1.2005   3.7506   0.3473  -0.3717  -1.2920   0.00    0.0
2023/06/27 12:43:41.000   31.026286663  121.439568547    20.4481   5  18   2.4317   1.8784   5.7863   0.9434   0.7817  -1.6869   0.00    0.0
2023/06/27 12:43:42.000   31.026285545  121.439562132    22.6067   5  41   1.5441   1.1802   3.4970   0.3830  -0.6602  -1.2278   0.00    0.0
2023/06/27 12:43:45.000   31.026274185  121.439536801    24.1382   5  39   1.5679   1.2525   3.9209   0.4559  -0.7386  -1.3960   0.00    0.0
2023/06/27 12:43:46.000   31.026270526  121.439530832    23.4548   5  38   1.5775   1.2806   4.0273   0.5042  -0.5472  -1.3373   0.00    0.0
2023/06/27 12:43:47.000   31.026263035  121.439525393    23.6096   5  39   1.5738   1.2589   3.7271   0.5285  -0.8111  -1.2746   0.00    0.0
2023/06/27 12:43:48.000   31.026250690  121.439518202    23.0911   5  39   1.5607   1.2369   3.8372   0.4220   0.3263  -1.2280   0.00    0.0
2023/06/27 12:43:49.000   31.026238197  121.439509509    23.5618   5  39   1.5607   1.2370   3.8371   0.4219   0.3267  -1.2279   0.00    0.0
2023/06/27 12:43:50.000   31.026228617  121.439506739    24.0557   5  40   1.5485   1.2005   3.7495   0.3462  -0.3684  -1.2908   0.00    0.0
2023/06/27 12:43:51.000   31.026219413  121.439498333    23.0467   5  39   1.5607   1.2370   3.8368   0.4218   0.3275  -1.2276   0.00    0.0
2023/06/27 12:43:52.000   31.026211475  121.439495423    23.1376   5  39   1.5607   1.2370   3.8367   0.4217   0.3279  -1.2275   0.00    0.0
2023/06/27 12:43:53.000   31.026202425  121.439491647    23.3284   5  39   1.5490   1.2225   3.8168   0.3598   0.1732  -1.2786   0.00    0.0
2023/06/27 12:43:54.000   31.026192219  121.439485411    23.2952   5  39   1.5490   1.2225   3.8167   0.3597   0.1740  -1.2784   0.00    0.0
2023/06/27 12:43:55.000   31.026185731  121.439481694    23.0860   5  39   1.5490   1.2225   3.8166   0.3596   0.1748  -1.2783   0.00    0.0
2023/06/27 12:43:56.000   31.026181326  121.439471614    23.1737   5  39   1.5489   1.2225   3.8165   0.3595   0.1756  -1.2782   0.00    0.0
2023/06/27 12:43:57.000   31.026174202  121.439461764    23.0669   5  39   1.5489   1.2225   3.8164   0.3594   0.1763  -1.2780   0.00    0.0
2023/06/27 12:43:58.000   31.026165756  121.439452834    23.3454   5  38   1.5939   1.2725   3.9006  -0.0606   0.5624  -1.3915   0.00    0.0
2023/06/27 12:43:59.000   31.026157071  121.439443585    23.2871   5  38   1.5730   1.3174   4.0963   0.5844  -1.0300  -1.4279   0.00    0.0
2023/06/27 12:44:00.000   31.026150357  121.439432163    21.7935   5  18   2.4303   1.8786   5.7913   0.9425   0.7927  -1.6879   0.00    0.0
2023/06/27 12:44:01.000   31.026143114  121.439420478    23.8651   5  39   1.5550   1.2615   3.8648   0.5014  -0.7384  -1.3102   0.00    0.0
2023/06/27 12:44:02.000   31.026134156  121.439411674    22.8616   5  35   1.6703   1.4220   4.4803   0.6228  -0.3045  -1.3359   0.00    0.0
2023/06/27 12:44:03.000   31.026128951  121.439401295    23.0264   5  38   1.5728   1.3173   4.0961   0.5839  -1.0293  -1.4272   0.00    0.0
2023/06/27 12:44:04.000   31.026122863  121.439390106    22.7977   5  37   1.5753   1.3239   4.0257   0.5932  -0.3140  -1.1963   0.00    0.0
2023/06/27 12:44:05.000   31.026116535  121.439376627    23.3928   5  37   1.6096   1.3520   4.1047   0.6066  -1.0087  -1.2708   0.00    0.0
2023/06/27 12:44:06.000   31.026112740  121.439359714    24.3435   5  39   1.6753   1.2194   3.9675   0.2330   0.3105  -1.5508   0.00    0.0
2023/06/27 12:44:07.000   31.026104342  121.439348421    23.7884   5  32   1.8505   1.4280   4.5006   0.6110  -0.4692  -1.1382   0.00    0.0
2023/06/27 12:44:08.000   31.026103064  121.439335851    24.0663   5  37   1.5871   1.4694   4.2125   0.4630  -1.2825  -1.3844   0.00    0.0
2023/06/27 12:44:09.000   31.026106857  121.439324893    24.1027   5  37   1.7177   1.3905   4.2453  -0.1363  -0.8157  -1.6280   0.00    0.0
2023/06/27 12:44:10.000   31.026107672  121.439311431    24.0313   5  40   1.5410   1.2553   3.7792   0.5252  -0.8014  -1.2438   0.00    0.0
2023/06/27 12:44:11.000   31.026101493  121.439297073    23.4888   5  38   1.5576   1.3882   4.1691   0.6011  -1.2941  -1.3573   0.00    0.0
2023/06/27 12:44:12.000   31.026088760  121.439292615    23.4664   5  40   1.5598   1.2416   3.6728   0.2922  -0.2117  -1.2265   0.00    0.0
2023/06/27 12:44:13.000   31.026076930  121.439280084    23.6770   5  38   1.6215   1.3008   3.6413   0.4429  -0.4466  -1.1555   0.00    0.0
2023/06/27 12:44:14.000   31.026075266  121.439265843    23.8959   5  37   1.6429   1.3463   4.0849   0.4666  -0.9867  -1.4178   0.00    0.0
2023/06/27 12:44:15.000   31.026064740  121.439250809    24.4748   5  36   1.7849   1.3885   4.5330   0.2878  -0.7605  -1.9007   0.00    0.0
2023/06/27 12:44:16.000   31.026057791  121.439235986    24.9308   5  35   1.8313   1.4339   4.3637  -0.5215   0.6145  -1.8778   0.00    0.0
2023/06/27 12:44:17.000   31.026055364  121.439221056    24.0682   5  33   1.8652   1.5524   5.1127  -0.4238   0.9392  -2.1504   0.00    0.0
2023/06/27 12:44:18.000   31.026053082  121.439204285    23.6177   5  37   1.7087   1.2931   4.3003   0.2270  -0.3199  -1.7133   0.00    0.0
2023/06/27 12:44:19.000   31.026045918  121.439187065    23.3583   5  35   1.8465   1.4270   4.7172  -0.4080  -0.3434  -2.0696   0.00    0.0
2023/06/27 12:44:20.000   31.026036201  121.439161974    23.9712   5  35   1.8623   1.3480   4.3843   0.5807   0.2173  -1.6416   0.00    0.0
2023/06/27 12:44:22.000   31.026028862  121.439123609    24.1369   5  37   1.5831   1.3396   4.0490   0.3554  -1.0027  -1.3478   0.00    0.0
2023/06/27 12:44:24.000   31.026012675  121.439084582    24.9179   5  38   1.7144   1.2624   4.0856  -0.2880   0.5926  -1.6894   0.00    0.0
2023/06/27 12:44:25.000   31.025997940  121.439069393    25.9102   5  34   1.8268   1.4001   4.3367   0.4975  -1.0439  -1.7426   0.00    0.0
2023/06/27 12:44:26.000   31.025998499  121.439043915    24.2614   5  35   1.8916   1.3967   4.8321  -0.3141  -0.2933  -2.1919   0.00    0.0
2023/06/27 12:44:28.000   31.025987206  121.438999120    23.6109   5  34   1.9032   1.5174   4.7153  -0.5528  -0.4788  -2.0966   0.00    0.0
2023/06/27 12:44:29.000   31.025982235  121.438983202    23.3055   5  36   1.8479   1.3663   4.4924  -0.4645   0.6555  -2.0211   0.00    0.0
2023/06/27 12:44:30.000   31.025980251  121.438972651    23.4398   5  36   1.7209   1.3919   4.3972  -0.1632  -0.7749  -1.7379   0.00    0.0
2023/06/27 12:44:31.000   31.025973334  121.438956901    22.7871   5  34   1.9100   1.4583   5.1540   0.4944  -1.1412  -2.1846   0.00    0.0
2023/06/27 12:44:32.000   31.025966827  121.438937041    23.4368   5  34   1.9219   1.4417   4.5661  -0.5740   0.8112  -1.9737   0.00    0.0
2023/06/27 12:44:34.000   31.025954049  121.438895588    24.2420   5  35   1.9096   1.3967   4.5003  -0.5968   0.5861  -1.9835   0.00    0.0
2023/06/27 12:44:35.000   31.025948316  121.438872019    24.2946   5  35   1.6806   1.4157   4.1450  -0.2850  -0.7101  -1.4890   0.00    0.0
2023/06/27 12:44:36.000   31.025942592  121.438856448    23.9159   5  36   1.8112   1.3942   4.3951  -0.5251   0.6320  -1.9139   0.00    0.0
2023/06/27 12:44:37.000   31.025936367  121.438837706    24.1876   5  34   1.8594   1.5439   4.9146  -0.3178  -1.0007  -2.1024   0.00    0.0
2023/06/27 12:44:38.000   31.025928672  121.438818060    23.6998   5  35   1.7127   1.4263   4.0758  -0.4839  -0.5299  -1.4577   0.00    0.0
2023/06/27 12:44:39.000   31.025918288  121.438795841    23.4994   5  34   1.8838   1.4570   4.7844  -0.2426  -0.2662  -2.0288   0.00    0.0
2023/06/27 12:44:40.000   31.025909921  121.438772711    23.6232   5  33   1.9597   1.5450   5.2089  -0.3148  -1.1538  -2.2490   0.00    0.0
2023/06/27 12:44:41.000   31.025903626  121.438750937    23.7589   5  33   1.7767   1.4914   4.2477  -0.4306  -0.6955  -1.3140   0.00    0.0
2023/06/27 12:44:42.000   31.025896333  121.438731715    24.0647   5  35   1.8586   1.4436   4.7095  -0.3459  -0.4852  -2.0897   0.00    0.0
2023/06/27 12:44:43.000   31.025890813  121.438714205    24.5403   5  34   1.8900   1.4715   4.9921  -0.2864  -0.8230  -2.1974   0.00    0.0
2023/06/27 12:44:44.000   31.025892260  121.438705391    24.7679   5  35   1.8880   1.3564   4.6312  -0.3717   0.7761  -1.9353   0.00    0.0
2023/06/27 12:44:45.000   31.025881135  121.438692306    24.7759   5  33   2.1668   1.4942   4.8423  -0.3109  -0.7642  -2.2803   0.00    0.0
2023/06/27 12:44:46.000   31.025877819  121.438672642    24.4476   5  34   2.0370   1.4686   4.8400   0.3265  -0.7385  -2.3027   0.00    0.0
2023/06/27 12:44:47.000   31.025881531  121.438655194    21.4890   5  17   3.1315   1.9339   7.3182  -0.1823   1.6490  -3.4204   0.00    0.0
2023/06/27 12:44:48.000   31.025871334  121.438639318    24.8187   5  34   1.8580   1.4622   5.1034   0.2033  -0.7346  -2.1282   0.00    0.0
2023/06/27 12:44:49.000   31.025867202  121.438622274    23.5042   5  34   1.9510   1.4460   4.8387  -0.5345   0.2814  -2.2305   0.00    0.0
2023/06/27 12:44:51.000   31.025851989  121.438589402    23.7105   5  36   1.8101   1.3940   4.3877  -0.5262   0.6298  -1.9087   0.00    0.0
2023/06/27 12:44:52.000   31.025846149  121.438574751    23.8737   5  34   1.9136   1.4835   4.7271  -0.5280  -0.6316  -2.0330   0.00    0.0
2023/06/27 12:44:53.000   31.025843669  121.438558164    23.6758   5  36   1.8592   1.3706   4.2603  -0.6855   0.8474  -1.8159   0.00    0.0
2023/06/27 12:44:54.000   31.025850369  121.438540477    21.4911   5  22   2.4875   1.7332   6.6113  -0.3088   0.9826  -2.8565   0.00    0.0
2023/06/27 12:44:55.000   31.025861092  121.438533929    23.9666   5  31   1.9647   1.5039   4.4742  -0.7930   0.6636  -1.9492   0.00    0.0
2023/06/27 12:44:56.000   31.025857746  121.438538889    25.2164   5  32   1.8910   1.6796   4.9415  -0.6843   1.5526  -1.7545   0.00    0.0
2023/06/27 12:44:57.000   31.025859468  121.438549590    25.1292   5  32   2.0106   1.5130   4.6211  -0.4967   1.3384  -2.0387   0.00    0.0
2023/06/27 12:44:58.000   31.025859510  121.438550515    24.0697   5  35   1.8735   1.4410   4.2701  -0.7725   1.0603  -1.9245   0.00    0.0
2023/06/27 12:44:59.000   31.025847655  121.438548109    24.2213   5  34   2.0084   1.3518   4.3197  -0.5323   0.9384  -1.9482   0.00    0.0
2023/06/27 12:45:00.000   31.025837295  121.438533824    24.6144   5  37   1.8048   1.3343   4.2353  -0.5751   0.9246  -1.8666   0.00    0.0
2023/06/27 12:45:01.000   31.025824894  121.438515115    24.6506   5  33   2.0907   1.4306   5.0598   0.4001  -0.4729  -2.3626   0.00    0.0
2023/06/27 12:45:02.000   31.025822414  121.438497334    25.1149   5  28   2.2707   1.5785   6.0449  -0.3375   0.7141  -2.5750   0.00    0.0
2023/06/27 12:45:03.000   31.025818970  121.438477106    21.7672   5  15   3.2967   2.5238   9.6701   1.2381  -2.7390  -4.2344   0.00    0.0
2023/06/27 12:45:04.000   31.025809502  121.438461365    24.4726   5  32   1.9353   1.6400   5.5875   0.4297  -1.4724  -2.2907   0.00    0.0
2023/06/27 12:45:05.000   31.025807873  121.438452120    24.8439   5  31   2.1057   1.6024   5.1900   0.2871  -1.1774  -2.2229   0.00    0.0
2023/06/27 12:45:06.000   31.025803491  121.438441374    23.6988   5  34   1.8433   1.4885   4.5556  -0.4704   0.2417  -1.8274   0.00    0.0
2023/06/27 12:45:07.000   31.025801047  121.438422046    24.5909   5  31   1.9941   1.6965   4.9912  -0.8134   1.0713  -1.9307   0.00    0.0
2023/06/27 12:45:08.000   31.025793949  121.438409139    24.5008   5  31   2.0044   1.6405   5.2584   0.2571  -0.1116  -2.1383   0.00    0.0
2023/06/27 12:45:09.000   31.025790534  121.438387686    24.5761   5  31   2.0083   1.6573   5.7703   0.5581  -1.5848  -2.4527   0.00    0.0
2023/06/27 12:45:10.000   31.025782193  121.438365709    25.1649   5  33   1.9167   1.4335   4.7148  -0.3883   0.4465  -2.0136   0.00    0.0
2023/06/27 12:45:11.000   31.025780785  121.438353153    22.8189   5  32   2.0516   1.5837   5.1601   0.4429  -1.1190  -2.2784   0.00    0.0
2023/06/27 12:45:12.000   31.025776387  121.438333805    23.9619   5  35   1.8445   1.4268   4.5803  -0.4791   0.1600  -2.0010   0.00    0.0
2023/06/27 12:45:14.000   31.025778696  121.438297610    24.6494   5  33   1.9945   1.4657   4.5241  -0.5808   1.0381  -1.9603   0.00    0.0
2023/06/27 12:45:15.000   31.025785860  121.438285414    24.7151   5  33   1.8926   1.5169   4.6178  -0.6522   0.5179  -1.9344   0.00    0.0
2023/06/27 12:45:16.000   31.025792434  121.438268251    24.0197   5  34   1.8903   1.4302   4.4241  -0.6876   0.9679  -1.9019   0.00    0.0
2023/06/27 12:45:17.000   31.025796885  121.438253396    23.8795   5  35   1.7868   1.4251   4.5580  -0.4327  -0.3337  -1.8542   0.00    0.0
2023/06/27 12:45:18.000   31.025801854  121.438237686    23.8205   5  33   1.8692   1.4712   4.6809  -0.5361  -0.4812  -1.9570   0.00    0.0
2023/06/27 12:45:19.000   31.025804890  121.438222501    22.1508   5  33   1.8964   1.4141   4.7185  -0.5003   0.1843  -2.0454   0.00    0.0
2023/06/27 12:45:20.000   31.025804737  121.438209486    23.3328   5  33   1.8963   1.4141   4.7181  -0.5004   0.1849  -2.0451   0.00    0.0
2023/06/27 12:45:21.000   31.025804341  121.438192346    21.0012   5  22   2.5720   1.6036   6.5928   0.1859   0.5225  -2.9076   0.00    0.0
2023/06/27 12:45:22.000   31.025794182  121.438193475    21.7738   5  23   2.4693   1.5629   5.9231  -0.4730   1.1455  -2.5241   0.00    0.0
2023/06/27 12:45:23.000   31.025791602  121.438206058    23.0041   5  33   1.9154   1.4930   4.5999  -0.7731   1.3344  -2.0528   0.00    0.0
2023/06/27 12:45:24.000   31.025790772  121.438205516    22.3475   5  33   1.9154   1.4930   4.5996  -0.7731   1.3343  -2.0525   0.00    0.0
2023/06/27 12:45:26.000   31.025788995  121.438196143    23.7387   5  35   1.8628   1.3319   4.3620  -0.5708   0.9052  -1.9221   0.00    0.0
2023/06/27 12:45:27.000   31.025792888  121.438193623    23.8386   5  33   1.8675   1.4493   4.7413  -0.6306   1.3705  -1.9831   0.00    0.0
2023/06/27 12:45:28.000   31.025796609  121.438187734    22.5932   5  35   1.8627   1.3319   4.3613  -0.5710   0.9052  -1.9217   0.00    0.0
2023/06/27 12:45:29.000   31.025797145  121.438186446    22.3438   5  35   1.8627   1.3319   4.3610  -0.5710   0.9052  -1.9214   0.00    0.0
2023/06/27 12:45:30.000   31.025797326  121.438188573    22.7769   5  35   1.8627   1.3318   4.3607  -0.5711   0.9052  -1.9212   0.00    0.0